~VERSION INFORMATION 
VERS  .    2.0                                     :CWLS Log ASCII Standard - VERSION 2.0
WRAP  .    NO                                      :One Line per Depth step
PROD  .    Schlumberger Technology Corp.           :LAS Producer
PROG  .    Horizon LASWriter 9.2.113335.3100       :LAS Program name and version
SOURCE.    17.5in Section-Drilling                 :Run&Pass Information
CREA  .    12/03/2019                              :LAS Creation date {MM/DD/YYYY}
#--------------------------------------------------
~WELL INFORMATION 
#MNEM           .UNIT                      DATA            :DESCRIPTION
#----            ------          --------------            -----------------------------
STRT            .m                    259.99440            :START DEPTH
STOP            .m                   2415.08280            :STOP DEPTH
STEP            .m                       0.1524            :STEP
NULL            .                       -999.25            :NULL VALUE
COMP            .                Shell Australia Pty Ltd   :COMPANY
WELL            .                   Bratwurst-1            :WELL NAME
FLD             .                     Bratwurst            :FIELD NAME
RIGN            .                    Ocean Apex            :Rig Name
RIGTYP          .                Semi-Submersible          :Rig Type
SON             .                     19AWA0035            :Service Order Number
SRVC            .                  Schlumberger            :SERVICE COMPANY
DATE            .                    10/02/2019            :LOG DATE(Composite Date for Composite LAP) (MM/DD/YYYY)
CLAB            .                       County:            :County Label
CNTY            .                                          :COUNTY
SLAB            .                        State:            :State/Province Label
STAT            .                Western Australia         :STATE or PROVINCE
PROV            .                Western Australia         :STATE or PROVINCE
CTRY            .                     Australia            :COUNTRY
CONT_REGION     .                   Australasia            :Continent Region
SECT            .                                          :Section
TOWN            .                                          :Township
RANG            .                                          :Range
API             .                                          :API NUMBER
UWI             .                     19AWA0035            :UNIQUE WELL ID
LUL             .                        Zone 1            :Logging Unit Location
LUN             .                       1010979            :Logging Unit Number
LOC             .                  Browse Basin            :FIELD LOCATION
FL1             .                8 576 622.839 m N         :Field Location Line 1
FL2             .                653 417.755 m E           :Field Location Line 2
LATI            .deg             12° 52' 18.374" S         :LATITUDE
LONG            .deg             124° 24' 50.041" E        :LONGITUDE
PDAT            .                         OTHER            :Local Permanent Datum
LMF             .                            DF            :Logging Measured From
APD             .m                        23.85            :Elevation of Depth Reference (LMF) Above Permanent Datum
EPD             .m                        -2.68            :Elevation of Permanent Datum (PDAT) above Mean Sea Level
EKB             .m                      -999.25            :Elevation of Kelly Bushing Above Permanent Datum
EDF             .m                        23.85            :Elevation of Drill Floor Above Permanent Datum
EGL             .m                      -152.26            :Elevation of Ground Level Above Permanent Datum
ECF             .m                      -999.25            :Elevation of Casing Flange above Permanent Datum
#--------------------------------------------------
~CURVE INFORMATION
#MNEM           .UNIT                  API CODE            :DESCRIPTION
#----            ------          --------------            -----------------------------
DEPT            .m                                         :                                                        Depth Index
TVD             .m                                         :(RT)    (DnMWorkflow)           (6in)                   True Vertical Depth
ROP5            .m/h                                       :(RT)    (DRILLING_SURFACE)      (6in)                   Rate of penetration averaged over the last 5 ft (1.5 m)
TAB_GR          .h                                         :        (ARC9)                  (6in)                   Gamma Ray Time after Bit
GR              .gAPI                                      :(RM)    (ARC9)                  (6in)                   Gamma Ray
TAB_RES         .h                                         :        (ARC9)                  (6in)                   Resistivity Time After Bit
P16H            .ohm.m                                     :(RM)    (ARC9)                  (6in)                   Phase Shift Resistivity 16 inch Spacing at 2 MHz, Environmentally Corrected.
P28H            .ohm.m                                     :(RM)    (ARC9)                  (6in)                   Phase Shift Resistivity 28 inch Spacing at 2 MHz, Environmentally Corrected.
P40H            .ohm.m                                     :(RM)    (ARC9)                  (6in)                   Phase Shift Resistivity 40 inch Spacing at 2 MHz, Environmentally Corrected.
P40L            .ohm.m                                     :(RM)    (ARC9)                  (6in)                   Phase Shift Resistivity 40 inch Spacing at 400 KHz, Environmentally Corrected.
A40H            .ohm.m                                     :(RM)    (ARC9)                  (6in)                   Attenuation Resistivity 40 inch Spacing at 2 MHz, Environmentally Corrected.
DHAT            .degC                                      :(RM)    (ARC9)                  (6in)                   Downhole Annulus Temperature
DHAP            .psi                                       :(RM)    (ARC9)                  (6in)                   Downhole Annulus Pressure
ECD             .g/cm3                                     :(RM)    (ARC9)                  (6in)                   Equivalent Circulating Density
#-------------------------------------------------------------
#            DEPT          TVD         ROP5       TAB_GR           GR      TAB_RES         P16H         P28H         P40H         P40L         A40H         DHAT         DHAP          ECD 
#                  (DnMWorkfl)  (DRILLING_)       (ARC9)       (ARC9)       (ARC9)       (ARC9)       (ARC9)       (ARC9)       (ARC9)       (ARC9)       (ARC9)       (ARC9)       (ARC9) 
#                         (RT)         (RT)                      (RM)                      (RM)         (RM)         (RM)         (RM)         (RM)         (RM)         (RM)         (RM) 
#                        (6in)        (6in)        (6in)        (6in)        (6in)        (6in)        (6in)        (6in)        (6in)        (6in)        (6in)        (6in)        (6in) 
~ASCII
# ...
       1400.25120   1400.21685     20.19298      1.13637     21.08089      1.13637      1.98679      1.87622      1.91478      2.00037      2.01286     41.00000   2177.00049      1.11203
       1400.40360   1400.36925     22.66722      1.14233     19.23071      1.14233      2.16024      2.01186      2.01805      2.01683      1.97896     41.00000   2177.48782      1.11217
       1400.55600   1400.52165     24.95595      1.14637     15.23248      1.14637      2.13542      1.94262      1.89453      1.94767      1.92905     41.00000   2177.99980      1.11232
       1400.70840   1400.67405     34.09595      1.15540     13.05132      1.15540      1.97415      1.76980      1.69317      1.86175      1.91049     42.00000   2177.99980      1.11217
       1400.86080   1400.82644     31.87306      1.16733     13.52821      1.16733      1.90348      1.72099      1.63722      1.85829      1.91614     42.00000   2177.99980      1.11203
       1401.01320   1400.97884     33.55600      1.17442     14.17592      1.17442      2.03378      1.89201      1.82430      1.99856      2.01764     42.00000   2177.99980      1.11196
       1401.16560   1401.13124     32.19665      1.19206     13.74839      1.19206      2.25392      2.13210      2.09418      2.17605      2.15214     42.00000   2177.99980      1.11177
       1401.31800   1401.28363     30.60138      1.19255     13.81578      1.19255      2.49422      2.35839      2.33860      2.32692      2.28854     42.00000   2177.99980      1.11164
       1401.47040   1401.43603     31.31359      1.18957     15.35020      1.18957      3.02282      2.68473      2.63788      2.60028      2.53275     42.00000   2177.99980      1.11158
       1401.62280   1401.58843     31.73222      1.18795     16.34908      1.18795      2.99759      2.65784      2.58502      2.60347      2.60629     42.00000   2177.00049      1.11093
       1401.77520   1401.74083     32.30540      1.19998     16.01812      1.19998      2.89953      2.60896      2.50281      2.62876      2.63658     42.00000   2177.99980      1.11137
       1401.92760   1401.89322     32.48013      1.20345     15.94742      1.20345      2.84893      2.58755      2.46700      2.62106      2.65915     42.00000   2177.99980      1.11123
       1402.08000   1402.04562     31.62763      1.21045     16.29191      1.21045      2.85404      2.63922      2.51905      2.72896      2.72169     42.00000   2179.00056      1.11160
       1402.23240   1402.19802     31.53485      1.22922     16.01662      1.22922      2.72689      2.53935      2.47058      2.80842      2.90550     42.00000   2179.00056      1.11145
       1402.38480   1402.35041     32.87994      1.24136     14.57397      1.24136      2.74512      2.58105      2.54576      2.90971      2.99861     42.00000   2179.00056      1.11136
       1402.53720   1402.50281     22.27638      1.22206     14.79510      1.22206      3.36384      3.17034      3.18066      3.24311      3.19517     42.00000   2179.00056      1.11116
       1402.68960   1402.65521     21.61992      1.23817     17.83837      1.23817      3.86061      3.58235      3.58146      3.43903      3.31662     42.00000   2179.00056      1.11109
       1402.84200   1402.80761     20.44149      1.24888     20.20167      1.24888      4.06571      3.68270      3.65781      3.41020      3.30598     42.00000   2177.99980      1.11042
       1402.99440   1402.96000     19.78049      1.25421     20.49050      1.25421      4.14244      3.69902      3.60824      3.26542      3.08154     42.00000   2179.00056      1.11085
       1403.14680   1403.11240     18.54852      1.26498     19.42243      1.26498      3.80517      3.42396      3.23837      3.01492      2.84914     42.00000   2179.00056      1.11070
       1403.29920   1403.26480     16.80263      1.26330     17.32238      1.26330      2.98396      2.75661      2.59695      2.61056      2.61044     42.00000   2177.99980      1.11007
       1403.45160   1403.41720     16.82138      1.26513     15.26897      1.26513      2.38070      2.25652      2.17588      2.28505      2.33030     42.00000   2177.00049      1.10945
       1403.60400   1403.56959     16.67352      1.26582     13.66836      1.26582      2.09129      1.99085      1.91412      2.09403      2.09188     42.00000   2175.99973      1.10889
       1403.75640   1403.72199     16.75860      1.26401     11.81151      1.26401      1.84048      1.71230      1.63095      1.92547      1.96259     42.00000   2177.00049      1.10923
       1403.90880   1403.87439     17.00806      1.26499     10.84623      1.26499      1.65158      1.52296      1.47068      1.84270      1.96769     42.00000   2177.00049      1.10915
       1404.06120   1404.02678     21.60286      1.26791     11.50847      1.26791      1.81646      1.72540      1.73089      2.02784      2.08145     42.00000   2177.00049      1.10901
       1404.21360   1404.17918     22.71255      1.26609     12.40940      1.26609      2.37397      2.25585      2.29104      2.29950      2.22831     42.00000   2177.00049      1.10885
       1404.36600   1404.33158     24.98841      1.27276     13.52187      1.27276      2.90908      2.63453      2.62940      2.46331      2.33004     42.00000   2179.00056      1.10970
       1404.51840   1404.48398     25.51551      1.27873     13.83403      1.27873      3.03099      2.61566      2.55986      2.45433      2.38280     42.00000   2179.79247      1.11003
       1404.67080   1404.63637     29.34760      1.28637     13.30892      1.28637      2.74950      2.33542      2.23384      2.35722      2.41960     42.00000   2179.00056      1.10949
       1404.82320   1404.78877     35.22469      1.29894     14.16679      1.29894      2.66648      2.29573      2.17792      2.31802      2.40594     42.00000   2177.99980      1.10882
       1404.97560   1404.94117     38.02504      1.30248     14.70735      1.30248      2.59605      2.37528      2.20358      2.33196      2.35766     42.00000   2177.99980      1.10870
       1405.12800   1405.09356     38.90688      1.31388     13.30331      1.31388      2.40516      2.30459      2.20376      2.35120      2.46089     42.00000   2179.00056      1.10914
       1405.28040   1405.24596     38.63837      1.31651     11.65356      1.31651      2.58549      2.49354      2.47265      2.52755      2.54451     42.00000   2179.00056      1.10903
       1405.43280   1405.39836     38.13063      1.31651     11.30957      1.31651      3.10732      2.96580      2.95497      2.77763      2.61509     42.00000   2179.00056      1.10892
       1405.58520   1405.55076     34.37798      1.31345     12.72063      1.31345      3.41086      3.12643      3.02704      2.78868      2.66210     42.00000   2179.00056      1.10873
       1405.73760   1405.70315     36.72447      1.31054     14.24963      1.31054      3.44108      3.07833      2.96123      2.75888      2.68057     42.00000   2179.97811      1.10915
       1405.89000   1405.85555     41.22319      1.31754     14.62732      1.31754      3.44888      3.09105      2.99620      2.77663      2.65619     42.00000   2179.99987      1.10900
       1406.04240   1406.00795     35.25770      1.31123     14.36898      1.31123      3.55197      3.19329      3.04588      2.74387      2.50775     42.00000   2179.99987      1.10893
       1406.19480   1406.16035     35.02352      1.31582     13.99831      1.31582      3.00969      2.69792      2.51480      2.50753      2.38835     42.00000   2181.00063      1.10932
       1406.34720   1406.31274     33.21782      1.31998     14.27210      1.31998      2.24934      2.09101      1.98865      2.27678      2.36242     42.00000   2181.52277      1.10944
       1406.49960   1406.46514     32.74384      1.32207     13.99831      1.32207      2.21524      2.16451      2.10183      2.37096      2.38215     42.00000   2182.99925      1.11004
       1406.65200   1406.61754     32.54099      1.32138     12.67149      1.32138      2.30376      2.27647      2.22159      2.50366      2.46677     42.00000   2181.99994      1.10949
