~VERSION INFORMATION 
VERS  .    2.0                                     :CWLS Log ASCII Standard - VERSION 2.0
WRAP  .    NO                                      :One Line per Depth step
PROD  .    Schlumberger Technology Corp.           :LAS Producer
PROG  .    Horizon LASWriter 9.2.113335.3100       :LAS Program name and version
SOURCE.    17.5in Section-Drilling                 :Run&Pass Information
CREA  .    12/03/2019                              :LAS Creation date {MM/DD/YYYY}
#--------------------------------------------------
~WELL INFORMATION 
#MNEM           .UNIT                      DATA            :DESCRIPTION
#----            ------          --------------            -----------------------------
STRT            .m                    259.99440            :START DEPTH
STOP            .m                   2415.08280            :STOP DEPTH
STEP            .m                       0.1524            :STEP
NULL            .                       -999.25            :NULL VALUE
COMP            .                Shell Australia Pty Ltd   :COMPANY
WELL            .                   Bratwurst-1            :WELL NAME
FLD             .                     Bratwurst            :FIELD NAME
RIGN            .                    Ocean Apex            :Rig Name
RIGTYP          .                Semi-Submersible          :Rig Type
SON             .                     19AWA0035            :Service Order Number
SRVC            .                  Schlumberger            :SERVICE COMPANY
DATE            .                    10/02/2019            :LOG DATE(Composite Date for Composite LAP) (MM/DD/YYYY)
CLAB            .                       County:            :County Label
CNTY            .                                          :COUNTY
SLAB            .                        State:            :State/Province Label
STAT            .                Western Australia         :STATE or PROVINCE
PROV            .                Western Australia         :STATE or PROVINCE
CTRY            .                     Australia            :COUNTRY
CONT_REGION     .                   Australasia            :Continent Region
SECT            .                                          :Section
TOWN            .                                          :Township
RANG            .                                          :Range
API             .                                          :API NUMBER
UWI             .                     19AWA0035            :UNIQUE WELL ID
LUL             .                        Zone 1            :Logging Unit Location
LUN             .                       1010979            :Logging Unit Number
LOC             .                  Browse Basin            :FIELD LOCATION
FL1             .                8 576 622.839 m N         :Field Location Line 1
FL2             .                653 417.755 m E           :Field Location Line 2
LATI            .deg             12° 52' 18.374" S         :LATITUDE
LONG            .deg             124° 24' 50.041" E        :LONGITUDE
PDAT            .                         OTHER            :Local Permanent Datum
LMF             .                            DF            :Logging Measured From
APD             .m                        23.85            :Elevation of Depth Reference (LMF) Above Permanent Datum
EPD             .m                        -2.68            :Elevation of Permanent Datum (PDAT) above Mean Sea Level
EKB             .m                      -999.25            :Elevation of Kelly Bushing Above Permanent Datum
EDF             .m                        23.85            :Elevation of Drill Floor Above Permanent Datum
EGL             .m                      -152.26            :Elevation of Ground Level Above Permanent Datum
ECF             .m                      -999.25            :Elevation of Casing Flange above Permanent Datum
#--------------------------------------------------
~CURVE INFORMATION
#MNEM           .UNIT                  API CODE            :DESCRIPTION
#----            ------          --------------            -----------------------------
DEPT            .m                                         :                                                        Depth Index
TVD             .m                                         :(RT)    (DnMWorkflow)           (6in)                   True Vertical Depth
ROP5            .m/h                                       :(RT)    (DRILLING_SURFACE)      (6in)                   Rate of penetration averaged over the last 5 ft (1.5 m)
TAB_GR          .h                                         :        (ARC9)                  (6in)                   Gamma Ray Time after Bit
GR              .gAPI                                      :(RM)    (ARC9)                  (6in)                   Gamma Ray
TAB_RES         .h                                         :        (ARC9)                  (6in)                   Resistivity Time After Bit
P16H            .ohm.m                                     :(RM)    (ARC9)                  (6in)                   Phase Shift Resistivity 16 inch Spacing at 2 MHz, Environmentally Corrected.
P28H            .ohm.m                                     :(RM)    (ARC9)                  (6in)                   Phase Shift Resistivity 28 inch Spacing at 2 MHz, Environmentally Corrected.
P40H            .ohm.m                                     :(RM)    (ARC9)                  (6in)                   Phase Shift Resistivity 40 inch Spacing at 2 MHz, Environmentally Corrected.
P40L            .ohm.m                                     :(RM)    (ARC9)                  (6in)                   Phase Shift Resistivity 40 inch Spacing at 400 KHz, Environmentally Corrected.
A40H            .ohm.m                                     :(RM)    (ARC9)                  (6in)                   Attenuation Resistivity 40 inch Spacing at 2 MHz, Environmentally Corrected.
DHAT            .degC                                      :(RM)    (ARC9)                  (6in)                   Downhole Annulus Temperature
DHAP            .psi                                       :(RM)    (ARC9)                  (6in)                   Downhole Annulus Pressure
ECD             .g/cm3                                     :(RM)    (ARC9)                  (6in)                   Equivalent Circulating Density
#-------------------------------------------------------------
#            DEPT          TVD         ROP5       TAB_GR           GR      TAB_RES         P16H         P28H         P40H         P40L         A40H         DHAT         DHAP          ECD 
#                  (DnMWorkfl)  (DRILLING_)       (ARC9)       (ARC9)       (ARC9)       (ARC9)       (ARC9)       (ARC9)       (ARC9)       (ARC9)       (ARC9)       (ARC9)       (ARC9) 
#                         (RT)         (RT)                      (RM)                      (RM)         (RM)         (RM)         (RM)         (RM)         (RM)         (RM)         (RM) 
#                        (6in)        (6in)        (6in)        (6in)        (6in)        (6in)        (6in)        (6in)        (6in)        (6in)        (6in)        (6in)        (6in) 
~ASCII
        259.99440    259.99099    130.38600      1.02484     30.65422      1.02484      0.10000      6.23326      0.53155      1.60513      0.21783     30.00000    361.99998      1.07786
        260.14680    260.14339    130.11730      1.02513     33.71270      1.02513      1.46529      6.55878      0.70973      1.73805      0.21199     30.00000    361.99998      1.07710
        260.29920    260.29578    128.98080      1.02525     36.49313      1.02525      0.10000      9.13567      0.67597      1.48143      0.18949     30.00000    361.99998      1.07672
        260.45160    260.44817    126.43770      1.02527     38.09187      1.02527      0.10000      8.92729      0.68710      1.44987      0.18821     30.00000    360.99994      1.07253
        260.60400    260.60056    125.74900      1.02526     40.45523      1.02526      0.10000      7.52880      0.59011      1.37783      0.21819     30.00000    361.74515      1.07426
        260.75640    260.75296    117.40510      1.02457     43.72224      1.02457      7.00000      0.82989      0.57504      1.86128      0.29270     30.00000    363.00001      1.07717
        260.90880    260.90535    105.31960      1.02318     45.73805      1.02318      0.20445     11.84304      1.27442      1.70534      0.32208     30.00000    363.00001      1.07660
        261.06120    261.05774     35.05044      0.82568     44.55637      0.82568      0.21423      5.84495      0.76044   1000.00000      0.19928     30.00000    363.00001      1.07580
        261.21360    261.21014     32.05654      0.82179     41.35888      0.82179      0.22501     10.41728      0.31663      1.66168      0.18975     30.00000    363.77263      1.07751
        261.36600    261.36253     29.53256      0.81776     40.24670      0.81776      2.38913      8.80139      0.78058      3.16687      0.31945     30.00000    364.99994      1.08022
        261.51840    261.51492     27.31046      0.81359     40.45523      0.81359      7.00000      4.45698      0.20000      1.00887    150.00000     30.00000    365.30699      1.08067
        261.67080    261.66732     24.97731      0.80859     38.50893      0.80859      0.87492      5.73434      0.21320      1.23346      0.34396     30.00000    365.76733      1.08133
        261.82320    261.81971     14.88922      0.76720     36.42361      0.76720      1.24807     11.42076      0.55132   1000.00000      0.19483     30.00000    365.99998      1.08167
        261.97560    261.97210      8.11251      0.68207     37.64005      0.68207      0.67649      8.60081      1.27228      1.88782      0.18305     30.00000    366.67904      1.08264
        262.12800    262.12450      7.63907      0.51895     40.87230      0.51895      0.58792      9.95370      0.40068      1.25084      0.26737     30.00000    367.00001      1.08310
        262.28040    262.27689      7.57541      0.51721     43.20091      0.51721      0.41312      5.88576      0.70943      5.62784      0.43953     30.00000    367.58785      1.08394
        262.43280    262.42928      7.26743      0.50873     45.70330      0.50873      0.66018   1000.00000      0.20000      0.79281      0.29188     30.00000    368.00005      1.08452
        262.58520    262.58167      8.15374      0.50290     51.15989      0.50290      0.29848      3.56047      0.20000   1000.00000      0.21754     30.00000    368.00005      1.08344
        262.73760    262.73407      7.75882      0.49026     55.85186      0.49026      0.61034      0.73507      0.20000      0.10000      2.07672     30.00000    368.35539      1.08412
        262.89000    262.88646      7.37877      0.47667     55.67809      0.47667      0.71187   1000.00000   1000.00000      0.29843      0.15000     30.00000    369.00008      1.08535
        263.04240    263.03885      7.48341      0.47559     30.12744      0.47559      0.17285      0.63979      0.24688      0.79239      0.10000     30.00000    369.99997      1.08762
        263.19480    263.19125      7.71212      0.47665     27.39382      0.47665      0.32494      0.70745      1.46628      1.09255      0.10000     30.00000    370.66294      1.08883
        263.34720    263.34364      9.79423      0.49611     28.38362      0.49611      0.56602      1.20252      0.99791      1.63688      0.10000     30.00000    371.00001      1.08944
        263.49960    263.49603     21.36603      0.49651     29.18836      0.49651      0.31697     10.93021      0.10000   1000.00000    200.00000     30.00000    371.00001      1.08845
        263.65200    263.64843     24.25877      0.49929     27.04560      0.49929      0.52967      1.12330   1000.00000      0.10000      0.24122     31.00000    371.53288      1.08930
        263.80440    263.80082     17.00060      0.47153     25.56089      0.47153      0.64461      0.77039   1000.00000   1000.00000      0.13315     31.00000    372.00004      1.09005
        263.95680    263.95321     18.48720      0.46999     26.19837      0.46999      0.63226      0.83543      0.20890      0.10000      1.43650     31.00000    372.99993      1.09228
        264.10920    264.10561     19.43272      0.46943     27.47333      0.46943      0.63016      0.83506      0.98985      1.01157      0.63914     31.00000    373.99997      1.09455
        264.26160    264.25800     22.74546      0.46846     26.97980      0.46846      0.55198      0.71861      0.84244      0.92745      0.86090     31.00000    372.99993      1.09066
        264.41400    264.41039     27.82276      0.46680     25.58146      0.46680      0.42950      0.57557      0.67937      0.85540      0.93320     31.00000    372.99993      1.08999
        264.56640    264.56279     27.23242      0.46444     25.86935      0.46444      0.40980      0.60270      0.71522      0.87344      0.91339     31.00000    372.99993      1.08923
        264.71880    264.71518     25.76505      0.46221     26.15725      0.46221      0.45307      0.69296      0.81411      0.89527      0.89328     31.00000    373.99997      1.09142
        264.87120    264.86757     24.55284      0.45984     25.86935      0.45984      0.44293      0.68140      0.80606      0.91603      0.91678     31.00000    373.99997      1.09099
        265.02360    265.01997     21.76358      0.42151     27.18544      0.42151      0.44293      0.68140      0.80606      0.91603      0.91678     31.00000    373.99997      1.09053
        265.17600    265.17236     19.58758      0.35819     28.91280      0.35819      0.48200      0.71403      0.90242      0.95099      0.93719     31.00000    373.99997      1.08961
        265.32840    265.32476     31.88167      0.35875     30.14663      0.35875      0.53518      0.79286      0.99250      0.99059      0.94956     31.00000    373.99997      1.08917
        265.48080    265.47715     33.72960      0.35846     30.72242      0.35846      0.55112      0.76192      0.91343      0.96916      0.92706     31.00000    374.57867      1.08992
        265.63320    265.62954     31.09679      0.35249     29.36521      0.35249      0.50135      0.68686      0.83323      0.93212      0.93219     31.00000    375.00000      1.09047
        265.78560    265.78194     27.54045      0.34373     27.47333      0.34373      0.41968      0.62863      0.75942      0.92004      0.95641     31.00000    375.00000      1.08977
        265.93800    265.93433     23.34970      0.33207     26.56852      0.33207      0.41968      0.62863      0.75942      0.92004      0.95641     31.00000    375.00000      1.08881
        266.09040    266.08672     21.44900      0.32373     26.32176      0.32373      0.41034      0.67642      0.84904      0.95178      0.95299     31.00000    375.24047      1.08910
        266.24280    266.23912     21.66995      0.32208     26.15725      0.32208      0.45985      0.73933      0.92118      0.98998      0.95527     31.00000    375.64368      1.08959
        266.39520    266.39151     22.14302      0.32111     25.12905      0.32111      0.53257      0.76745      0.93415      0.95441      0.93421     31.00000    376.00004      1.09001
