~VERSION INFORMATION 
VERS  .    2.0                                     :CWLS Log ASCII Standard - VERSION 2.0
WRAP  .    NO                                      :One Line per Depth step
PROD  .    Schlumberger Technology Corp.           :LAS Producer
PROG  .    Horizon LASWriter 9.2.113335.3100       :LAS Program name and version
SOURCE.    17.5in Section-Drilling                 :Run&Pass Information
CREA  .    12/03/2019                              :LAS Creation date {MM/DD/YYYY}
#--------------------------------------------------
~WELL INFORMATION 
#MNEM           .UNIT                      DATA            :DESCRIPTION
#----            ------          --------------            -----------------------------
STRT            .m                    259.99440            :START DEPTH
STOP            .m                   2415.08280            :STOP DEPTH
STEP            .m                       0.1524            :STEP
NULL            .                       -999.25            :NULL VALUE
COMP            .                Shell Australia Pty Ltd   :COMPANY
WELL            .                   Bratwurst-1            :WELL NAME
FLD             .                     Bratwurst            :FIELD NAME
RIGN            .                    Ocean Apex            :Rig Name
RIGTYP          .                Semi-Submersible          :Rig Type
SON             .                     19AWA0035            :Service Order Number
SRVC            .                  Schlumberger            :SERVICE COMPANY
DATE            .                    10/02/2019            :LOG DATE(Composite Date for Composite LAP) (MM/DD/YYYY)
CLAB            .                       County:            :County Label
CNTY            .                                          :COUNTY
SLAB            .                        State:            :State/Province Label
STAT            .                Western Australia         :STATE or PROVINCE
PROV            .                Western Australia         :STATE or PROVINCE
CTRY            .                     Australia            :COUNTRY
CONT_REGION     .                   Australasia            :Continent Region
SECT            .                                          :Section
TOWN            .                                          :Township
RANG            .                                          :Range
API             .                                          :API NUMBER
UWI             .                     19AWA0035            :UNIQUE WELL ID
LUL             .                        Zone 1            :Logging Unit Location
LUN             .                       1010979            :Logging Unit Number
LOC             .                  Browse Basin            :FIELD LOCATION
FL1             .                8 576 622.839 m N         :Field Location Line 1
FL2             .                653 417.755 m E           :Field Location Line 2
LATI            .deg             12° 52' 18.374" S         :LATITUDE
LONG            .deg             124° 24' 50.041" E        :LONGITUDE
PDAT            .                         OTHER            :Local Permanent Datum
LMF             .                            DF            :Logging Measured From
APD             .m                        23.85            :Elevation of Depth Reference (LMF) Above Permanent Datum
EPD             .m                        -2.68            :Elevation of Permanent Datum (PDAT) above Mean Sea Level
EKB             .m                      -999.25            :Elevation of Kelly Bushing Above Permanent Datum
EDF             .m                        23.85            :Elevation of Drill Floor Above Permanent Datum
EGL             .m                      -152.26            :Elevation of Ground Level Above Permanent Datum
ECF             .m                      -999.25            :Elevation of Casing Flange above Permanent Datum
#--------------------------------------------------
~CURVE INFORMATION
#MNEM           .UNIT                  API CODE            :DESCRIPTION
#----            ------          --------------            -----------------------------
DEPT            .m                                         :                                                        Depth Index
TVD             .m                                         :(RT)    (DnMWorkflow)           (6in)                   True Vertical Depth
ROP5            .m/h                                       :(RT)    (DRILLING_SURFACE)      (6in)                   Rate of penetration averaged over the last 5 ft (1.5 m)
TAB_GR          .h                                         :        (ARC9)                  (6in)                   Gamma Ray Time after Bit
GR              .gAPI                                      :(RM)    (ARC9)                  (6in)                   Gamma Ray
TAB_RES         .h                                         :        (ARC9)                  (6in)                   Resistivity Time After Bit
P16H            .ohm.m                                     :(RM)    (ARC9)                  (6in)                   Phase Shift Resistivity 16 inch Spacing at 2 MHz, Environmentally Corrected.
P28H            .ohm.m                                     :(RM)    (ARC9)                  (6in)                   Phase Shift Resistivity 28 inch Spacing at 2 MHz, Environmentally Corrected.
P40H            .ohm.m                                     :(RM)    (ARC9)                  (6in)                   Phase Shift Resistivity 40 inch Spacing at 2 MHz, Environmentally Corrected.
P40L            .ohm.m                                     :(RM)    (ARC9)                  (6in)                   Phase Shift Resistivity 40 inch Spacing at 400 KHz, Environmentally Corrected.
A40H            .ohm.m                                     :(RM)    (ARC9)                  (6in)                   Attenuation Resistivity 40 inch Spacing at 2 MHz, Environmentally Corrected.
DHAT            .degC                                      :(RM)    (ARC9)                  (6in)                   Downhole Annulus Temperature
DHAP            .psi                                       :(RM)    (ARC9)                  (6in)                   Downhole Annulus Pressure
ECD             .g/cm3                                     :(RM)    (ARC9)                  (6in)                   Equivalent Circulating Density
#-------------------------------------------------------------
#            DEPT          TVD         ROP5       TAB_GR           GR      TAB_RES         P16H         P28H         P40H         P40L         A40H         DHAT         DHAP          ECD 
#                  (DnMWorkfl)  (DRILLING_)       (ARC9)       (ARC9)       (ARC9)       (ARC9)       (ARC9)       (ARC9)       (ARC9)       (ARC9)       (ARC9)       (ARC9)       (ARC9) 
#                         (RT)         (RT)                      (RM)                      (RM)         (RM)         (RM)         (RM)         (RM)         (RM)         (RM)         (RM) 
#                        (6in)        (6in)        (6in)        (6in)        (6in)        (6in)        (6in)        (6in)        (6in)        (6in)        (6in)        (6in)        (6in) 
~ASCII
# ...
       1682.03880   1681.99361    106.25400      0.59165     32.22594      0.59165      0.49206      0.39834      0.36130      0.29416      0.26655     47.00000   2703.99946      1.14655
       1682.19120   1682.14600    129.10260      0.59909     28.98834      0.59909      0.59935      0.43666      0.37700      0.30654      0.26712     47.00000   2705.99953      1.14722
       1682.34360   1682.29839    121.02490      0.59721     27.01576      0.59721      0.59935      0.43666      0.37700      0.30654      0.26712     47.00000   2705.99953      1.14716
       1682.49600   1682.45079    111.85440      0.59527     25.98659      0.59527      0.59935      0.43666      0.37700      0.30654      0.26712     47.00000   2703.99946      1.14621
       1682.64840   1682.60318     60.79849      0.58299     25.21471      0.58299      0.67030      0.47616      0.39889      0.30988      0.26499     47.00000   2705.00022      1.14657
       1682.80080   1682.75558     57.16657      0.58179     24.74300      0.58179      0.69964      0.50473      0.40479      0.30752      0.26555     47.00000   2705.00022      1.14647
       1682.95320   1682.90797     53.29979      0.58054     24.14266      0.58054      0.69964      0.50473      0.40479      0.30752      0.26555     47.00000   2711.00043      1.14885
       1683.10560   1683.06036     49.66470      0.57832     23.71383      0.57832      0.65474      0.48259      0.38723      0.30677      0.25324     47.00000   2707.66892      1.14734
       1683.25800   1683.21276     50.47865      0.57847     23.32789      0.57847      0.61801      0.44355      0.35148      0.30420      0.25331     47.00000   2704.00816      1.14569
       1683.41040   1683.36515     46.03046      0.57686     23.07060      0.57686      0.62718      0.45808      0.37604      0.31417      0.26467     47.00000   2699.00001      1.14342
       1683.56280   1683.51754     48.66379      0.57888     23.19925      0.57888      0.68725      0.49877      0.40753      0.32400      0.26716     47.00000   2700.20092      1.14386
       1683.71520   1683.66994     47.21526      0.57902     22.83475      0.57902      0.72259      0.51604      0.42211      0.32747      0.27625     47.00000   2702.10237      1.14456
       1683.86760   1683.82233     46.40527      0.57778     22.55602      0.57778      0.71924      0.50252      0.40257      0.33213      0.27483     47.00000   2704.00526      1.14526
       1684.02000   1683.97473     34.77943      0.56721     22.55602      0.56721      0.76528      0.54338      0.44304      0.34402      0.28422     47.00000   2705.00022      1.14563
       1684.17240   1684.12712     46.08594      0.56763     21.56973      0.56763      0.79122      0.56618      0.45276      0.34903      0.29254     47.00000   2709.00036      1.14719
       1684.32480   1684.27951     46.34541      0.56902     20.99082      0.56902      0.85577      0.59496      0.48404      0.37835      0.30459     47.00000   2705.00022      1.14537
       1684.47720   1684.43191     44.10326      0.56655     21.39820      0.56655      0.84394      0.59496      0.46838      0.37259      0.30091     47.00000   2709.00036      1.14691
       1684.62960   1684.58430     46.10661      0.56859     22.42737      0.56859      0.93383      0.68372      0.54998      0.44613      0.36585     47.00000   2707.00029      1.14598
       1684.78200   1684.73669     40.31839      0.56568     24.01401      0.56568      0.87214      0.63579      0.51235      0.40437      0.34952     47.00000   2707.00029      1.14586
       1684.93440   1684.88909     39.86521      0.56374     24.91453      0.56374      0.65843      0.51503      0.43381      0.39070      0.34176     47.00000   2703.99946      1.14451
       1685.08680   1685.04148     23.24659      0.53902     25.34336      0.53902      0.40886      0.33394      0.29018      0.28855      0.27245     47.00000   2711.41669      1.14756
       1685.23920   1685.19388     22.29535      0.53582     25.87938      0.53582      0.39678      0.33287      0.29396      0.28375      0.27095     47.00000   2703.99946      1.14428
       1685.39160   1685.34627     22.19722      0.53501     25.68641      0.53501      0.40274      0.33795      0.30392      0.28542      0.26585     47.00000   2715.00057      1.14882
       1685.54400   1685.49866     27.51938      0.53679     25.83650      0.53679      0.40995      0.34222      0.31103      0.29410      0.27745     47.00000   2717.88827      1.14998
       1685.69640   1685.65106     28.31443      0.53854     27.14441      0.53854      0.43193      0.34406      0.31561      0.30279      0.28790     47.00000   2720.99933      1.15123
       1685.84880   1685.80345     28.55510      0.53888     28.51664      0.53888      0.45371      0.35816      0.32228      0.30331      0.28544     47.00000   2707.99960      1.14562
       1686.00120   1685.95584     29.62276      0.53874     30.63930      0.53874      0.49182      0.37796      0.32534      0.29427      0.26577     47.00000   2711.00043      1.14674
       1686.15360   1686.10824     29.49901      0.54471     32.13303      0.54471      0.50035      0.38299      0.32643      0.29334      0.26276     47.00000   2715.99988      1.14873
       1686.30600   1686.26063     31.79854      0.54610     31.79712      0.54610      0.58342      0.43940      0.37983      0.30008      0.26266     47.00000   2713.20065      1.14747
       1686.45840   1686.41303     33.01500      0.54693     33.30514      0.54693      0.61783      0.46062      0.39263      0.30376      0.26206     47.00000   2709.99967      1.14604
       1686.61080   1686.56542     73.42061      0.54901     37.16454      0.54901      0.58190      0.42906      0.36462      0.30370      0.26953     47.00000   2711.00043      1.14633
       1686.76320   1686.71781     84.66892      0.55110     39.86611      0.55110      0.46605      0.35630      0.30311      0.29768      0.28255     47.00000   2713.00050      1.14703
       1686.91560   1686.87021     81.15465      0.54888     41.76722      0.54888      0.48424      0.36697      0.30935      0.30227      0.27803     47.00000   2716.99919      1.14864
       1687.06800   1687.02260     78.89963      0.55013     41.32411      0.55013      0.40241      0.33187      0.28774      0.28711      0.26238     47.00000   2709.99967      1.14558
       1687.22040   1687.17499     68.98281      0.54909     36.16395      0.54909      0.40888      0.34605      0.30337      0.29798      0.27692     47.00000   2707.00029      1.14418
       1687.37280   1687.32739     72.31580      0.55068     30.66360      0.55068      0.40692      0.34333      0.29209      0.29556      0.26866     47.00000   2720.99933      1.15003
       1687.52520   1687.47978     66.37183      0.54971     27.50033      0.54971      0.54081      0.42322      0.38483      0.35957      0.33687     47.00000   2720.00002      1.14946
       1687.67760   1687.63218     68.91189      0.55429     26.08950      0.55429      0.56809      0.43883      0.40169      0.36907      0.34763     47.00000   2714.57706      1.14711
       1687.83000   1687.78457     62.33202      0.55360     25.82220      0.55360      0.60051      0.46012      0.41062      0.38747      0.36084     47.00000   2709.00036      1.14468
       1687.98240   1687.93696     63.65928      0.55541     25.78647      0.55541      0.59946      0.46355      0.40436      0.37586      0.34268     47.00000   2719.00071      1.14876
       1688.13480   1688.08936     59.27955      0.55312     25.60779      0.55312      0.60101      0.46478      0.41362      0.38333      0.35988     47.00000   2719.00071      1.14866
       1688.28720   1688.24175     61.74112      0.55437     24.82877      0.55437      0.59447      0.45613      0.39434      0.36948      0.33584     47.00000   2711.99974      1.14559
       1688.43960   1688.39414     61.59802      0.55395     24.20698      0.55395      0.59129      0.45367      0.39258      0.36618      0.33231     47.00000   2719.00071      1.14847
