~VERSION INFORMATION 
VERS  .    2.0                                     :CWLS Log ASCII Standard - VERSION 2.0
WRAP  .    NO                                      :One Line per Depth step
PROD  .    Schlumberger Technology Corp.           :LAS Producer
PROG  .    Horizon LASWriter 9.2.113335.3100       :LAS Program name and version
SOURCE.    17.5in Section-Drilling                 :Run&Pass Information
CREA  .    12/03/2019                              :LAS Creation date {MM/DD/YYYY}
#--------------------------------------------------
~WELL INFORMATION 
#MNEM           .UNIT                      DATA            :DESCRIPTION
#----            ------          --------------            -----------------------------
STRT            .m                    259.99440            :START DEPTH
STOP            .m                   2415.08280            :STOP DEPTH
STEP            .m                       0.1524            :STEP
NULL            .                       -999.25            :NULL VALUE
COMP            .                Shell Australia Pty Ltd   :COMPANY
WELL            .                   Bratwurst-1            :WELL NAME
FLD             .                     Bratwurst            :FIELD NAME
RIGN            .                    Ocean Apex            :Rig Name
RIGTYP          .                Semi-Submersible          :Rig Type
SON             .                     19AWA0035            :Service Order Number
SRVC            .                  Schlumberger            :SERVICE COMPANY
DATE            .                    10/02/2019            :LOG DATE(Composite Date for Composite LAP) (MM/DD/YYYY)
CLAB            .                       County:            :County Label
CNTY            .                                          :COUNTY
SLAB            .                        State:            :State/Province Label
STAT            .                Western Australia         :STATE or PROVINCE
PROV            .                Western Australia         :STATE or PROVINCE
CTRY            .                     Australia            :COUNTRY
CONT_REGION     .                   Australasia            :Continent Region
SECT            .                                          :Section
TOWN            .                                          :Township
RANG            .                                          :Range
API             .                                          :API NUMBER
UWI             .                     19AWA0035            :UNIQUE WELL ID
LUL             .                        Zone 1            :Logging Unit Location
LUN             .                       1010979            :Logging Unit Number
LOC             .                  Browse Basin            :FIELD LOCATION
FL1             .                8 576 622.839 m N         :Field Location Line 1
FL2             .                653 417.755 m E           :Field Location Line 2
LATI            .deg             12° 52' 18.374" S         :LATITUDE
LONG            .deg             124° 24' 50.041" E        :LONGITUDE
PDAT            .                         OTHER            :Local Permanent Datum
LMF             .                            DF            :Logging Measured From
APD             .m                        23.85            :Elevation of Depth Reference (LMF) Above Permanent Datum
EPD             .m                        -2.68            :Elevation of Permanent Datum (PDAT) above Mean Sea Level
EKB             .m                      -999.25            :Elevation of Kelly Bushing Above Permanent Datum
EDF             .m                        23.85            :Elevation of Drill Floor Above Permanent Datum
EGL             .m                      -152.26            :Elevation of Ground Level Above Permanent Datum
ECF             .m                      -999.25            :Elevation of Casing Flange above Permanent Datum
#--------------------------------------------------
~CURVE INFORMATION
#MNEM           .UNIT                  API CODE            :DESCRIPTION
#----            ------          --------------            -----------------------------
DEPT            .m                                         :                                                        Depth Index
TVD             .m                                         :(RT)    (DnMWorkflow)           (6in)                   True Vertical Depth
ROP5            .m/h                                       :(RT)    (DRILLING_SURFACE)      (6in)                   Rate of penetration averaged over the last 5 ft (1.5 m)
TAB_GR          .h                                         :        (ARC9)                  (6in)                   Gamma Ray Time after Bit
GR              .gAPI                                      :(RM)    (ARC9)                  (6in)                   Gamma Ray
TAB_RES         .h                                         :        (ARC9)                  (6in)                   Resistivity Time After Bit
P16H            .ohm.m                                     :(RM)    (ARC9)                  (6in)                   Phase Shift Resistivity 16 inch Spacing at 2 MHz, Environmentally Corrected.
P28H            .ohm.m                                     :(RM)    (ARC9)                  (6in)                   Phase Shift Resistivity 28 inch Spacing at 2 MHz, Environmentally Corrected.
P40H            .ohm.m                                     :(RM)    (ARC9)                  (6in)                   Phase Shift Resistivity 40 inch Spacing at 2 MHz, Environmentally Corrected.
P40L            .ohm.m                                     :(RM)    (ARC9)                  (6in)                   Phase Shift Resistivity 40 inch Spacing at 400 KHz, Environmentally Corrected.
A40H            .ohm.m                                     :(RM)    (ARC9)                  (6in)                   Attenuation Resistivity 40 inch Spacing at 2 MHz, Environmentally Corrected.
DHAT            .degC                                      :(RM)    (ARC9)                  (6in)                   Downhole Annulus Temperature
DHAP            .psi                                       :(RM)    (ARC9)                  (6in)                   Downhole Annulus Pressure
ECD             .g/cm3                                     :(RM)    (ARC9)                  (6in)                   Equivalent Circulating Density
#-------------------------------------------------------------
#            DEPT          TVD         ROP5       TAB_GR           GR      TAB_RES         P16H         P28H         P40H         P40L         A40H         DHAT         DHAP          ECD 
#                  (DnMWorkfl)  (DRILLING_)       (ARC9)       (ARC9)       (ARC9)       (ARC9)       (ARC9)       (ARC9)       (ARC9)       (ARC9)       (ARC9)       (ARC9)       (ARC9) 
#                         (RT)         (RT)                      (RM)                      (RM)         (RM)         (RM)         (RM)         (RM)         (RM)         (RM)         (RM) 
#                        (6in)        (6in)        (6in)        (6in)        (6in)        (6in)        (6in)        (6in)        (6in)        (6in)        (6in)        (6in)        (6in) 
~ASCII
# ...
       1544.42160   1544.38332     15.47024      1.46914     15.70948      1.46914      9.02669      6.89825      6.51032      4.78981      4.34667     46.00000   2419.99962      1.11896
       1544.57400   1544.53572     16.76817      1.47397     15.91125      1.47397      8.60029      6.99652      6.13818      4.68591      4.35545     46.00000   2419.99962      1.11887
       1544.72640   1544.68811     18.49674      1.46888     14.20048      1.46888      7.79434      6.81561      5.95761      4.66110      4.41339     46.00000   2419.99962      1.11874
       1544.87880   1544.84050     19.74635      1.46789     11.70822      1.46789      6.77615      6.45648      5.88513      4.74975      4.43378     46.00000   2419.99962      1.11868
       1545.03120   1544.99290     18.38201      1.45206     11.77500      1.45206      5.77835      5.82021      5.63075      4.73742      4.46960     46.00000   2421.99969      1.11945
       1545.18360   1545.14529     18.33636      1.45628     14.66938      1.45628      5.17885      5.29442      5.28636      4.54408      4.33755     46.00000   2421.99969      1.11934
       1545.33600   1545.29768     15.36643      1.44291     16.60074      1.44291      4.44845      4.37441      4.33893      4.21669      4.12078     46.00000   2423.99976      1.12018
       1545.48840   1545.45007     13.25498      1.43026     16.27454      1.43026      3.49416      3.32381      3.23790      3.75351      3.99284     46.00000   2423.99976      1.12002
       1545.64080   1545.60247     12.79137      1.45248     16.31943      1.45248      3.19692      3.26484      3.33822      3.88602      4.20920     46.00000   2423.99976      1.11993
       1545.79320   1545.75486     11.11742      1.46776     16.99141      1.46776      4.32016      4.52781      4.77063      4.67481      4.32942     46.00000   2423.00045      1.11937
       1545.94560   1545.90725     10.81005      1.48497     16.89456      1.48497      6.01863      5.67256      5.89929      5.22217      4.59646     46.00000   2423.99976      1.11968
       1546.09800   1546.05965     10.25914      1.49985     16.91395      1.49985      7.34744      5.93939      5.94283      5.39964      4.92605     46.00000   2423.99976      1.11954
       1546.25040   1546.21204     11.08457      1.52651     16.98260      1.52651      8.05896      6.45542      6.04032      5.52144      4.98608     46.00000   2423.99976      1.11948
       1546.40280   1546.36443     11.45613      1.53511     16.64478      1.53511      7.96583      6.86448      6.10029      5.57003      4.90351     46.00000   2423.99976      1.11935
       1546.55520   1546.51683     12.67380      1.54192     16.36345      1.54192      6.87792      6.28681      5.70805      5.34260      4.88458     46.00000   2423.99976      1.11930
       1546.70760   1546.66922     12.14983      1.53804     14.78838      1.53804      5.79885      5.44555      5.17186      5.08612      4.89673     46.00000   2423.99976      1.11910
       1546.86000   1546.82161     13.80492      1.51942     13.73975      1.51942      4.72881      4.57257      4.42265      4.85833      4.98805     46.00000   2423.99976      1.11907
       1547.01240   1546.97401     12.69741      1.51400     14.53581      1.51400      4.00065      4.00429      3.93553      4.66147      5.20543     46.00000   2425.00052      1.11939
       1547.16480   1547.12640     11.42708      1.50679     13.05524      1.50679      4.03140      4.19925      4.26478      4.94728      5.30097     46.00000   2425.99983      1.11972
       1547.31720   1547.27879     12.19295      1.49706     11.47022      1.49706      4.71408      4.97730      5.18235      5.36492      5.29633     46.00000   2423.99976      1.11871
       1547.46960   1547.43119      9.87403      1.47330     14.42451      1.47330      6.52671      6.31156      6.55558      5.91683      5.37300     46.00000   2425.99983      1.11949
       1547.62200   1547.58358     10.31513      1.49067     17.91164      1.49067      7.61264      6.63265      6.75474      5.82985      5.30947     46.00000   2427.99990      1.12031
       1547.77440   1547.73597      9.60422      1.49554     17.52918      1.49554      7.46237      6.47814      6.36142      5.50664      4.99609     46.00000   2427.00059      1.11976
       1547.92680   1547.88837      9.62083      1.51039     15.69062      1.51039      6.89090      6.16392      5.84258      5.18714      4.66720     46.00000   2429.00066      1.12058
       1548.07920   1548.04076      9.46636      1.51913     15.00773      1.51913      5.53255      4.95990      4.52323      4.42730      4.19499     46.00000   2429.00066      1.12047
       1548.23160   1548.19315      9.86003      1.53262     14.94431      1.53262      3.62960      3.34700      3.09001      3.63354      3.99326     46.00000   2427.99990      1.11987
       1548.38400   1548.34555     10.59111      1.53244     14.91594      1.53244      3.15475      3.12425      3.02558      3.59341      3.96037     46.00000   2427.99990      1.11970
       1548.53640   1548.49794     11.48039      1.53997     14.94204      1.53997      3.50525      3.65811      3.70774      3.90634      3.88844     46.00000   2427.99990      1.11961
       1548.68880   1548.65033     11.56077      1.51942     15.38114      1.51942      4.06249      4.10142      4.22209      4.16253      3.90807     46.00000   2427.99990      1.11956
       1548.84120   1548.80272     11.06812      1.50581     16.01137      1.50581      4.16078      3.83156      3.92400      4.03961      3.97586     46.00000   2429.00066      1.11988
       1548.99360   1548.95512     12.00028      1.52366     16.01710      1.52366      4.04129      3.63079      3.68498      3.91074      4.01866     46.00000   2427.99990      1.11927
       1549.14600   1549.10751     11.42349      1.51317     15.17826      1.51317      3.59217      3.30699      3.22694      3.77502      4.11546     46.00000   2429.00066      1.11960
       1549.29840   1549.25990     12.35413      1.57066     15.22996      1.57066      4.02890      3.95033      3.79536      4.08071      4.12300     46.00000   2429.00066      1.11958
       1549.45080   1549.41230     12.59692      1.60636     15.53985      1.60636      4.37747      4.23805      4.12394      4.26570      4.22781     46.00000   2429.99997      1.11985
       1549.60320   1549.56469     12.76841      1.60872     15.11837      1.60872      4.94812      4.55492      4.60149      4.58010      4.54765     46.00000   2429.00066      1.11929
       1549.75560   1549.71708     13.09821      1.64229     15.42885      1.64229      5.43049      4.96205      4.94219      4.75745      4.62334     46.00000   2429.00066      1.11920
       1549.90800   1549.86948     12.88233      1.64414     15.80930      1.64414      5.55638      5.11211      4.95147      4.79176      4.59204     46.00000   2429.00066      1.11912
       1550.06040   1550.02187     13.44835      1.64581     15.20364      1.64581      5.51473      5.08089      4.84764      4.65935      4.52403     46.00000   2429.00066      1.11897
       1550.21280   1550.17426     14.92357      1.65039     13.35647      1.65039      5.25484      4.85682      4.60255      4.51145      4.46279     46.00000   2429.00066      1.11883
       1550.36520   1550.32666     17.44590      1.65901     11.62297      1.65901      4.94669      4.56083      4.36044      4.34533      4.41800     46.00000   2429.00066      1.11873
       1550.51760   1550.47905     19.01752      1.65478     11.42404      1.65478      4.47208      4.31985      4.19727      4.24034      4.21722     46.00000   2429.00066      1.11865
       1550.67000   1550.63144     17.97902      1.65283     12.08902      1.65283      4.18350      4.11858      4.06459      3.97952      3.93884     46.00000   2429.99997      1.11899
       1550.82240   1550.78383     16.12955      1.64429     13.08081      1.64429      3.73128      3.60649      3.58406      3.66090      3.71000     46.00000   2429.00066      1.11839
