~VERSION INFORMATION 
VERS  .    2.0                                     :CWLS Log ASCII Standard - VERSION 2.0
WRAP  .    NO                                      :One Line per Depth step
PROD  .    Schlumberger Technology Corp.           :LAS Producer
PROG  .    Horizon LASWriter 9.2.113335.3100       :LAS Program name and version
SOURCE.    17.5in Section-Drilling                 :Run&Pass Information
CREA  .    12/03/2019                              :LAS Creation date {MM/DD/YYYY}
#--------------------------------------------------
~WELL INFORMATION 
#MNEM           .UNIT                      DATA            :DESCRIPTION
#----            ------          --------------            -----------------------------
STRT            .m                    259.99440            :START DEPTH
STOP            .m                   2415.08280            :STOP DEPTH
STEP            .m                       0.1524            :STEP
NULL            .                       -999.25            :NULL VALUE
COMP            .                Shell Australia Pty Ltd   :COMPANY
WELL            .                   Bratwurst-1            :WELL NAME
FLD             .                     Bratwurst            :FIELD NAME
RIGN            .                    Ocean Apex            :Rig Name
RIGTYP          .                Semi-Submersible          :Rig Type
SON             .                     19AWA0035            :Service Order Number
SRVC            .                  Schlumberger            :SERVICE COMPANY
DATE            .                    10/02/2019            :LOG DATE(Composite Date for Composite LAP) (MM/DD/YYYY)
CLAB            .                       County:            :County Label
CNTY            .                                          :COUNTY
SLAB            .                        State:            :State/Province Label
STAT            .                Western Australia         :STATE or PROVINCE
PROV            .                Western Australia         :STATE or PROVINCE
CTRY            .                     Australia            :COUNTRY
CONT_REGION     .                   Australasia            :Continent Region
SECT            .                                          :Section
TOWN            .                                          :Township
RANG            .                                          :Range
API             .                                          :API NUMBER
UWI             .                     19AWA0035            :UNIQUE WELL ID
LUL             .                        Zone 1            :Logging Unit Location
LUN             .                       1010979            :Logging Unit Number
LOC             .                  Browse Basin            :FIELD LOCATION
FL1             .                8 576 622.839 m N         :Field Location Line 1
FL2             .                653 417.755 m E           :Field Location Line 2
LATI            .deg             12° 52' 18.374" S         :LATITUDE
LONG            .deg             124° 24' 50.041" E        :LONGITUDE
PDAT            .                         OTHER            :Local Permanent Datum
LMF             .                            DF            :Logging Measured From
APD             .m                        23.85            :Elevation of Depth Reference (LMF) Above Permanent Datum
EPD             .m                        -2.68            :Elevation of Permanent Datum (PDAT) above Mean Sea Level
EKB             .m                      -999.25            :Elevation of Kelly Bushing Above Permanent Datum
EDF             .m                        23.85            :Elevation of Drill Floor Above Permanent Datum
EGL             .m                      -152.26            :Elevation of Ground Level Above Permanent Datum
ECF             .m                      -999.25            :Elevation of Casing Flange above Permanent Datum
#--------------------------------------------------
~CURVE INFORMATION
#MNEM           .UNIT                  API CODE            :DESCRIPTION
#----            ------          --------------            -----------------------------
DEPT            .m                                         :                                                        Depth Index
TVD             .m                                         :(RT)    (DnMWorkflow)           (6in)                   True Vertical Depth
ROP5            .m/h                                       :(RT)    (DRILLING_SURFACE)      (6in)                   Rate of penetration averaged over the last 5 ft (1.5 m)
TAB_GR          .h                                         :        (ARC9)                  (6in)                   Gamma Ray Time after Bit
GR              .gAPI                                      :(RM)    (ARC9)                  (6in)                   Gamma Ray
TAB_RES         .h                                         :        (ARC9)                  (6in)                   Resistivity Time After Bit
P16H            .ohm.m                                     :(RM)    (ARC9)                  (6in)                   Phase Shift Resistivity 16 inch Spacing at 2 MHz, Environmentally Corrected.
P28H            .ohm.m                                     :(RM)    (ARC9)                  (6in)                   Phase Shift Resistivity 28 inch Spacing at 2 MHz, Environmentally Corrected.
P40H            .ohm.m                                     :(RM)    (ARC9)                  (6in)                   Phase Shift Resistivity 40 inch Spacing at 2 MHz, Environmentally Corrected.
P40L            .ohm.m                                     :(RM)    (ARC9)                  (6in)                   Phase Shift Resistivity 40 inch Spacing at 400 KHz, Environmentally Corrected.
A40H            .ohm.m                                     :(RM)    (ARC9)                  (6in)                   Attenuation Resistivity 40 inch Spacing at 2 MHz, Environmentally Corrected.
DHAT            .degC                                      :(RM)    (ARC9)                  (6in)                   Downhole Annulus Temperature
DHAP            .psi                                       :(RM)    (ARC9)                  (6in)                   Downhole Annulus Pressure
ECD             .g/cm3                                     :(RM)    (ARC9)                  (6in)                   Equivalent Circulating Density
#-------------------------------------------------------------
#            DEPT          TVD         ROP5       TAB_GR           GR      TAB_RES         P16H         P28H         P40H         P40L         A40H         DHAT         DHAP          ECD 
#                  (DnMWorkfl)  (DRILLING_)       (ARC9)       (ARC9)       (ARC9)       (ARC9)       (ARC9)       (ARC9)       (ARC9)       (ARC9)       (ARC9)       (ARC9)       (ARC9) 
#                         (RT)         (RT)                      (RM)                      (RM)         (RM)         (RM)         (RM)         (RM)         (RM)         (RM)         (RM) 
#                        (6in)        (6in)        (6in)        (6in)        (6in)        (6in)        (6in)        (6in)        (6in)        (6in)        (6in)        (6in)        (6in) 
~ASCII
# ...
       1970.37960   1970.31648     59.87590      1.14299     39.10208      1.14299      0.83711      0.68455      0.73227      0.43370      0.35602     50.00000   3140.00030      1.13421
       1970.53200   1970.46887     60.80840      1.14373     37.60231      1.14373      0.85656      0.67856      0.66813      0.39032      0.32010     50.00000   3140.00030      1.13412
       1970.68440   1970.62127     49.75142      1.13999     36.83832      1.13999      0.69208      0.52258      0.43828      0.30925      0.25634     50.00000   3140.99961      1.13436
       1970.83680   1970.77366     53.50299      1.15957     38.25490      1.15957      0.64667      0.49387      0.42692      0.30972      0.26321     50.00000   3142.00037      1.13462
       1970.98920   1970.92605     52.35486      1.16901     37.54105      1.16901      0.70914      0.56022      0.55217      0.34649      0.28940     50.00000   3140.99961      1.13420
       1971.14160   1971.07844     50.64090      1.18067     34.76271      1.18067      0.77550      0.60067      0.57482      0.36718      0.30456     50.00000   3138.99954      1.13342
       1971.29400   1971.23084     39.31577      1.17763     33.34919      1.17763      0.77057      0.59719      0.53859      0.36384      0.31097     50.00000   3142.00037      1.13433
       1971.44640   1971.38323     31.31798      1.17692     34.63185      1.17692      0.66749      0.51391      0.43935      0.37072      0.32663     50.00000   3140.99961      1.13390
       1971.59880   1971.53562     31.27298      1.20178     36.52811      1.20178      0.60752      0.46879      0.38815      0.37131      0.33551     50.00000   3140.00030      1.13351
       1971.75120   1971.68801     31.18576      1.20226     37.78089      1.20226      0.84376      0.69796      0.58202      0.58127      0.53002     50.00000   3140.99961      1.13372
       1971.90360   1971.84041     29.80628      1.25234     38.09261      1.25234      1.14978      0.97904      0.84381      0.77304      0.69009     50.00000   3140.99961      1.13369
       1972.05600   1971.99280     29.92256      1.31142     39.82690      1.31142      1.38123      1.16943      1.05105      0.92367      0.83214     50.00000   3140.99961      1.13356
       1972.20840   1972.14519     36.19340      1.34581     47.58367      1.34581      1.95260      1.62042      1.56114      1.23426      1.05078     50.00000   3142.00037      1.13387
       1972.36080   1972.29759     26.94245      1.38638     63.59998      1.38638      1.70742      1.45378      1.36468      1.26807      1.17183     50.00000   3140.99961      1.13342
       1972.51320   1972.44998     13.99699      1.36678     81.18072      1.36678      1.26459      1.17630      1.09796      1.18346      1.16243     50.00000   3136.99947      1.13186
       1972.66560   1972.60237     14.09891      1.37053     88.29208      1.37053      1.18965      1.14934      1.08370      1.17876      1.16449     50.00000   3136.99947      1.13179
       1972.81800   1972.75476     14.53419      1.41386     88.30798      1.41386      1.26736      1.28464      1.28579      1.36465      1.33014     50.00000   3134.99940      1.13098
       1972.97040   1972.90716     15.88480      1.49344     90.44487      1.49344      1.35035      1.34935      1.37099      1.45418      1.40930     50.00000   3134.99940      1.13090
       1973.12280   1973.05955     15.32905      1.49664     92.36240      1.49664      1.43537      1.40432      1.43850      1.50249      1.47934     50.00000   3134.99940      1.13078
       1973.27520   1973.21194     13.94769      1.48691     90.21561      1.48691      1.61953      1.55814      1.56554      1.62784      1.60168     50.00000   3133.00078      1.12993
       1973.42760   1973.36434     12.58666      1.47872     84.61630      1.47872      1.74109      1.68048      1.64870      1.67495      1.62482     50.00000   3133.00078      1.12984
       1973.58000   1973.51673     12.56748      1.48497     83.34628      1.48497      1.76612      1.69439      1.65804      1.66752      1.60852     50.00000   3133.00078      1.12980
       1973.73240   1973.66912     11.05325      1.47275     91.58476      1.47275      1.66080      1.57557      1.52908      1.59901      1.58543     50.00000   3130.99926      1.12903
       1973.88480   1973.82151     11.07978      1.46817     99.20903      1.46817      1.54272      1.46824      1.41565      1.55759      1.57363     50.00000   3134.00009      1.13000
       1974.03720   1973.97391     16.09710      1.46081    100.56380      1.46081      1.48448      1.44249      1.40767      1.56868      1.60953     50.00000   3134.00009      1.12986
       1974.18960   1974.12630     12.93715      1.44123    100.17560      1.44123      1.51793      1.49799      1.47242      1.60349      1.63131     50.00000   3134.00009      1.12976
       1974.34200   1974.27869     12.82683      1.44623     93.25177      1.44623      1.59377      1.58273      1.56946      1.67243      1.67186     50.00000   3134.00009      1.12975
       1974.49440   1974.43109     10.33464      1.42553     82.20104      1.42553      1.74135      1.71330      1.71935      1.72279      1.71091     50.00000   3134.99940      1.13000
       1974.64680   1974.58348     10.10864      1.43025     79.72878      1.43025      1.77482      1.68855      1.67103      1.70363      1.69071     50.00000   3134.99940      1.12988
       1974.79920   1974.73587     10.10257      1.43775     85.37380      1.43775      1.63692      1.55346      1.51905      1.64620      1.68751     50.00000   3138.00023      1.13087
       1974.95160   1974.88827     10.62185      1.43456     89.66988      1.43456      1.60611      1.53044      1.49380      1.61040      1.67616     50.00000   3134.99940      1.12975
       1975.10400   1975.04066     10.17776      1.43415     86.06436      1.43415      1.59557      1.56593      1.53686      1.64287      1.66297     50.00000   3136.99947      1.13033
       1975.25640   1975.19305     11.13411      1.46789     81.37284      1.46789      1.62566      1.62696      1.61346      1.68302      1.67994     50.00000   3136.99947      1.13026
       1975.40880   1975.34545     10.22023      1.45082     83.44693      1.45082      1.61765      1.59958      1.59756      1.68865      1.69258     50.00000   3136.00016      1.12986
       1975.56120   1975.49784      9.30294      1.43289     88.74479      1.43289      1.59980      1.55393      1.53533      1.68420      1.72211     50.00000   3134.99940      1.12939
       1975.71360   1975.65023     10.43729      1.44373     95.60284      1.44373      1.63188      1.60665      1.58424      1.74242      1.76516     50.00000   3138.00023      1.13038
       1975.86600   1975.80263     10.03375      1.43471     99.80168      1.43471      1.71017      1.70229      1.67642      1.79751      1.79878     50.00000   3136.99947      1.12987
       1976.01840   1975.95502     11.48619      1.42581     92.14455      1.42581      1.85243      1.84777      1.83543      1.87467      1.83844     50.00000   3133.00078      1.12835
       1976.17080   1976.10741     11.35509      1.40867     76.74397      1.40867      2.01281      1.98016      1.98602      1.93350      1.88351     50.00000   3136.00016      1.12936
       1976.32320   1976.25981     10.32300      1.39914     67.67250      1.39914      2.05341      1.96938      1.95833      1.95719      1.91342     50.00000   3136.99947      1.12962
       1976.47560   1976.41220     10.09363      1.39353     68.22097      1.39353      1.94165      1.87672      1.83289      1.90540      1.88959     50.00000   3136.99947      1.12960
       1976.62800   1976.56459      9.85817      1.39331     72.00364      1.39331      1.91418      1.87775      1.81911      1.90813      1.87899     50.00000   3136.99947      1.12944
       1976.78040   1976.71699      8.94712      1.37763     74.50754      1.37763      1.90448      1.85747      1.80840      1.89242      1.88777     50.00000   3137.51146      1.12956
