~VERSION INFORMATION 
VERS  .    2.0                                     :CWLS Log ASCII Standard - VERSION 2.0
WRAP  .    NO                                      :One Line per Depth step
PROD  .    Schlumberger Technology Corp.           :LAS Producer
PROG  .    Horizon LASWriter 9.2.113335.3100       :LAS Program name and version
SOURCE.    17.5in Section-Drilling                 :Run&Pass Information
CREA  .    12/03/2019                              :LAS Creation date {MM/DD/YYYY}
#--------------------------------------------------
~WELL INFORMATION 
#MNEM           .UNIT                      DATA            :DESCRIPTION
#----            ------          --------------            -----------------------------
STRT            .m                    259.99440            :START DEPTH
STOP            .m                   2415.08280            :STOP DEPTH
STEP            .m                       0.1524            :STEP
NULL            .                       -999.25            :NULL VALUE
COMP            .                Shell Australia Pty Ltd   :COMPANY
WELL            .                   Bratwurst-1            :WELL NAME
FLD             .                     Bratwurst            :FIELD NAME
RIGN            .                    Ocean Apex            :Rig Name
RIGTYP          .                Semi-Submersible          :Rig Type
SON             .                     19AWA0035            :Service Order Number
SRVC            .                  Schlumberger            :SERVICE COMPANY
DATE            .                    10/02/2019            :LOG DATE(Composite Date for Composite LAP) (MM/DD/YYYY)
CLAB            .                       County:            :County Label
CNTY            .                                          :COUNTY
SLAB            .                        State:            :State/Province Label
STAT            .                Western Australia         :STATE or PROVINCE
PROV            .                Western Australia         :STATE or PROVINCE
CTRY            .                     Australia            :COUNTRY
CONT_REGION     .                   Australasia            :Continent Region
SECT            .                                          :Section
TOWN            .                                          :Township
RANG            .                                          :Range
API             .                                          :API NUMBER
UWI             .                     19AWA0035            :UNIQUE WELL ID
LUL             .                        Zone 1            :Logging Unit Location
LUN             .                       1010979            :Logging Unit Number
LOC             .                  Browse Basin            :FIELD LOCATION
FL1             .                8 576 622.839 m N         :Field Location Line 1
FL2             .                653 417.755 m E           :Field Location Line 2
LATI            .deg             12° 52' 18.374" S         :LATITUDE
LONG            .deg             124° 24' 50.041" E        :LONGITUDE
PDAT            .                         OTHER            :Local Permanent Datum
LMF             .                            DF            :Logging Measured From
APD             .m                        23.85            :Elevation of Depth Reference (LMF) Above Permanent Datum
EPD             .m                        -2.68            :Elevation of Permanent Datum (PDAT) above Mean Sea Level
EKB             .m                      -999.25            :Elevation of Kelly Bushing Above Permanent Datum
EDF             .m                        23.85            :Elevation of Drill Floor Above Permanent Datum
EGL             .m                      -152.26            :Elevation of Ground Level Above Permanent Datum
ECF             .m                      -999.25            :Elevation of Casing Flange above Permanent Datum
#--------------------------------------------------
~CURVE INFORMATION
#MNEM           .UNIT                  API CODE            :DESCRIPTION
#----            ------          --------------            -----------------------------
DEPT            .m                                         :                                                        Depth Index
TVD             .m                                         :(RT)    (DnMWorkflow)           (6in)                   True Vertical Depth
ROP5            .m/h                                       :(RT)    (DRILLING_SURFACE)      (6in)                   Rate of penetration averaged over the last 5 ft (1.5 m)
TAB_GR          .h                                         :        (ARC9)                  (6in)                   Gamma Ray Time after Bit
GR              .gAPI                                      :(RM)    (ARC9)                  (6in)                   Gamma Ray
TAB_RES         .h                                         :        (ARC9)                  (6in)                   Resistivity Time After Bit
P16H            .ohm.m                                     :(RM)    (ARC9)                  (6in)                   Phase Shift Resistivity 16 inch Spacing at 2 MHz, Environmentally Corrected.
P28H            .ohm.m                                     :(RM)    (ARC9)                  (6in)                   Phase Shift Resistivity 28 inch Spacing at 2 MHz, Environmentally Corrected.
P40H            .ohm.m                                     :(RM)    (ARC9)                  (6in)                   Phase Shift Resistivity 40 inch Spacing at 2 MHz, Environmentally Corrected.
P40L            .ohm.m                                     :(RM)    (ARC9)                  (6in)                   Phase Shift Resistivity 40 inch Spacing at 400 KHz, Environmentally Corrected.
A40H            .ohm.m                                     :(RM)    (ARC9)                  (6in)                   Attenuation Resistivity 40 inch Spacing at 2 MHz, Environmentally Corrected.
DHAT            .degC                                      :(RM)    (ARC9)                  (6in)                   Downhole Annulus Temperature
DHAP            .psi                                       :(RM)    (ARC9)                  (6in)                   Downhole Annulus Pressure
ECD             .g/cm3                                     :(RM)    (ARC9)                  (6in)                   Equivalent Circulating Density
#-------------------------------------------------------------
#            DEPT          TVD         ROP5       TAB_GR           GR      TAB_RES         P16H         P28H         P40H         P40L         A40H         DHAT         DHAP          ECD 
#                  (DnMWorkfl)  (DRILLING_)       (ARC9)       (ARC9)       (ARC9)       (ARC9)       (ARC9)       (ARC9)       (ARC9)       (ARC9)       (ARC9)       (ARC9)       (ARC9) 
#                         (RT)         (RT)                      (RM)                      (RM)         (RM)         (RM)         (RM)         (RM)         (RM)         (RM)         (RM) 
#                        (6in)        (6in)        (6in)        (6in)        (6in)        (6in)        (6in)        (6in)        (6in)        (6in)        (6in)        (6in)        (6in) 
~ASCII
# ...
        404.16480    404.15278     32.23693      0.39041     41.29225      0.39041      1.09863      1.12243      1.15228      1.21106      1.22442     31.00000    598.99991      1.10756
        404.31720    404.30517     34.03167      0.38874     42.67004      0.38874      1.02410      1.05401      1.13038      1.14045      1.12680     31.00000    599.56034      1.10797
        404.46960    404.45756     33.78188      0.38541     43.92443      0.38541      0.95506      0.99891      1.02625      1.08532      1.08111     31.00000    599.99995      1.10829
        404.62200    404.60995     32.44638      0.38194     46.28927      0.38194      0.90667      0.97189      0.99916      1.06793      1.08282     31.00000    599.99995      1.10789
        404.77440    404.76234     34.44834      0.38138     48.65411      0.38138      0.86272      0.93602      0.99587      1.08617      1.09583     31.00000    599.99995      1.10729
        404.92680    404.91473     37.81157      0.38123     50.01133      0.38123      0.76349      0.92904      1.01178      1.07841      1.11643     31.00000    599.99995      1.10701
        405.07920    405.06712     40.15808      0.38082     49.51094      0.38082      0.80548      0.94298      1.01188      1.08146      1.09291     31.00000    599.99995      1.10657
        405.23160    405.21951     42.63154      0.38054     44.88348      0.38054      0.75349      0.88943      0.99909      1.04413      1.02294     31.00000    599.99995      1.10632
        405.38400    405.37190     52.25541      0.38290     38.62461      0.38290      0.75189      0.87369      0.93076      0.99703      0.97834     31.00000    600.99998      1.10734
        405.53640    405.52429     58.58144      0.41707     35.20475      0.41707      0.69291      0.85298      0.88938      0.96884      0.96408     31.00000    600.99998      1.10708
        405.68880    405.67668     63.21904      0.41889     36.37064      0.41889      0.71061      0.85132      0.91116      0.99460      0.98216     31.00000    600.99998      1.10664
        405.84120    405.82907     68.06199      0.42276     39.01652      0.42276      0.64798      0.87794      0.96557      1.02921      1.01391     31.00000    600.99998      1.10639
        405.99360    405.98146     73.71545      0.42416     38.89314      0.42416      0.65865      0.87898      1.01032      1.06071      1.04389     31.00000    603.00005      1.10922
        406.14600    406.13385     84.67001      0.42540     36.99440      0.42540      0.63815      0.86666      1.01153      1.06351      1.06205     31.00000    603.00005      1.10905
        406.29840    406.28624     87.42809      0.42916     35.26704      0.42916      0.61979      0.84916      0.99313      1.05998      1.03969     31.00000    603.00005      1.10841
        406.45080    406.43863     89.83662      0.43111     33.29290      0.43111      0.59463      0.81092      0.93788      1.01051      1.02191     31.00000    602.00002      1.10608
        406.60320    406.59102     71.80540      0.42777     31.35990      0.42777      0.52254      0.75777      0.88808      0.98885      1.00224     31.00000    600.99998      1.10395
        406.75560    406.74341     60.39388      0.42457     30.59904      0.42457      0.59898      0.82993      0.96110      1.00355      0.95403     31.00000    600.99998      1.10335
        406.90800    406.89580     56.31947      0.42387     30.72242      0.42387      0.53557      0.78949      0.92941      0.98822      0.97274     31.00000    600.99998      1.10311
        407.06040    407.04819     47.83721      0.41998     31.40103      0.41998      0.50064      0.72593      0.86509      0.95246      0.97390     31.00000    600.99998      1.10279
        407.21280    407.20057     40.87329      0.41457     32.53204      0.41457      0.56704      0.73931      0.84995      0.96108      0.94546     31.00000    600.99998      1.10235
        407.36520    407.35296     35.95527      0.41041     33.16952      0.41041      0.55076      0.77312      0.90225      0.95980      0.91485     31.00000    600.99998      1.10182
        407.51760    407.50535     34.58744      0.40749     33.35460      0.40749      0.62055      0.80925      0.88620      0.96713      0.94548     31.00000    600.99998      1.10130
        407.67000    407.65774     33.95026      0.40652     33.68362      0.40652      0.46673      0.69982      0.84753      0.93330      0.91881     31.00000    600.99998      1.10088
        407.82240    407.81013     33.34711      0.40653     34.17715      0.40653      0.47054      0.70890      0.87521      0.95018      0.95214     31.00000    600.99998      1.10049
        407.97480    407.96252     30.95167      0.40417     35.90452      0.40417      0.48777      0.74461      0.90508      0.96946      0.95817     31.00000    600.99998      1.10021
        408.12720    408.11491     31.28448      0.40110     37.46737      0.40110      0.48669      0.73450      0.89201      0.96229      0.96869     31.00000    600.99998      1.09959
        408.27960    408.26730     31.67623      0.39887     35.32873      0.39887      0.46045      0.71261      0.89755      0.97566      0.96915     31.00000    602.00002      1.10089
        408.43200    408.41969     31.52767      0.39777     29.87245      0.39777      0.48251      0.75537      0.96523      1.00664      0.96131     31.00000    602.54666      1.10157
        408.58440    408.57208     33.41835      0.39722     24.93027      0.39722      0.45561      0.70571      0.88583      0.96064      0.95313     31.00000    603.00005      1.10214
        408.73680    408.72447     34.79127      0.39542     24.07344      0.39542      0.41093      0.63786      0.79124      0.93623      0.95243     31.00000    602.00002      1.09974
        408.88920    408.87686     34.36113      0.39541     26.05443      0.39541      0.39369      0.64810      0.82045      0.94929      0.94924     31.00000    603.00005      1.10110
        409.04160    409.02925     35.03893      0.39319     27.88461      0.39319      0.39652      0.68054      0.85310      0.97854      0.95966     31.00000    604.00009      1.10248
        409.19400    409.18164     35.92033      0.39249     29.98212      0.39249      0.39584      0.71620      0.91140      0.99225      0.95069     31.00000    603.00005      1.10023
        409.34640    409.33403     35.89830      0.39250     31.54498      0.39250      0.49236      0.76882      0.93606      1.01617      0.98276     31.00000    604.00009      1.10143
        409.49880    409.48641     38.36196      0.39291     30.76355      0.39291      0.66585      0.87310      1.04132      1.04740      1.04156     31.00000    604.00009      1.10112
        409.65120    409.63880     42.11973      0.39305     29.12872      0.39305      0.63971      0.90348      1.09198      1.09609      1.05588     31.00000    604.48205      1.10162
        409.80360    409.79119     45.98990      0.39471     28.91280      0.39471      0.81151      1.03196      1.16465      1.12401      1.08620     31.00000    604.99998      1.10216
        409.95600    409.94358     48.28291      0.39763     29.49887      0.39763      0.88074      1.01017      1.05654      1.10927      1.07464     31.00000    604.99998      1.10155
        410.10840    410.09597     48.56747      0.39680     29.39400      0.39680      0.80572      0.92422      1.01618      1.06852      1.06893     31.00000    606.00001      1.10289
        410.26080    410.24836     49.68029      0.39498     30.03970      0.39498      0.76870      0.88058      0.94850      1.00890      0.99878     31.00000    606.00001      1.10265
        410.41320    410.40075     56.95581      0.39846     31.15564      0.39846      0.71671      0.88866      0.92967      1.03306      0.99321     31.00000    606.00001      1.10240
        410.56560    410.55314     59.39544      0.39847     32.18931      0.39847      0.80502      0.90709      0.97272      1.05754      1.05259     31.00000    606.00001      1.10177
