~VERSION INFORMATION 
VERS  .    2.0                                     :CWLS Log ASCII Standard - VERSION 2.0
WRAP  .    NO                                      :One Line per Depth step
PROD  .    Schlumberger Technology Corp.           :LAS Producer
PROG  .    Horizon LASWriter 9.2.113335.3100       :LAS Program name and version
SOURCE.    17.5in Section-Drilling                 :Run&Pass Information
CREA  .    12/03/2019                              :LAS Creation date {MM/DD/YYYY}
#--------------------------------------------------
~WELL INFORMATION 
#MNEM           .UNIT                      DATA            :DESCRIPTION
#----            ------          --------------            -----------------------------
STRT            .m                    259.99440            :START DEPTH
STOP            .m                   2415.08280            :STOP DEPTH
STEP            .m                       0.1524            :STEP
NULL            .                       -999.25            :NULL VALUE
COMP            .                Shell Australia Pty Ltd   :COMPANY
WELL            .                   Bratwurst-1            :WELL NAME
FLD             .                     Bratwurst            :FIELD NAME
RIGN            .                    Ocean Apex            :Rig Name
RIGTYP          .                Semi-Submersible          :Rig Type
SON             .                     19AWA0035            :Service Order Number
SRVC            .                  Schlumberger            :SERVICE COMPANY
DATE            .                    10/02/2019            :LOG DATE(Composite Date for Composite LAP) (MM/DD/YYYY)
CLAB            .                       County:            :County Label
CNTY            .                                          :COUNTY
SLAB            .                        State:            :State/Province Label
STAT            .                Western Australia         :STATE or PROVINCE
PROV            .                Western Australia         :STATE or PROVINCE
CTRY            .                     Australia            :COUNTRY
CONT_REGION     .                   Australasia            :Continent Region
SECT            .                                          :Section
TOWN            .                                          :Township
RANG            .                                          :Range
API             .                                          :API NUMBER
UWI             .                     19AWA0035            :UNIQUE WELL ID
LUL             .                        Zone 1            :Logging Unit Location
LUN             .                       1010979            :Logging Unit Number
LOC             .                  Browse Basin            :FIELD LOCATION
FL1             .                8 576 622.839 m N         :Field Location Line 1
FL2             .                653 417.755 m E           :Field Location Line 2
LATI            .deg             12° 52' 18.374" S         :LATITUDE
LONG            .deg             124° 24' 50.041" E        :LONGITUDE
PDAT            .                         OTHER            :Local Permanent Datum
LMF             .                            DF            :Logging Measured From
APD             .m                        23.85            :Elevation of Depth Reference (LMF) Above Permanent Datum
EPD             .m                        -2.68            :Elevation of Permanent Datum (PDAT) above Mean Sea Level
EKB             .m                      -999.25            :Elevation of Kelly Bushing Above Permanent Datum
EDF             .m                        23.85            :Elevation of Drill Floor Above Permanent Datum
EGL             .m                      -152.26            :Elevation of Ground Level Above Permanent Datum
ECF             .m                      -999.25            :Elevation of Casing Flange above Permanent Datum
#--------------------------------------------------
~CURVE INFORMATION
#MNEM           .UNIT                  API CODE            :DESCRIPTION
#----            ------          --------------            -----------------------------
DEPT            .m                                         :                                                        Depth Index
TVD             .m                                         :(RT)    (DnMWorkflow)           (6in)                   True Vertical Depth
ROP5            .m/h                                       :(RT)    (DRILLING_SURFACE)      (6in)                   Rate of penetration averaged over the last 5 ft (1.5 m)
TAB_GR          .h                                         :        (ARC9)                  (6in)                   Gamma Ray Time after Bit
GR              .gAPI                                      :(RM)    (ARC9)                  (6in)                   Gamma Ray
TAB_RES         .h                                         :        (ARC9)                  (6in)                   Resistivity Time After Bit
P16H            .ohm.m                                     :(RM)    (ARC9)                  (6in)                   Phase Shift Resistivity 16 inch Spacing at 2 MHz, Environmentally Corrected.
P28H            .ohm.m                                     :(RM)    (ARC9)                  (6in)                   Phase Shift Resistivity 28 inch Spacing at 2 MHz, Environmentally Corrected.
P40H            .ohm.m                                     :(RM)    (ARC9)                  (6in)                   Phase Shift Resistivity 40 inch Spacing at 2 MHz, Environmentally Corrected.
P40L            .ohm.m                                     :(RM)    (ARC9)                  (6in)                   Phase Shift Resistivity 40 inch Spacing at 400 KHz, Environmentally Corrected.
A40H            .ohm.m                                     :(RM)    (ARC9)                  (6in)                   Attenuation Resistivity 40 inch Spacing at 2 MHz, Environmentally Corrected.
DHAT            .degC                                      :(RM)    (ARC9)                  (6in)                   Downhole Annulus Temperature
DHAP            .psi                                       :(RM)    (ARC9)                  (6in)                   Downhole Annulus Pressure
ECD             .g/cm3                                     :(RM)    (ARC9)                  (6in)                   Equivalent Circulating Density
#-------------------------------------------------------------
#            DEPT          TVD         ROP5       TAB_GR           GR      TAB_RES         P16H         P28H         P40H         P40L         A40H         DHAT         DHAP          ECD 
#                  (DnMWorkfl)  (DRILLING_)       (ARC9)       (ARC9)       (ARC9)       (ARC9)       (ARC9)       (ARC9)       (ARC9)       (ARC9)       (ARC9)       (ARC9)       (ARC9) 
#                         (RT)         (RT)                      (RM)                      (RM)         (RM)         (RM)         (RM)         (RM)         (RM)         (RM)         (RM) 
#                        (6in)        (6in)        (6in)        (6in)        (6in)        (6in)        (6in)        (6in)        (6in)        (6in)        (6in)        (6in)        (6in) 
~ASCII
# ...
        685.95240    685.92748     71.41938      0.25388     30.29744      0.25388      0.58503      0.57426      0.56896      0.59023      0.60560     33.00000   1023.99993      1.08750
        686.10480    686.07988     69.43874      0.25471     28.47411      0.25471      0.58749      0.57875      0.58121      0.60132      0.61778     33.00000   1023.99993      1.08703
        686.25720    686.23228     65.78584      0.25499     26.55481      0.25499      0.59127      0.59059      0.58702      0.61915      0.63242     33.00000   1024.32061      1.08724
        686.40960    686.38468     67.49635      0.25694     26.62336      0.25694      0.60745      0.61437      0.61496      0.64136      0.65395     33.00000   1024.99997      1.08768
        686.56200    686.53708     60.39529      0.25639     26.91811      0.25639      0.64650      0.64718      0.65056      0.66827      0.66623     33.00000   1026.00000      1.08844
        686.71440    686.68948     55.22009      0.25250     26.40401      0.25250      0.65450      0.66695      0.66874      0.68201      0.68366     33.00000   1026.00000      1.08827
        686.86680    686.84187     51.37634      0.25180     25.93104      0.25180      0.68265      0.69270      0.68683      0.69580      0.70166     33.00000   1027.00004      1.08914
        687.01920    686.99427     49.56614      0.24931     25.66371      0.24931      0.68651      0.69702      0.69981      0.72221      0.72153     33.00000   1027.00004      1.08888
        687.17160    687.14667     45.13725      0.24695     25.91048      0.24695      0.69909      0.70836      0.70999      0.73217      0.73385     33.00000   1027.00004      1.08854
        687.32400    687.29907     46.19854      0.24764     26.65078      0.24764      0.71513      0.71900      0.71938      0.72772      0.74259     33.00000   1028.00007      1.08939
        687.47640    687.45147     41.48280      0.24152     27.92573      0.24152      0.73575      0.74188      0.74091      0.75042      0.75088     33.00000   1028.00007      1.08906
        687.62880    687.60387     40.45146      0.24167     29.40634      0.24167      0.76787      0.75639      0.75264      0.74776      0.74790     33.00000   1028.00007      1.08889
        687.78120    687.75627     40.51239      0.24042     30.43453      0.24042      0.79917      0.75839      0.74496      0.73699      0.74469     33.00000   1028.00007      1.08854
        687.93360    687.90866     39.00590      0.23987     31.54498      0.23987      0.80505      0.75690      0.73080      0.72877      0.72442     33.00000   1028.99996      1.08941
        688.08600    688.06106     40.68571      0.23889     32.81994      0.23889      0.79796      0.73069      0.70821      0.70693      0.70821     33.00000   1028.99996      1.08908
        688.23840    688.21346     42.24629      0.23709     32.98445      0.23709      0.80035      0.72208      0.69655      0.68965      0.69062     33.00000   1030.00000      1.08991
        688.39080    688.36586     39.08551      0.23278     33.02557      0.23278      0.82532      0.72850      0.69646      0.69352      0.68104     33.00000   1030.00000      1.08976
        688.54320    688.51826     40.24376      0.23222     33.53968      0.23222      0.82759      0.71833      0.69167      0.68087      0.68185     33.00000   1030.00000      1.08951
        688.69560    688.67066     41.14952      0.23222     32.73768      0.23222      0.80841      0.69870      0.66262      0.67642      0.67799     33.00000   1032.00007      1.09126
        688.84800    688.82306     40.07049      0.23000     32.10020      0.23000      0.80383      0.69221      0.66735      0.67232      0.68218     33.00000   1032.00007      1.09112
        689.00040    688.97546     44.45818      0.22902     32.47035      0.22902      0.79281      0.68705      0.66361      0.67604      0.67851     33.00000   1032.00007      1.09084
        689.15280    689.12785     42.36845      0.22542     32.79937      0.22542      0.78829      0.69569      0.66604      0.68065      0.69338     33.00000   1032.62663      1.09129
        689.30520    689.28025     41.81521      0.22486     34.19772      0.22486      0.80472      0.71796      0.69329      0.71485      0.71348     33.00000   1032.99996      1.09133
        689.45760    689.43265     41.84533      0.22403     36.41862      0.22403      0.82590      0.73749      0.71755      0.72703      0.72602     33.00000   1033.99999      1.09216
        689.61000    689.58505     40.66379      0.22291     37.17948      0.22291      0.83109      0.74713      0.73414      0.72463      0.73354     33.00000   1033.99999      1.09199
        689.76240    689.73745     39.62438      0.21944     37.42625      0.21944      0.80200      0.72097      0.70604      0.70481      0.71856     33.00000   1033.99999      1.09164
        689.91480    689.88985     41.85638      0.21694     38.33105      0.21694      0.76761      0.68561      0.66328      0.68211      0.69514     33.00000   1035.00003      1.09253
        690.06720    690.04225     43.53160      0.21792     37.87865      0.21792      0.75049      0.68030      0.65310      0.67744      0.68685     33.00000   1035.00003      1.09220
        690.21960    690.19465     42.91395      0.21708     36.50499      0.21708      0.76261      0.69038      0.66751      0.68423      0.69443     33.00000   1035.36872      1.09243
        690.37200    690.34705     42.94081      0.21639     37.47560      0.21639      0.79930      0.71385      0.69721      0.70185      0.71273     33.00000   1036.00006      1.09282
        690.52440    690.49944     45.10693      0.22014     39.19885      0.22014      0.82653      0.73581      0.71636      0.72083      0.73246     33.00000   1036.51132      1.09314
        690.67680    690.65184     48.21421      0.22111     36.56256      0.22111      0.84714      0.74055      0.71998      0.73065      0.74016     33.00000   1036.99995      1.09344
        690.82920    690.80424     52.28751      0.22375     31.93569      0.22375      0.85861      0.74610      0.72242      0.73927      0.74311     33.00000   1037.99999      1.09419
        690.98160    690.95664     50.55593      0.22375     29.65310      0.22375      0.88716      0.77608      0.74362      0.75610      0.76502     33.00000   1039.00003      1.09502
        691.13400    691.10904     49.62214      0.22264     28.63861      0.22264      0.89854      0.78726      0.75634      0.76513      0.77372     33.00000   1040.99995      1.09675
        691.28640    691.26144     57.15443      0.22305     27.66526      0.22305      0.92872      0.81713      0.78729      0.78856      0.78912     33.00000   1040.99995      1.09662
        691.43880    691.41384     59.33441      0.22375     26.78787      0.22375      0.92336      0.81991      0.79425      0.79647      0.80060     33.00000   1040.99995      1.09642
        691.59120    691.56624     60.55228      0.22597     26.89754      0.22597      0.89923      0.80947      0.78723      0.79114      0.79255     33.00000   1040.99995      1.09612
        691.74360    691.71864     66.84486      0.22750     28.33701      0.22750      0.86775      0.78807      0.76317      0.77668      0.78852     33.00000   1040.99995      1.09594
        691.89600    691.87103     74.06503      0.22847     31.21596      0.22847      0.82982      0.76721      0.74558      0.77323      0.78051     33.00000   1040.99995      1.09554
        692.04840    692.02343     75.95020      0.22916     34.67069      0.22916      0.82030      0.78005      0.77043      0.78457      0.78890     33.00000   1040.99995      1.09543
        692.20080    692.17583     83.91323      0.23055     36.43918      0.23055      0.82242      0.79015      0.78142      0.78823      0.79311     33.00000   1040.99995      1.09517
        692.35320    692.32823     80.47051      0.22903     36.68594      0.22903      0.80079      0.77554      0.77172      0.78250      0.79783     33.00000   1040.99995      1.09491
