~VERSION INFORMATION 
VERS  .    2.0                                     :CWLS Log ASCII Standard - VERSION 2.0
WRAP  .    NO                                      :One Line per Depth step
PROD  .    Schlumberger Technology Corp.           :LAS Producer
PROG  .    Horizon LASWriter 9.2.113335.3100       :LAS Program name and version
SOURCE.    17.5in Section-Drilling                 :Run&Pass Information
CREA  .    12/03/2019                              :LAS Creation date {MM/DD/YYYY}
#--------------------------------------------------
~WELL INFORMATION 
#MNEM           .UNIT                      DATA            :DESCRIPTION
#----            ------          --------------            -----------------------------
STRT            .m                    259.99440            :START DEPTH
STOP            .m                   2415.08280            :STOP DEPTH
STEP            .m                       0.1524            :STEP
NULL            .                       -999.25            :NULL VALUE
COMP            .                Shell Australia Pty Ltd   :COMPANY
WELL            .                   Bratwurst-1            :WELL NAME
FLD             .                     Bratwurst            :FIELD NAME
RIGN            .                    Ocean Apex            :Rig Name
RIGTYP          .                Semi-Submersible          :Rig Type
SON             .                     19AWA0035            :Service Order Number
SRVC            .                  Schlumberger            :SERVICE COMPANY
DATE            .                    10/02/2019            :LOG DATE(Composite Date for Composite LAP) (MM/DD/YYYY)
CLAB            .                       County:            :County Label
CNTY            .                                          :COUNTY
SLAB            .                        State:            :State/Province Label
STAT            .                Western Australia         :STATE or PROVINCE
PROV            .                Western Australia         :STATE or PROVINCE
CTRY            .                     Australia            :COUNTRY
CONT_REGION     .                   Australasia            :Continent Region
SECT            .                                          :Section
TOWN            .                                          :Township
RANG            .                                          :Range
API             .                                          :API NUMBER
UWI             .                     19AWA0035            :UNIQUE WELL ID
LUL             .                        Zone 1            :Logging Unit Location
LUN             .                       1010979            :Logging Unit Number
LOC             .                  Browse Basin            :FIELD LOCATION
FL1             .                8 576 622.839 m N         :Field Location Line 1
FL2             .                653 417.755 m E           :Field Location Line 2
LATI            .deg             12° 52' 18.374" S         :LATITUDE
LONG            .deg             124° 24' 50.041" E        :LONGITUDE
PDAT            .                         OTHER            :Local Permanent Datum
LMF             .                            DF            :Logging Measured From
APD             .m                        23.85            :Elevation of Depth Reference (LMF) Above Permanent Datum
EPD             .m                        -2.68            :Elevation of Permanent Datum (PDAT) above Mean Sea Level
EKB             .m                      -999.25            :Elevation of Kelly Bushing Above Permanent Datum
EDF             .m                        23.85            :Elevation of Drill Floor Above Permanent Datum
EGL             .m                      -152.26            :Elevation of Ground Level Above Permanent Datum
ECF             .m                      -999.25            :Elevation of Casing Flange above Permanent Datum
#--------------------------------------------------
~CURVE INFORMATION
#MNEM           .UNIT                  API CODE            :DESCRIPTION
#----            ------          --------------            -----------------------------
DEPT            .m                                         :                                                        Depth Index
TVD             .m                                         :(RT)    (DnMWorkflow)           (6in)                   True Vertical Depth
ROP5            .m/h                                       :(RT)    (DRILLING_SURFACE)      (6in)                   Rate of penetration averaged over the last 5 ft (1.5 m)
TAB_GR          .h                                         :        (ARC9)                  (6in)                   Gamma Ray Time after Bit
GR              .gAPI                                      :(RM)    (ARC9)                  (6in)                   Gamma Ray
TAB_RES         .h                                         :        (ARC9)                  (6in)                   Resistivity Time After Bit
P16H            .ohm.m                                     :(RM)    (ARC9)                  (6in)                   Phase Shift Resistivity 16 inch Spacing at 2 MHz, Environmentally Corrected.
P28H            .ohm.m                                     :(RM)    (ARC9)                  (6in)                   Phase Shift Resistivity 28 inch Spacing at 2 MHz, Environmentally Corrected.
P40H            .ohm.m                                     :(RM)    (ARC9)                  (6in)                   Phase Shift Resistivity 40 inch Spacing at 2 MHz, Environmentally Corrected.
P40L            .ohm.m                                     :(RM)    (ARC9)                  (6in)                   Phase Shift Resistivity 40 inch Spacing at 400 KHz, Environmentally Corrected.
A40H            .ohm.m                                     :(RM)    (ARC9)                  (6in)                   Attenuation Resistivity 40 inch Spacing at 2 MHz, Environmentally Corrected.
DHAT            .degC                                      :(RM)    (ARC9)                  (6in)                   Downhole Annulus Temperature
DHAP            .psi                                       :(RM)    (ARC9)                  (6in)                   Downhole Annulus Pressure
ECD             .g/cm3                                     :(RM)    (ARC9)                  (6in)                   Equivalent Circulating Density
#-------------------------------------------------------------
#            DEPT          TVD         ROP5       TAB_GR           GR      TAB_RES         P16H         P28H         P40H         P40L         A40H         DHAT         DHAP          ECD 
#                  (DnMWorkfl)  (DRILLING_)       (ARC9)       (ARC9)       (ARC9)       (ARC9)       (ARC9)       (ARC9)       (ARC9)       (ARC9)       (ARC9)       (ARC9)       (ARC9) 
#                         (RT)         (RT)                      (RM)                      (RM)         (RM)         (RM)         (RM)         (RM)         (RM)         (RM)         (RM) 
#                        (6in)        (6in)        (6in)        (6in)        (6in)        (6in)        (6in)        (6in)        (6in)        (6in)        (6in)        (6in)        (6in) 
~ASCII
# ...
        974.29320    974.26445     59.33939      0.21861     16.98159      0.21861      0.97975      0.43438      0.32404      0.25800      0.20927     37.00000   1523.46189      1.12698
        974.44560    974.41684     57.31539      0.21792     16.71105      0.21792      0.97656      0.45146      0.33253      0.25439      0.20730     37.00000   1521.00060      1.12490
        974.59800    974.56923     58.62455      0.21818     16.85673      0.21818      0.97783      0.45254      0.32693      0.25720      0.20086     37.00000   1521.99411      1.12554
        974.75040    974.72163     55.60360      0.21638     18.33429      0.21638      0.97825      0.45033      0.32471      0.25696      0.20129     37.00000   1523.75197      1.12665
        974.90280    974.87402     51.70648      0.21383     18.85456      0.21383      0.97012      0.44713      0.31833      0.25819      0.20540     37.00000   1526.00005      1.12809
        975.05520    975.02642     54.68909      0.21707     18.64646      0.21707      0.95602      0.44632      0.32883      0.25894      0.20469     37.00000   1527.34165      1.12895
        975.20760    975.17881     53.96893      0.21651     18.56321      0.21651      0.88128      0.41430      0.30102      0.25396      0.20707     37.00000   1528.99943      1.13001
        975.36000    975.33121     55.82837      0.21763     18.68808      0.21763      0.88836      0.41936      0.30394      0.25425      0.20589     37.00000   1524.99929      1.12681
        975.51240    975.48360     58.00589      0.21855     18.81294      0.21855      0.88561      0.41966      0.30922      0.25408      0.21253     37.00000   1527.83333      1.12877
        975.66480    975.63600     76.82487      0.21846     18.38285      0.21846      0.84726      0.41567      0.31855      0.25754      0.21256     37.00000   1530.00019      1.13016
        975.81720    975.78839     75.27427      0.21708     16.95384      0.21708      0.74371      0.37353      0.29105      0.25366      0.21659     37.00000   1527.48234      1.12815
        975.96960    975.94079     75.23078      0.21805     14.84502      0.21805      0.65603      0.33423      0.25600      0.24879      0.21834     37.00000   1524.99929      1.12616
        976.12200    976.09318     73.91156      0.21708     13.36052      0.21708      0.64957      0.33573      0.26103      0.24661      0.21566     37.00000   1529.25180      1.12909
        976.27440    976.24558     81.28217      0.21639     13.40214      0.21639      0.63815      0.33661      0.25773      0.24841      0.21336     37.00000   1532.00026      1.13099
        976.42680    976.39797     95.76221      0.21583     14.19295      0.21583      0.80877      0.38839      0.30968      0.25858      0.22752     37.00000   1532.00026      1.13076
        976.57920    976.55037     89.13960      0.21528     14.56754      0.21528      0.80877      0.38839      0.30968      0.25858      0.22752     37.00000   1534.00034      1.13198
        976.73160    976.70276     92.04665      0.21500     14.44268      0.21500      0.82289      0.38691      0.30152      0.26468      0.22152     37.00000   1534.00034      1.13187
        976.88400    976.85516     84.92480      0.21429     14.38025      0.21429      0.83601      0.39432      0.28827      0.26152      0.22282     37.00000   1534.00034      1.13169
        977.03640    977.00755     78.24803      0.21361     14.71322      0.21361      0.86685      0.40825      0.30113      0.26219      0.21945     37.00000   1534.00034      1.13154
        977.18880    977.15994     77.47372      0.21443     15.33754      0.21443      0.86526      0.41224      0.31327      0.26677      0.21707     37.00000   1535.46522      1.13241
        977.34120    977.31234     85.23579      0.21832     15.83700      0.21832      0.86180      0.40816      0.31277      0.26029      0.21533     37.00000   1536.99972      1.13333
        977.49360    977.46473     79.82220      0.45634     16.98159      0.45634      0.85290      0.40519      0.30959      0.26112      0.21656     36.59359   1536.22521      1.13261
        977.64600    977.61713     69.65502      0.45102     18.97943      0.45102      0.85979      0.41598      0.30584      0.26142      0.21224     36.27935   1534.99965      1.13148
        977.79840    977.76952     70.52163      0.45068     19.97835      0.45068      0.83498      0.40460      0.30410      0.25476      0.21944     36.00000   1536.99972      1.13275
        977.95080    977.92192     71.97782      0.45012     20.35294      0.45012      0.83498      0.40460      0.30410      0.25476      0.21944     36.00000   1542.00062      1.13625
        978.10320    978.07431     73.56522      0.44957     21.39348      0.44957      0.80695      0.38949      0.28603      0.25620      0.21767     36.00000   1540.25146      1.13485
        978.25560    978.22671     70.20464      0.44763     22.35077      0.44763      0.80695      0.38949      0.28603      0.25620      0.21767     36.00000   1537.42323      1.13259
        978.40800    978.37910     68.56898      0.44596     21.68483      0.44596      0.76032      0.38246      0.29943      0.26634      0.22561     36.00000   1534.59499      1.13032
        978.56040    978.53150     70.52685      0.44569     19.77024      0.44569      0.67853      0.36361      0.28436      0.27372      0.24790     36.00000   1532.99957      1.12905
        978.71280    978.68389     69.73555      0.44443     18.93781      0.44443      0.67853      0.36361      0.28436      0.27372      0.24790     36.00000   1531.89874      1.12798
        978.86520    978.83629     65.24088      0.44262     19.18754      0.44262      0.74881      0.40884      0.33323      0.33823      0.31991     36.00000   1531.13294      1.12723
        979.01760    978.98868     70.67553      0.44166     18.64646      0.44166      0.74881      0.40884      0.33323      0.33823      0.31991     36.00000   1530.00019      1.12613
        979.17000    979.14108     85.54523      0.44139     17.31457      0.44139      0.84134      0.46365      0.38397      0.41354      0.37650     36.00000   1529.85661      1.12594
        979.32240    979.29347     81.85921      0.43958     16.35727      0.43958      0.84134      0.46365      0.38397      0.41354      0.37650     36.00000   1529.58104      1.12555
        979.47480    979.44587     79.27763      0.43846     15.35835      0.43846      1.03066      0.60139      0.51771      0.44300      0.42550     36.00000   1529.30546      1.12517
        979.62720    979.59826     75.50756      0.43735     14.23457      0.43735      0.80837      0.45903      0.38202      0.34773      0.31679     36.00000   1528.99943      1.12475
        979.77960    979.75066     77.86882      0.43624     13.81836      0.43624      0.77753      0.43461      0.35319      0.32239      0.27782     36.00000   1529.74348      1.12513
        979.93200    979.90305     78.60191      0.43680     14.44268      0.43680      0.85700      0.46510      0.38608      0.30355      0.26310     36.00000   1530.58180      1.12557
        980.08440    980.05545     75.78870      0.43736     15.89943      0.43736      0.91524      0.47764      0.38920      0.30162      0.26074     36.00000   1531.41866      1.12601
        980.23680    980.20784     74.07841      0.43735     16.79430      0.43735      1.11319      0.50596      0.40077      0.30676      0.25015     36.00000   1532.00026      1.12631
        980.38920    980.36024     64.55329      0.43401     16.85673      0.43401      1.20927      0.54425      0.40412      0.30578      0.24725     36.00000   1532.00026      1.12608
        980.54160    980.51263     60.19605      0.43554     17.06484      0.43554      1.20677      0.55185      0.41861      0.30927      0.24427     36.00000   1532.00026      1.12593
        980.69400    980.66503     54.74877      0.43290     17.81402      0.43290      1.34680      0.60456      0.45514      0.30171      0.23551     36.00000   1532.99957      1.12649
