~VERSION INFORMATION 
VERS  .    2.0                                     :CWLS Log ASCII Standard - VERSION 2.0
WRAP  .    NO                                      :One Line per Depth step
PROD  .    Schlumberger Technology Corp.           :LAS Producer
PROG  .    Horizon LASWriter 9.2.113335.3100       :LAS Program name and version
SOURCE.    17.5in Section-Drilling                 :Run&Pass Information
CREA  .    12/03/2019                              :LAS Creation date {MM/DD/YYYY}
#--------------------------------------------------
~WELL INFORMATION 
#MNEM           .UNIT                      DATA            :DESCRIPTION
#----            ------          --------------            -----------------------------
STRT            .m                    259.99440            :START DEPTH
STOP            .m                   2415.08280            :STOP DEPTH
STEP            .m                       0.1524            :STEP
NULL            .                       -999.25            :NULL VALUE
COMP            .                Shell Australia Pty Ltd   :COMPANY
WELL            .                   Bratwurst-1            :WELL NAME
FLD             .                     Bratwurst            :FIELD NAME
RIGN            .                    Ocean Apex            :Rig Name
RIGTYP          .                Semi-Submersible          :Rig Type
SON             .                     19AWA0035            :Service Order Number
SRVC            .                  Schlumberger            :SERVICE COMPANY
DATE            .                    10/02/2019            :LOG DATE(Composite Date for Composite LAP) (MM/DD/YYYY)
CLAB            .                       County:            :County Label
CNTY            .                                          :COUNTY
SLAB            .                        State:            :State/Province Label
STAT            .                Western Australia         :STATE or PROVINCE
PROV            .                Western Australia         :STATE or PROVINCE
CTRY            .                     Australia            :COUNTRY
CONT_REGION     .                   Australasia            :Continent Region
SECT            .                                          :Section
TOWN            .                                          :Township
RANG            .                                          :Range
API             .                                          :API NUMBER
UWI             .                     19AWA0035            :UNIQUE WELL ID
LUL             .                        Zone 1            :Logging Unit Location
LUN             .                       1010979            :Logging Unit Number
LOC             .                  Browse Basin            :FIELD LOCATION
FL1             .                8 576 622.839 m N         :Field Location Line 1
FL2             .                653 417.755 m E           :Field Location Line 2
LATI            .deg             12° 52' 18.374" S         :LATITUDE
LONG            .deg             124° 24' 50.041" E        :LONGITUDE
PDAT            .                         OTHER            :Local Permanent Datum
LMF             .                            DF            :Logging Measured From
APD             .m                        23.85            :Elevation of Depth Reference (LMF) Above Permanent Datum
EPD             .m                        -2.68            :Elevation of Permanent Datum (PDAT) above Mean Sea Level
EKB             .m                      -999.25            :Elevation of Kelly Bushing Above Permanent Datum
EDF             .m                        23.85            :Elevation of Drill Floor Above Permanent Datum
EGL             .m                      -152.26            :Elevation of Ground Level Above Permanent Datum
ECF             .m                      -999.25            :Elevation of Casing Flange above Permanent Datum
#--------------------------------------------------
~CURVE INFORMATION
#MNEM           .UNIT                  API CODE            :DESCRIPTION
#----            ------          --------------            -----------------------------
DEPT            .m                                         :                                                        Depth Index
TVD             .m                                         :(RT)    (DnMWorkflow)           (6in)                   True Vertical Depth
ROP5            .m/h                                       :(RT)    (DRILLING_SURFACE)      (6in)                   Rate of penetration averaged over the last 5 ft (1.5 m)
TAB_GR          .h                                         :        (ARC9)                  (6in)                   Gamma Ray Time after Bit
GR              .gAPI                                      :(RM)    (ARC9)                  (6in)                   Gamma Ray
TAB_RES         .h                                         :        (ARC9)                  (6in)                   Resistivity Time After Bit
P16H            .ohm.m                                     :(RM)    (ARC9)                  (6in)                   Phase Shift Resistivity 16 inch Spacing at 2 MHz, Environmentally Corrected.
P28H            .ohm.m                                     :(RM)    (ARC9)                  (6in)                   Phase Shift Resistivity 28 inch Spacing at 2 MHz, Environmentally Corrected.
P40H            .ohm.m                                     :(RM)    (ARC9)                  (6in)                   Phase Shift Resistivity 40 inch Spacing at 2 MHz, Environmentally Corrected.
P40L            .ohm.m                                     :(RM)    (ARC9)                  (6in)                   Phase Shift Resistivity 40 inch Spacing at 400 KHz, Environmentally Corrected.
A40H            .ohm.m                                     :(RM)    (ARC9)                  (6in)                   Attenuation Resistivity 40 inch Spacing at 2 MHz, Environmentally Corrected.
DHAT            .degC                                      :(RM)    (ARC9)                  (6in)                   Downhole Annulus Temperature
DHAP            .psi                                       :(RM)    (ARC9)                  (6in)                   Downhole Annulus Pressure
ECD             .g/cm3                                     :(RM)    (ARC9)                  (6in)                   Equivalent Circulating Density
#-------------------------------------------------------------
#            DEPT          TVD         ROP5       TAB_GR           GR      TAB_RES         P16H         P28H         P40H         P40L         A40H         DHAT         DHAP          ECD 
#                  (DnMWorkfl)  (DRILLING_)       (ARC9)       (ARC9)       (ARC9)       (ARC9)       (ARC9)       (ARC9)       (ARC9)       (ARC9)       (ARC9)       (ARC9)       (ARC9) 
#                         (RT)         (RT)                      (RM)                      (RM)         (RM)         (RM)         (RM)         (RM)         (RM)         (RM)         (RM) 
#                        (6in)        (6in)        (6in)        (6in)        (6in)        (6in)        (6in)        (6in)        (6in)        (6in)        (6in)        (6in)        (6in) 
~ASCII
# ...
       1111.91040   1111.87786     31.08761      0.42625     41.99492      0.42625      0.85585      0.80050      0.77207      0.75557      0.73226     37.00000   1719.99963      1.11144
       1112.06280   1112.03026     32.52850      0.42819     40.09946      0.42819      0.74085      0.68983      0.66116      0.66981      0.65625     37.00000   1719.41368      1.11091
       1112.21520   1112.18266     31.57780      0.42687     38.87795      0.42687      0.69817      0.64619      0.61851      0.64661      0.63940     37.00000   1719.99963      1.11107
       1112.36760   1112.33505     32.05364      0.42749     38.26719      0.42749      0.66001      0.62359      0.60551      0.64966      0.63946     37.00000   1719.00032      1.11029
       1112.52000   1112.48745     32.46294      0.42681     37.69855      0.42681      0.69890      0.67364      0.66262      0.69436      0.65810     37.00000   1720.37383      1.11106
       1112.67240   1112.63985     29.66776      0.42055     37.06674      0.42055      0.88653      0.81114      0.78565      0.74489      0.69599     37.00000   1721.99970      1.11198
       1112.82480   1112.79224     30.07326      0.41464     34.98875      0.41464      0.86268      0.77235      0.73499      0.72954      0.70377     37.00000   1721.99970      1.11180
       1112.97720   1112.94464     33.43087      0.41361     31.61203      0.41361      0.87628      0.78084      0.74052      0.73120      0.69973     37.00000   1719.99963      1.11031
       1113.12960   1113.09704     40.25808      0.41624     29.80081      0.41624      0.83302      0.77076      0.72427      0.67964      0.64519     37.00000   1721.01780      1.11085
       1113.28200   1113.24944     40.98375      0.41736     30.52389      0.41736      0.80557      0.75268      0.71063      0.65894      0.62376     37.00000   1721.99970      1.11139
       1113.43440   1113.40183     41.54393      0.41611     31.65415      0.41611      0.68336      0.63672      0.61122      0.56522      0.54769     37.00000   1723.00046      1.11183
       1113.58680   1113.55423     41.56017      0.41708     32.20173      0.41708      0.56940      0.52550      0.50167      0.50411      0.50533     37.00000   1721.99970      1.11101
       1113.73920   1113.70663     41.85492      0.41573     32.34915      0.41573      0.51693      0.48348      0.45447      0.47682      0.47760     37.00000   1723.99977      1.11218
       1113.89160   1113.85902     38.94972      0.41375     29.96930      0.41375      0.50390      0.47299      0.44620      0.47444      0.47311     37.00000   1725.00053      1.11263
       1114.04400   1114.01142     41.27131      0.41458     25.17449      0.41458      0.50867      0.49381      0.47550      0.49112      0.48949     37.00000   1725.99984      1.11310
       1114.19640   1114.16382     47.87983      0.41513     22.56297      0.41513      0.52478      0.50279      0.49178      0.48649      0.48029     37.00000   1725.51542      1.11267
       1114.34880   1114.31621     54.35684      0.41541     22.90696      0.41541      0.51085      0.48247      0.47659      0.46566      0.46326     37.00000   1725.00053      1.11221
       1114.50120   1114.46861     54.05788      0.41514     22.67529      0.41514      0.49155      0.45966      0.44911      0.44864      0.44780     37.00000   1725.00053      1.11195
       1114.65360   1114.62101     54.40183      0.41694     21.90307      0.41694      0.46075      0.43566      0.42082      0.43437      0.44139     37.00000   1725.83885      1.11241
       1114.80600   1114.77341     54.39461      0.41555     22.19792      0.41555      0.49980      0.48083      0.47004      0.47066      0.46619     37.00000   1727.00060      1.11296
       1114.95840   1114.92580     56.48308      0.41528     22.89292      0.41528      0.53536      0.50617      0.49125      0.48983      0.48847     37.00000   1727.00060      1.11287
       1115.11080   1115.07820     53.98592      0.41570     23.75640      0.41570      0.55242      0.51690      0.50288      0.52217      0.51115     37.00000   1725.00053      1.11135
       1115.26320   1115.23060     49.92182      0.41249     25.34298      0.41249      0.56771      0.53064      0.51035      0.52329      0.51411     37.00000   1727.00060      1.11247
       1115.41560   1115.38299     50.12082      0.41139     27.27855      0.41139      0.56802      0.53762      0.52070      0.51779      0.51432     37.00000   1726.06511      1.11178
       1115.56800   1115.53539     46.01281      0.41069     28.21023      0.41069      0.53975      0.50755      0.49333      0.49245      0.49074     37.00000   1725.00053      1.11099
       1115.72040   1115.68779     44.82906      0.41277     26.95562      0.41277      0.48889      0.45870      0.44526      0.45745      0.46342     37.00000   1729.00067      1.11337
       1115.87280   1115.84019     45.70367      0.41735     24.27169      0.41735      0.46529      0.44537      0.44287      0.45404      0.45874     37.00000   1729.00067      1.11317
       1116.02520   1115.99258     48.70222      0.41889     22.42818      0.41889      0.47031      0.44538      0.43312      0.45200      0.45984     37.00000   1727.99991      1.11235
       1116.17760   1116.14498     45.69654      0.67806     22.46749      0.67806      0.48007      0.44860      0.43051      0.45089      0.45289     36.00000   1729.99998      1.11350
       1116.33000   1116.29738     48.94910      0.67768     22.91398      0.67768      0.47794      0.44428      0.42257      0.44664      0.45485     36.00000   1732.00005      1.11462
       1116.48240   1116.44977     47.57531      0.67466     23.92489      0.67466      0.48145      0.44551      0.43234      0.47131      0.48144     36.00000   1732.99936      1.11516
       1116.63480   1116.60217     44.51273      0.67111     25.52550      0.67111      0.48145      0.44551      0.43234      0.47131      0.48144     36.00000   1729.99998      1.11309
       1116.78720   1116.75457     46.11570      0.66803     25.20257      0.66803      0.53312      0.49470      0.47988      0.52434      0.52626     36.00000   1729.99998      1.11286
       1116.93960   1116.90697     43.02212      0.66582     24.12146      0.66582      0.60840      0.57458      0.56766      0.59732      0.59443     36.00000   1729.99998      1.11276
       1117.09200   1117.05936     36.41493      0.65679     25.28681      0.65679      0.67821      0.64379      0.61800      0.64597      0.63410     36.00000   1729.99998      1.11261
       1117.24440   1117.21176     36.47576      0.65568     29.02157      0.65568      0.93242      0.86566      0.85494      0.88985      0.87696     36.00000   1729.99998      1.11245
       1117.39680   1117.36416     35.39022      0.65110     33.36006      0.65110      1.23798      1.18116      1.17355      1.13524      1.01419     36.00000   1729.99998      1.11225
       1117.54920   1117.51656     24.47850      0.63180     37.27734      0.63180      1.23798      1.18116      1.17355      1.13524      1.01419     36.00000   1729.99998      1.11220
       1117.70160   1117.66895     18.98841      0.61485     41.01560      0.61485      1.75936      1.63364      1.57006      1.38543      1.25337     36.00000   1732.00005      1.11322
       1117.85400   1117.82135     17.35549      0.60417     42.57760      0.60417      1.80047      1.68118      1.62407      1.40590      1.25372     36.00000   1732.00005      1.11312
       1118.00640   1117.97375     14.39111      0.60040     41.52106      0.60040      1.64278      1.52301      1.45390      1.31804      1.21034     36.00000   1732.00005      1.11298
       1118.15880   1118.12614     13.93541      0.58513     42.14937      0.58513      1.29541      1.17467      1.10840      1.16010      1.12935     36.00000   1732.91814      1.11340
       1118.31120   1118.27854     13.45980      0.58292     46.46680      0.58292      1.13961      1.03391      0.98046      1.10290      1.10202     36.00000   1734.00012      1.11388
