~VERSION INFORMATION 
VERS  .    2.0                                     :CWLS Log ASCII Standard - VERSION 2.0
WRAP  .    NO                                      :One Line per Depth step
PROD  .    Schlumberger Technology Corp.           :LAS Producer
PROG  .    Horizon LASWriter 9.2.113335.3100       :LAS Program name and version
SOURCE.    17.5in Section-Drilling                 :Run&Pass Information
CREA  .    12/03/2019                              :LAS Creation date {MM/DD/YYYY}
#--------------------------------------------------
~WELL INFORMATION 
#MNEM           .UNIT                      DATA            :DESCRIPTION
#----            ------          --------------            -----------------------------
STRT            .m                    259.99440            :START DEPTH
STOP            .m                   2415.08280            :STOP DEPTH
STEP            .m                       0.1524            :STEP
NULL            .                       -999.25            :NULL VALUE
COMP            .                Shell Australia Pty Ltd   :COMPANY
WELL            .                   Bratwurst-1            :WELL NAME
FLD             .                     Bratwurst            :FIELD NAME
RIGN            .                    Ocean Apex            :Rig Name
RIGTYP          .                Semi-Submersible          :Rig Type
SON             .                     19AWA0035            :Service Order Number
SRVC            .                  Schlumberger            :SERVICE COMPANY
DATE            .                    10/02/2019            :LOG DATE(Composite Date for Composite LAP) (MM/DD/YYYY)
CLAB            .                       County:            :County Label
CNTY            .                                          :COUNTY
SLAB            .                        State:            :State/Province Label
STAT            .                Western Australia         :STATE or PROVINCE
PROV            .                Western Australia         :STATE or PROVINCE
CTRY            .                     Australia            :COUNTRY
CONT_REGION     .                   Australasia            :Continent Region
SECT            .                                          :Section
TOWN            .                                          :Township
RANG            .                                          :Range
API             .                                          :API NUMBER
UWI             .                     19AWA0035            :UNIQUE WELL ID
LUL             .                        Zone 1            :Logging Unit Location
LUN             .                       1010979            :Logging Unit Number
LOC             .                  Browse Basin            :FIELD LOCATION
FL1             .                8 576 622.839 m N         :Field Location Line 1
FL2             .                653 417.755 m E           :Field Location Line 2
LATI            .deg             12° 52' 18.374" S         :LATITUDE
LONG            .deg             124° 24' 50.041" E        :LONGITUDE
PDAT            .                         OTHER            :Local Permanent Datum
LMF             .                            DF            :Logging Measured From
APD             .m                        23.85            :Elevation of Depth Reference (LMF) Above Permanent Datum
EPD             .m                        -2.68            :Elevation of Permanent Datum (PDAT) above Mean Sea Level
EKB             .m                      -999.25            :Elevation of Kelly Bushing Above Permanent Datum
EDF             .m                        23.85            :Elevation of Drill Floor Above Permanent Datum
EGL             .m                      -152.26            :Elevation of Ground Level Above Permanent Datum
ECF             .m                      -999.25            :Elevation of Casing Flange above Permanent Datum
#--------------------------------------------------
~CURVE INFORMATION
#MNEM           .UNIT                  API CODE            :DESCRIPTION
#----            ------          --------------            -----------------------------
DEPT            .m                                         :                                                        Depth Index
TVD             .m                                         :(RT)    (DnMWorkflow)           (6in)                   True Vertical Depth
ROP5            .m/h                                       :(RT)    (DRILLING_SURFACE)      (6in)                   Rate of penetration averaged over the last 5 ft (1.5 m)
TAB_GR          .h                                         :        (ARC9)                  (6in)                   Gamma Ray Time after Bit
GR              .gAPI                                      :(RM)    (ARC9)                  (6in)                   Gamma Ray
TAB_RES         .h                                         :        (ARC9)                  (6in)                   Resistivity Time After Bit
P16H            .ohm.m                                     :(RM)    (ARC9)                  (6in)                   Phase Shift Resistivity 16 inch Spacing at 2 MHz, Environmentally Corrected.
P28H            .ohm.m                                     :(RM)    (ARC9)                  (6in)                   Phase Shift Resistivity 28 inch Spacing at 2 MHz, Environmentally Corrected.
P40H            .ohm.m                                     :(RM)    (ARC9)                  (6in)                   Phase Shift Resistivity 40 inch Spacing at 2 MHz, Environmentally Corrected.
P40L            .ohm.m                                     :(RM)    (ARC9)                  (6in)                   Phase Shift Resistivity 40 inch Spacing at 400 KHz, Environmentally Corrected.
A40H            .ohm.m                                     :(RM)    (ARC9)                  (6in)                   Attenuation Resistivity 40 inch Spacing at 2 MHz, Environmentally Corrected.
DHAT            .degC                                      :(RM)    (ARC9)                  (6in)                   Downhole Annulus Temperature
DHAP            .psi                                       :(RM)    (ARC9)                  (6in)                   Downhole Annulus Pressure
ECD             .g/cm3                                     :(RM)    (ARC9)                  (6in)                   Equivalent Circulating Density
#-------------------------------------------------------------
#            DEPT          TVD         ROP5       TAB_GR           GR      TAB_RES         P16H         P28H         P40H         P40L         A40H         DHAT         DHAP          ECD 
#                  (DnMWorkfl)  (DRILLING_)       (ARC9)       (ARC9)       (ARC9)       (ARC9)       (ARC9)       (ARC9)       (ARC9)       (ARC9)       (ARC9)       (ARC9)       (ARC9) 
#                         (RT)         (RT)                      (RM)                      (RM)         (RM)         (RM)         (RM)         (RM)         (RM)         (RM)         (RM) 
#                        (6in)        (6in)        (6in)        (6in)        (6in)        (6in)        (6in)        (6in)        (6in)        (6in)        (6in)        (6in)        (6in) 
~ASCII
# ...
       2252.16720   2252.07300     12.28374      1.36435     95.63793      1.36435      1.05621      1.00657      0.98912      1.01822      1.01649     58.00000   3558.00052      1.12263
       2252.31960   2252.22536     13.03105      1.35776     90.30983      1.35776      1.08314      1.03213      1.01560      1.03228      1.04084     57.00000   3558.00052      1.12258
       2252.47200   2252.37773     12.14377      1.35477     90.74818      1.35477      1.09759      1.04938      1.02846      1.04887      1.04533     57.00000   3560.00059      1.12316
       2252.62440   2252.53009     12.35482      1.34985     92.68741      1.34985      1.09885      1.05815      1.03690      1.04113      1.03622     57.00000   3558.99983      1.12277
       2252.77680   2252.68246     12.78771      1.35290     94.66475      1.35290      1.08054      1.04352      1.01808      1.03127      1.02800     57.00000   3558.00052      1.12233
       2252.92920   2252.83482     12.96615      1.34872     96.17515      1.34872      1.03562      1.00596      0.97925      1.00437      1.01222     57.00000   3558.00052      1.12224
       2253.08160   2252.98718     11.91172      1.33873     97.26627      1.33873      1.02745      0.98336      0.95881      0.98597      0.99517     57.00000   3558.00052      1.12222
       2253.23400   2253.13955     12.83272      1.35206     95.60875      1.35206      1.00946      0.98067      0.96093      0.98226      0.98413     57.00000   3558.99983      1.12247
       2253.38640   2253.29191     13.83286      1.35762     91.60880      1.35762      0.96918      0.94448      0.92953      0.95497      0.96958     57.00000   3560.00059      1.12267
       2253.53880   2253.44428     12.92557      1.36575     91.33364      1.36575      0.92599      0.90236      0.88779      0.92996      0.94906     57.00000   3560.99990      1.12295
       2253.69120   2253.59664     13.09918      1.36664     92.37889      1.36664      0.92473      0.89409      0.87965      0.91020      0.93068     57.00000   3558.00052      1.12190
       2253.84360   2253.74900     14.39767      1.36582     91.78773      1.36582      0.86315      0.83666      0.81872      0.86728      0.89600     57.00000   3558.99983      1.12214
       2253.99600   2253.90137     16.95802      1.37735     93.11018      1.37735      0.84516      0.82322      0.80870      0.87269      0.90365     57.00000   3558.99983      1.12202
       2254.14840   2254.05373     14.94426      1.37714     95.35767      1.37714      0.90406      0.88385      0.87083      0.91173      0.92397     57.00000   3558.00052      1.12166
       2254.30080   2254.20610     15.93734      1.37636     94.08347      1.37636      0.95512      0.93532      0.92429      0.95186      0.95138     57.00000   3560.00059      1.12220
       2254.45320   2254.35846     14.08667      1.35775     91.89646      1.35775      1.00045      0.97226      0.96427      0.97366      0.97285     57.00000   3560.00059      1.12217
       2254.60560   2254.51082     14.28454      1.34984     91.51053      1.34984      1.02451      0.98918      0.97921      0.97403      0.98562     57.00000   3558.99983      1.12172
       2254.75800   2254.66319     14.01898      1.35622     91.58200      1.35622      1.06267      1.01654      1.00268      0.99516      0.97776     57.00000   3558.99983      1.12167
       2254.91040   2254.81555     13.51028      1.35692     94.42651      1.35692      1.03584      0.98989      0.96901      0.97451      0.96963     57.00000   3558.99983      1.12161
       2255.06280   2254.96792     13.22216      1.34123    102.83140      1.34123      0.93121      0.89728      0.87181      0.91067      0.92617     57.00000   3560.00059      1.12182
       2255.21520   2255.12028     13.06322      1.35914    108.44640      1.35914      0.89272      0.86376      0.84786      0.89773      0.91496     57.00000   3560.99990      1.12206
       2255.36760   2255.27264     11.85128      1.34553    102.56890      1.34553      0.90728      0.88031      0.86653      0.89855      0.92261     57.00000   3560.00059      1.12168
       2255.52000   2255.42501     10.70797      1.34442     95.13147      1.34442      0.92693      0.89509      0.88793      0.90690      0.92194     57.00000   3558.99983      1.12127
       2255.67240   2255.57737     12.09633      1.35039     93.66893      1.35039      0.90572      0.87952      0.87049      0.91067      0.92934     57.00000   3558.99983      1.12118
       2255.82480   2255.72974     10.97636      1.34082     92.69694      1.34082      0.90716      0.88284      0.87269      0.90915      0.93809     57.00000   3560.99990      1.12176
       2255.97720   2255.88210     12.10169      1.33265     92.74390      1.33265      0.93334      0.89534      0.86812      0.91242      0.92138     57.00000   3560.00059      1.12133
       2256.12960   2256.03447     12.74329      1.33720     93.66423      1.33720      0.92256      0.88901      0.87018      0.91469      0.93071     57.00000   3560.99990      1.12158
       2256.28200   2256.18683     12.05817      1.34081     97.84361      1.34081      0.95391      0.91943      0.89416      0.92341      0.92799     57.00000   3560.00059      1.12122
       2256.43440   2256.33920     10.95609      1.32928    108.78840      1.32928      0.97399      0.91693      0.89539      0.91890      0.92940     57.00000   3560.99990      1.12149
       2256.58680   2256.49156     11.40229      1.33303    110.82280      1.33303      0.95440      0.91117      0.89483      0.91338      0.92363     57.00000   3560.00059      1.12103
       2256.73920   2256.64392     10.84178      1.32193    103.28700      1.32193      0.97414      0.90666      0.89227      0.91340      0.91774     57.00000   3562.00066      1.12158
       2256.89160   2256.79629     11.60056      1.32123    102.20610      1.32123      0.97388      0.90000      0.86042      0.88280      0.89265     57.00000   3562.99997      1.12183
       2257.04400   2256.94865     12.11526      1.32872    106.23880      1.32872      0.93010      0.87121      0.85473      0.87614      0.88882     57.00000   3560.99990      1.12117
       2257.19640   2257.10102     11.02457      1.32137    107.39480      1.32137      0.89623      0.84831      0.82801      0.86598      0.87807     57.00000   3562.99997      1.12172
       2257.34880   2257.25338     11.76675      1.32136    104.29800      1.32136      0.93228      0.85741      0.82736      0.85308      0.86641     57.00000   3560.99990      1.12102
       2257.50120   2257.40575     11.71405      1.31651    102.28040      1.31651      0.85761      0.80707      0.78775      0.83570      0.87203     57.00000   3562.00066      1.12120
       2257.65360   2257.55811     11.71792      1.31726    105.37000      1.31726      0.89958      0.83388      0.80646      0.82691      0.84148     57.00000   3562.00066      1.12113
       2257.80600   2257.71048     11.14883      1.30651    108.27750      1.30651      0.88824      0.81898      0.79409      0.81986      0.83378     57.00000   3566.00080      1.12233
       2257.95840   2257.86284     12.07082      1.30886    108.74920      1.30886      0.84629      0.79471      0.77452      0.81311      0.84724     57.00000   3566.00080      1.12225
       2258.11080   2258.01521     12.63722      1.30429    111.13980      1.30429      0.91072      0.83448      0.80880      0.82825      0.83981     57.00000   3567.00011      1.12247
       2258.26320   2258.16757     12.85528      1.30318    115.66030      1.30318      0.91873      0.84626      0.82644      0.84076      0.84354     57.00000   3566.00080      1.12209
       2258.41560   2258.31994     12.50587      1.30276    119.61620      1.30276      0.94602      0.86153      0.83370      0.84020      0.84452     57.00000   3566.00080      1.12203
       2258.56800   2258.47230     12.83965      1.30074    114.87720      1.30074      0.94776      0.86601      0.83847      0.84978      0.84661     57.00000   3563.99928      1.12132
