~VERSION INFORMATION 
VERS  .    2.0                                     :CWLS Log ASCII Standard - VERSION 2.0
WRAP  .    NO                                      :One Line per Depth step
PROD  .    Schlumberger Technology Corp.           :LAS Producer
PROG  .    Horizon LASWriter 9.2.113335.3100       :LAS Program name and version
SOURCE.    17.5in Section-Drilling                 :Run&Pass Information
CREA  .    12/03/2019                              :LAS Creation date {MM/DD/YYYY}
#--------------------------------------------------
~WELL INFORMATION 
#MNEM           .UNIT                      DATA            :DESCRIPTION
#----            ------          --------------            -----------------------------
STRT            .m                    259.99440            :START DEPTH
STOP            .m                   2415.08280            :STOP DEPTH
STEP            .m                       0.1524            :STEP
NULL            .                       -999.25            :NULL VALUE
COMP            .                Shell Australia Pty Ltd   :COMPANY
WELL            .                   Bratwurst-1            :WELL NAME
FLD             .                     Bratwurst            :FIELD NAME
RIGN            .                    Ocean Apex            :Rig Name
RIGTYP          .                Semi-Submersible          :Rig Type
SON             .                     19AWA0035            :Service Order Number
SRVC            .                  Schlumberger            :SERVICE COMPANY
DATE            .                    10/02/2019            :LOG DATE(Composite Date for Composite LAP) (MM/DD/YYYY)
CLAB            .                       County:            :County Label
CNTY            .                                          :COUNTY
SLAB            .                        State:            :State/Province Label
STAT            .                Western Australia         :STATE or PROVINCE
PROV            .                Western Australia         :STATE or PROVINCE
CTRY            .                     Australia            :COUNTRY
CONT_REGION     .                   Australasia            :Continent Region
SECT            .                                          :Section
TOWN            .                                          :Township
RANG            .                                          :Range
API             .                                          :API NUMBER
UWI             .                     19AWA0035            :UNIQUE WELL ID
LUL             .                        Zone 1            :Logging Unit Location
LUN             .                       1010979            :Logging Unit Number
LOC             .                  Browse Basin            :FIELD LOCATION
FL1             .                8 576 622.839 m N         :Field Location Line 1
FL2             .                653 417.755 m E           :Field Location Line 2
LATI            .deg             12° 52' 18.374" S         :LATITUDE
LONG            .deg             124° 24' 50.041" E        :LONGITUDE
PDAT            .                         OTHER            :Local Permanent Datum
LMF             .                            DF            :Logging Measured From
APD             .m                        23.85            :Elevation of Depth Reference (LMF) Above Permanent Datum
EPD             .m                        -2.68            :Elevation of Permanent Datum (PDAT) above Mean Sea Level
EKB             .m                      -999.25            :Elevation of Kelly Bushing Above Permanent Datum
EDF             .m                        23.85            :Elevation of Drill Floor Above Permanent Datum
EGL             .m                      -152.26            :Elevation of Ground Level Above Permanent Datum
ECF             .m                      -999.25            :Elevation of Casing Flange above Permanent Datum
#--------------------------------------------------
~CURVE INFORMATION
#MNEM           .UNIT                  API CODE            :DESCRIPTION
#----            ------          --------------            -----------------------------
DEPT            .m                                         :                                                        Depth Index
TVD             .m                                         :(RT)    (DnMWorkflow)           (6in)                   True Vertical Depth
ROP5            .m/h                                       :(RT)    (DRILLING_SURFACE)      (6in)                   Rate of penetration averaged over the last 5 ft (1.5 m)
TAB_GR          .h                                         :        (ARC9)                  (6in)                   Gamma Ray Time after Bit
GR              .gAPI                                      :(RM)    (ARC9)                  (6in)                   Gamma Ray
TAB_RES         .h                                         :        (ARC9)                  (6in)                   Resistivity Time After Bit
P16H            .ohm.m                                     :(RM)    (ARC9)                  (6in)                   Phase Shift Resistivity 16 inch Spacing at 2 MHz, Environmentally Corrected.
P28H            .ohm.m                                     :(RM)    (ARC9)                  (6in)                   Phase Shift Resistivity 28 inch Spacing at 2 MHz, Environmentally Corrected.
P40H            .ohm.m                                     :(RM)    (ARC9)                  (6in)                   Phase Shift Resistivity 40 inch Spacing at 2 MHz, Environmentally Corrected.
P40L            .ohm.m                                     :(RM)    (ARC9)                  (6in)                   Phase Shift Resistivity 40 inch Spacing at 400 KHz, Environmentally Corrected.
A40H            .ohm.m                                     :(RM)    (ARC9)                  (6in)                   Attenuation Resistivity 40 inch Spacing at 2 MHz, Environmentally Corrected.
DHAT            .degC                                      :(RM)    (ARC9)                  (6in)                   Downhole Annulus Temperature
DHAP            .psi                                       :(RM)    (ARC9)                  (6in)                   Downhole Annulus Pressure
ECD             .g/cm3                                     :(RM)    (ARC9)                  (6in)                   Equivalent Circulating Density
#-------------------------------------------------------------
#            DEPT          TVD         ROP5       TAB_GR           GR      TAB_RES         P16H         P28H         P40H         P40L         A40H         DHAT         DHAP          ECD 
#                  (DnMWorkfl)  (DRILLING_)       (ARC9)       (ARC9)       (ARC9)       (ARC9)       (ARC9)       (ARC9)       (ARC9)       (ARC9)       (ARC9)       (ARC9)       (ARC9) 
#                         (RT)         (RT)                      (RM)                      (RM)         (RM)         (RM)         (RM)         (RM)         (RM)         (RM)         (RM) 
#                        (6in)        (6in)        (6in)        (6in)        (6in)        (6in)        (6in)        (6in)        (6in)        (6in)        (6in)        (6in)        (6in) 
~ASCII
# ...
       2396.33760   2396.20707     12.97017      1.39511     86.81595      1.39511      0.91569      0.85730      0.82933      0.84901      0.86126     60.00000   3791.00074      1.12348
       2396.49000   2396.35944     13.53920      1.39860     88.37170      1.39860      0.89366      0.86184      0.84403      0.85510      0.86635     60.00000   3789.00067      1.12281
       2396.64240   2396.51182     13.17850      1.39688     86.24981      1.39688      0.90954      0.85748      0.83206      0.85951      0.87984     60.00000   3789.99998      1.12303
       2396.79480   2396.66419     15.25973      1.41234     82.47031      1.41234      0.91993      0.86796      0.84402      0.86560      0.89055     60.00000   3789.99998      1.12296
       2396.94720   2396.81657     15.10946      1.40734     83.60183      1.40734      0.93801      0.88257      0.85267      0.87408      0.88628     60.00000   3791.00074      1.12322
       2397.09960   2396.96894     14.82306      1.40985     88.63742      1.40985      0.95480      0.88711      0.85860      0.86613      0.87545     60.00000   3789.99998      1.12284
       2397.25200   2397.12132     15.38958      1.40706     90.62144      1.40706      0.90902      0.86454      0.83311      0.86067      0.85904     60.00000   3791.00074      1.12307
       2397.40440   2397.27369     13.56100      1.39386     88.17430      1.39386      0.92019      0.85571      0.82725      0.84820      0.85452     60.00000   3792.99936      1.12359
       2397.55680   2397.42607     14.63546      1.39984     83.67453      1.39984      0.93705      0.87330      0.84799      0.84875      0.85087     60.00000   3792.99936      1.12351
       2397.70920   2397.57844     13.28719      1.39428     80.88290      1.39428      0.95291      0.87566      0.84817      0.85576      0.86393     60.00000   3792.00005      1.12315
       2397.86160   2397.73082     13.82766      1.39817     86.17527      1.39817      0.90040      0.85003      0.82940      0.85355      0.87070     60.00000   3792.99936      1.12340
       2398.01400   2397.88320     13.35817      1.39838     92.37389      1.39838      0.91261      0.85526      0.83460      0.86126      0.87668     60.00000   3792.00005      1.12299
       2398.16640   2398.03557     12.39496      1.39276     91.68516      1.39276      0.95313      0.88832      0.86252      0.87776      0.87987     60.00000   3792.99936      1.12326
       2398.31880   2398.18795     11.98803      1.39733     89.12675      1.39733      0.92536      0.86914      0.84407      0.87521      0.90197     60.00000   3796.99950      1.12435
       2398.47120   2398.34032     11.52319      1.39554     84.45880      1.39554      0.94745      0.90450      0.87730      0.89145      0.90036     60.00000   3796.99950      1.12430
       2398.62360   2398.49270     11.49871      1.38929     78.61443      1.38929      1.04967      0.96544      0.92970      0.90153      0.89459     60.00000   3796.00019      1.12387
       2398.77600   2398.64507     11.52690      1.38956     78.47221      1.38956      0.96131      0.89284      0.86658      0.89003      0.90172     60.00000   3796.99950      1.12411
       2398.92840   2398.79745     12.31516      1.39344     80.25213      1.39344      0.93351      0.88028      0.85094      0.88615      0.90337     60.00000   3796.99950      1.12403
       2399.08080   2398.94983     12.05361      1.39706     80.60406      1.39706      0.91807      0.87043      0.85091      0.89299      0.91127     60.00000   3796.99950      1.12395
       2399.23320   2399.10220     12.75927      1.40136     80.92537      1.40136      0.91820      0.86933      0.84976      0.90840      0.92671     60.00000   3796.99950      1.12387
       2399.38560   2399.25458     12.69698      1.41484     79.62360      1.41484      0.94133      0.89358      0.87181      0.91749      0.93821     60.00000   3796.99950      1.12381
       2399.53800   2399.40696     13.77361      1.41804     81.89268      1.41804      0.95165      0.91175      0.89534      0.94019      0.95507     60.00000   3796.99950      1.12374
       2399.69040   2399.55933     15.21882      1.42254     87.61806      1.42254      0.95584      0.92057      0.89470      0.92971      0.93947     60.00000   3798.00026      1.12396
       2399.84280   2399.71171     13.87323      1.43012     90.64778      1.43012      0.94008      0.88732      0.86705      0.90483      0.92283     60.00000   3798.00026      1.12392
       2399.99520   2399.86409     14.56283      1.42199     90.61357      1.42199      0.92114      0.86997      0.85020      0.88359      0.90162     60.00000   3800.00033      1.12442
       2400.14760   2400.01646     15.05628      1.42858     85.11215      1.42858      0.90483      0.87578      0.82006      0.87418      0.88373     60.00000   3800.99964      1.12462
       2400.30000   2400.16884     14.42421      1.42178     79.94187      1.42178      0.88525      0.84223      0.82675      0.85746      0.86370     59.00000   3800.00033      1.12427
       2400.45240   2400.32122     14.01564      1.59289     81.48862      1.59289      0.83514      0.81165      0.79863      0.82811      0.84091     59.00000   3800.00033      1.12419
       2400.60480   2400.47359     13.45967      1.60109     84.14194      1.60109      0.81610      0.79116      0.77743      0.81459      0.83449     59.00000   3800.99964      1.12442
       2400.75720   2400.62597     11.85336      1.59012     87.32832      1.59012      0.80804      0.78522      0.77191      0.81181      0.83235     59.00000   3802.00040      1.12463
       2400.90960   2400.77835     10.48736      1.33957     88.64355      1.33957      0.81673      0.79197      0.77623      0.81194      0.83147     59.00000   3802.00040      1.12457
       2401.06200   2400.93072     10.82245      1.33776     86.35905      1.33776      0.83571      0.81099      0.79357      0.82691      0.83548     59.00000   3802.99971      1.12479
       2401.21440   2401.08310     10.70734      1.34359     85.30691      1.34359      0.87822      0.84683      0.82736      0.84447      0.85094     60.00000   3804.99978      1.12535
       2401.36680   2401.23548     11.76262      -999.25      -999.25      -999.25      -999.25      -999.25      -999.25      -999.25      -999.25      -999.25   3804.99978      1.12527
       2401.51920   2401.38786     12.25065      -999.25      -999.25      -999.25      -999.25      -999.25      -999.25      -999.25      -999.25      -999.25   3804.99978      1.12518
       2401.67160   2401.54023     12.13801      -999.25      -999.25      -999.25      -999.25      -999.25      -999.25      -999.25      -999.25      -999.25   3806.00054      1.12543
       2401.82400   2401.69261     12.24963      -999.25      -999.25      -999.25      -999.25      -999.25      -999.25      -999.25      -999.25      -999.25   3806.99985      1.12561
       2401.97640   2401.84499     10.79747      -999.25      -999.25      -999.25      -999.25      -999.25      -999.25      -999.25      -999.25      -999.25   3806.99985      1.12557
       2402.12880   2401.99737     10.41634      -999.25      -999.25      -999.25      -999.25      -999.25      -999.25      -999.25      -999.25      -999.25      -999.25      -999.25
       2402.28120   2402.14974     12.09444      -999.25      -999.25      -999.25      -999.25      -999.25      -999.25      -999.25      -999.25      -999.25      -999.25      -999.25
       2402.43360   2402.30212     13.49989      -999.25      -999.25      -999.25      -999.25      -999.25      -999.25      -999.25      -999.25      -999.25      -999.25      -999.25
       2402.58600   2402.45450     12.23109      -999.25      -999.25      -999.25      -999.25      -999.25      -999.25      -999.25      -999.25      -999.25      -999.25      -999.25
       2402.73840   2402.60688     12.29466      -999.25      -999.25      -999.25      -999.25      -999.25      -999.25      -999.25      -999.25      -999.25      -999.25      -999.25
