~VERSION INFORMATION 
VERS  .    2.0                                     :CWLS Log ASCII Standard - VERSION 2.0
WRAP  .    NO                                      :One Line per Depth step
PROD  .    Schlumberger Technology Corp.           :LAS Producer
PROG  .    Horizon LASWriter 9.2.113335.3100       :LAS Program name and version
SOURCE.    17.5in Section-Drilling                 :Run&Pass Information
CREA  .    12/03/2019                              :LAS Creation date {MM/DD/YYYY}
#--------------------------------------------------
~WELL INFORMATION 
#MNEM           .UNIT                      DATA            :DESCRIPTION
#----            ------          --------------            -----------------------------
STRT            .m                    259.99440            :START DEPTH
STOP            .m                   2415.08280            :STOP DEPTH
STEP            .m                       0.1524            :STEP
NULL            .                       -999.25            :NULL VALUE
COMP            .                Shell Australia Pty Ltd   :COMPANY
WELL            .                   Bratwurst-1            :WELL NAME
FLD             .                     Bratwurst            :FIELD NAME
RIGN            .                    Ocean Apex            :Rig Name
RIGTYP          .                Semi-Submersible          :Rig Type
SON             .                     19AWA0035            :Service Order Number
SRVC            .                  Schlumberger            :SERVICE COMPANY
DATE            .                    10/02/2019            :LOG DATE(Composite Date for Composite LAP) (MM/DD/YYYY)
CLAB            .                       County:            :County Label
CNTY            .                                          :COUNTY
SLAB            .                        State:            :State/Province Label
STAT            .                Western Australia         :STATE or PROVINCE
PROV            .                Western Australia         :STATE or PROVINCE
CTRY            .                     Australia            :COUNTRY
CONT_REGION     .                   Australasia            :Continent Region
SECT            .                                          :Section
TOWN            .                                          :Township
RANG            .                                          :Range
API             .                                          :API NUMBER
UWI             .                     19AWA0035            :UNIQUE WELL ID
LUL             .                        Zone 1            :Logging Unit Location
LUN             .                       1010979            :Logging Unit Number
LOC             .                  Browse Basin            :FIELD LOCATION
FL1             .                8 576 622.839 m N         :Field Location Line 1
FL2             .                653 417.755 m E           :Field Location Line 2
LATI            .deg             12° 52' 18.374" S         :LATITUDE
LONG            .deg             124° 24' 50.041" E        :LONGITUDE
PDAT            .                         OTHER            :Local Permanent Datum
LMF             .                            DF            :Logging Measured From
APD             .m                        23.85            :Elevation of Depth Reference (LMF) Above Permanent Datum
EPD             .m                        -2.68            :Elevation of Permanent Datum (PDAT) above Mean Sea Level
EKB             .m                      -999.25            :Elevation of Kelly Bushing Above Permanent Datum
EDF             .m                        23.85            :Elevation of Drill Floor Above Permanent Datum
EGL             .m                      -152.26            :Elevation of Ground Level Above Permanent Datum
ECF             .m                      -999.25            :Elevation of Casing Flange above Permanent Datum
#--------------------------------------------------
~CURVE INFORMATION
#MNEM           .UNIT                  API CODE            :DESCRIPTION
#----            ------          --------------            -----------------------------
DEPT            .m                                         :                                                        Depth Index
TVD             .m                                         :(RT)    (DnMWorkflow)           (6in)                   True Vertical Depth
ROP5            .m/h                                       :(RT)    (DRILLING_SURFACE)      (6in)                   Rate of penetration averaged over the last 5 ft (1.5 m)
TAB_GR          .h                                         :        (ARC9)                  (6in)                   Gamma Ray Time after Bit
GR              .gAPI                                      :(RM)    (ARC9)                  (6in)                   Gamma Ray
TAB_RES         .h                                         :        (ARC9)                  (6in)                   Resistivity Time After Bit
P16H            .ohm.m                                     :(RM)    (ARC9)                  (6in)                   Phase Shift Resistivity 16 inch Spacing at 2 MHz, Environmentally Corrected.
P28H            .ohm.m                                     :(RM)    (ARC9)                  (6in)                   Phase Shift Resistivity 28 inch Spacing at 2 MHz, Environmentally Corrected.
P40H            .ohm.m                                     :(RM)    (ARC9)                  (6in)                   Phase Shift Resistivity 40 inch Spacing at 2 MHz, Environmentally Corrected.
P40L            .ohm.m                                     :(RM)    (ARC9)                  (6in)                   Phase Shift Resistivity 40 inch Spacing at 400 KHz, Environmentally Corrected.
A40H            .ohm.m                                     :(RM)    (ARC9)                  (6in)                   Attenuation Resistivity 40 inch Spacing at 2 MHz, Environmentally Corrected.
DHAT            .degC                                      :(RM)    (ARC9)                  (6in)                   Downhole Annulus Temperature
DHAP            .psi                                       :(RM)    (ARC9)                  (6in)                   Downhole Annulus Pressure
ECD             .g/cm3                                     :(RM)    (ARC9)                  (6in)                   Equivalent Circulating Density
#-------------------------------------------------------------
#            DEPT          TVD         ROP5       TAB_GR           GR      TAB_RES         P16H         P28H         P40H         P40L         A40H         DHAT         DHAP          ECD 
#                  (DnMWorkfl)  (DRILLING_)       (ARC9)       (ARC9)       (ARC9)       (ARC9)       (ARC9)       (ARC9)       (ARC9)       (ARC9)       (ARC9)       (ARC9)       (ARC9) 
#                         (RT)         (RT)                      (RM)                      (RM)         (RM)         (RM)         (RM)         (RM)         (RM)         (RM)         (RM) 
#                        (6in)        (6in)        (6in)        (6in)        (6in)        (6in)        (6in)        (6in)        (6in)        (6in)        (6in)        (6in)        (6in) 
~ASCII
# ...
        541.78200    541.76104     34.29649      0.73554     18.74740      0.73554      0.67131      0.86385      0.95278      0.99450      0.99176     32.00000    796.00003      1.08057
        541.93440    541.91344     31.38295      0.73485     19.20666      0.73485      0.72424      0.89009      0.97443      0.99178      0.99365     32.00000    797.00006      1.08153
        542.08680    542.06583     30.85793      0.73624     18.87078      0.73624      0.71671      0.92386      0.98823      1.00274      0.97540     32.00000    797.00006      1.08120
        542.23920    542.21822     27.03321      0.72791     16.76641      0.72791      0.71532      0.90965      1.00707      1.00605      1.01592     32.00000    797.99995      1.08233
        542.39160    542.37061     26.26611      0.72402     15.71080      0.72402      0.81997      1.02359      1.09143      1.04793      1.03713     32.00000    797.99995      1.08186
        542.54400    542.52300     24.44546      0.72124     17.19482      0.72124      0.94279      1.10993      1.18342      1.07764      1.03318     32.00000    797.99995      1.08176
        542.69640    542.67539     22.56527      0.72110     18.10306      0.72110      1.05695      1.13384      1.17964      1.07011      1.00889     32.00000    798.99999      1.08263
        542.84880    542.82778     21.16472      0.47727     17.63352      0.47727      0.98910      1.01974      1.04055      0.99339      0.96107     32.00000    798.99999      1.08242
        543.00120    542.98018     22.11065      0.47971     18.34297      0.47971      0.83246      0.86210      0.86775      0.86716      0.86414     32.00000    798.99999      1.08205
        543.15360    543.13257     22.21003      0.47680     19.10384      0.47680      0.84184      0.85994      0.86282      0.84074      0.83320     32.00000    800.00002      1.08308
        543.30600    543.28496     23.78598      0.47845     18.69941      0.47845      0.77564      0.80065      0.78721      0.80215      0.80569     32.00000    800.00002      1.08275
        543.45840    543.43735     25.44450      0.47957     17.71920      0.47957      0.78498      0.81361      0.77517      0.80671      0.81420     32.00000    800.00002      1.08236
        543.61080    543.58974     23.91290      0.47332     16.49222      0.47332      0.85088      0.85097      0.83201      0.84779      0.82382     32.00000    800.47879      1.08284
        543.76320    543.74213     27.44443      0.47402     14.95679      0.47402      0.94913      0.93206      0.93020      0.90996      0.89131     32.00000    801.00006      1.08335
        543.91560    543.89452     31.76159      0.47540     13.89432      0.47540      1.02634      0.99812      0.97858      0.95192      0.94045     32.00000    801.00006      1.08303
        544.06800    544.04692     34.39665      0.47179     15.14872      0.47179      0.96314      0.96655      0.95995      0.95562      0.94581     32.00000    801.00006      1.08260
        544.22040    544.19931     43.41469      0.47124     17.19825      0.47124      0.88319      0.91535      0.90162      0.92123      0.92288     32.00000    800.00002      1.08082
        544.37280    544.35170     54.30368      0.47347     17.32849      0.47347      0.85655      0.90762      0.89535      0.92736      0.92444     32.00000    800.54377      1.08134
        544.52520    544.50409     50.54839      0.47457     16.03982      0.47457      0.87957      0.94656      0.93668      0.95316      0.94879     32.00000    801.99995      1.08288
        544.67760    544.65648     53.25425      0.47554     15.13501      0.47554      0.88996      0.97190      0.99043      0.98648      0.97063     32.00000    801.54178      1.08205
        544.83000    544.80887     51.69540      0.47651     15.29952      0.47651      0.99551      1.03576      1.04628      1.06649      1.07005     32.00000    801.00006      1.08107
        544.98240    544.96126     49.57489      0.47485     16.20433      0.47485      1.06749      1.13347      1.18478      1.14670      1.12209     32.00000    801.99995      1.08212
        545.13480    545.11366     60.70312      0.47569     16.92407      0.47569      1.21902      1.27862      1.28988      1.21269      1.16925     32.00000    801.99995      1.08188
        545.28720    545.26605     62.50872      0.47556     18.01395      0.47556      1.19264      1.25962      1.28600      1.18640      1.15138     32.00000    801.99995      1.08140
        545.43960    545.41844     62.86840      0.47651     19.43286      0.47651      1.11424      1.20514      1.23409      1.15749      1.10826     32.00000    802.99998      1.08237
        545.59200    545.57083     72.23364      0.47610     19.45342      0.47610      1.09613      1.16388      1.15119      1.08009      1.05464     32.00000    802.99998      1.08212
        545.74440    545.72322     63.01337      0.47166     18.93932      0.47166      1.01655      1.10913      1.10220      1.03088      1.00558     32.00000    802.99998      1.08187
        545.89680    545.87561     56.55214      0.47026     17.95226      0.47026      0.94972      1.01565      1.00888      0.95304      0.93379     32.00000    802.99998      1.08155
        546.04920    546.02800     53.22100      0.46846     16.77326      0.46846      0.88855      0.93069      0.93260      0.90249      0.89856     32.00000    804.00002      1.08248
        546.20160    546.18040     48.63527      0.46597     17.21881      0.46597      0.77790      0.81824      0.81278      0.84358      0.87336     32.00000    804.48198      1.08285
        546.35400    546.33279     48.56586      0.46763     17.15027      0.46763      0.73307      0.80469      0.81581      0.84203      0.86289     32.00000    805.00005      1.08326
        546.50640    546.48518     49.85706      0.46777     15.62169      0.46777      0.76023      0.82723      0.84254      0.85221      0.87049     32.00000    805.00005      1.08292
        546.65880    546.63757     50.88054      0.47152     16.09465      0.47152      0.79197      0.86298      0.87943      0.90399      0.89577     32.00000    805.00005      1.08252
        546.81120    546.78996     49.15115      0.47276     18.35668      0.47276      0.86697      0.90193      0.89849      0.99108      1.01073     32.00000    805.99995      1.08353
        546.96360    546.94235     48.96991      0.47444     18.76110      0.47444      1.08738      1.13773      1.13670      1.28676      1.29819     32.00000    805.99995      1.08329
        547.11600    547.09475     49.20558      0.47569     17.46558      0.47569      1.63027      1.78082      1.91963      1.87365      1.72485     32.00000    805.99995      1.08297
        547.26840    547.24714     58.26817      0.47750     16.73214      0.47750      2.40211      2.69522      2.99512      2.40086      2.08424     32.00000    806.99998      1.08399
        547.42080    547.39953     62.80452      0.47861     16.45795      0.47861      4.83486      4.82023      5.00914      3.50784      2.93759     32.00000    808.00002      1.08504
        547.57320    547.55192     64.30207      0.47833     16.36884      0.47833      7.12793      6.14558      6.47692      3.92467      3.20248     32.00000    808.00002      1.08478
        547.72560    547.70431     56.45936      0.47165     16.34828      0.47165      8.38253      7.78188      7.59697      4.53263      3.53326     32.00000    809.00005      1.08581
        547.87800    547.85670     47.22678      0.46679     16.97205      0.46679      9.92195      8.57966      7.56536      4.79278      3.79412     32.00000    809.00005      1.08553
        548.03040    548.00910     27.79737      0.44498     18.58974      0.44498      7.89631      7.19890      6.75123      4.25866      3.45720     32.00000    809.99994      1.08633
        548.18280    548.16149     22.27428      0.42888     18.19902      0.42888      6.14670      5.75404      5.28920      3.82902      3.35001     32.00000    810.99998      1.08745
