~VERSION INFORMATION 
VERS  .    2.0                                     :CWLS Log ASCII Standard - VERSION 2.0
WRAP  .    NO                                      :One Line per Depth step
PROD  .    Schlumberger Technology Corp.           :LAS Producer
PROG  .    Horizon LASWriter 9.2.113335.3100       :LAS Program name and version
SOURCE.    17.5in Section-Drilling                 :Run&Pass Information
CREA  .    12/03/2019                              :LAS Creation date {MM/DD/YYYY}
#--------------------------------------------------
~WELL INFORMATION 
#MNEM           .UNIT                      DATA            :DESCRIPTION
#----            ------          --------------            -----------------------------
STRT            .m                    259.99440            :START DEPTH
STOP            .m                   2415.08280            :STOP DEPTH
STEP            .m                       0.1524            :STEP
NULL            .                       -999.25            :NULL VALUE
COMP            .                Shell Australia Pty Ltd   :COMPANY
WELL            .                   Bratwurst-1            :WELL NAME
FLD             .                     Bratwurst            :FIELD NAME
RIGN            .                    Ocean Apex            :Rig Name
RIGTYP          .                Semi-Submersible          :Rig Type
SON             .                     19AWA0035            :Service Order Number
SRVC            .                  Schlumberger            :SERVICE COMPANY
DATE            .                    10/02/2019            :LOG DATE(Composite Date for Composite LAP) (MM/DD/YYYY)
CLAB            .                       County:            :County Label
CNTY            .                                          :COUNTY
SLAB            .                        State:            :State/Province Label
STAT            .                Western Australia         :STATE or PROVINCE
PROV            .                Western Australia         :STATE or PROVINCE
CTRY            .                     Australia            :COUNTRY
CONT_REGION     .                   Australasia            :Continent Region
SECT            .                                          :Section
TOWN            .                                          :Township
RANG            .                                          :Range
API             .                                          :API NUMBER
UWI             .                     19AWA0035            :UNIQUE WELL ID
LUL             .                        Zone 1            :Logging Unit Location
LUN             .                       1010979            :Logging Unit Number
LOC             .                  Browse Basin            :FIELD LOCATION
FL1             .                8 576 622.839 m N         :Field Location Line 1
FL2             .                653 417.755 m E           :Field Location Line 2
LATI            .deg             12° 52' 18.374" S         :LATITUDE
LONG            .deg             124° 24' 50.041" E        :LONGITUDE
PDAT            .                         OTHER            :Local Permanent Datum
LMF             .                            DF            :Logging Measured From
APD             .m                        23.85            :Elevation of Depth Reference (LMF) Above Permanent Datum
EPD             .m                        -2.68            :Elevation of Permanent Datum (PDAT) above Mean Sea Level
EKB             .m                      -999.25            :Elevation of Kelly Bushing Above Permanent Datum
EDF             .m                        23.85            :Elevation of Drill Floor Above Permanent Datum
EGL             .m                      -152.26            :Elevation of Ground Level Above Permanent Datum
ECF             .m                      -999.25            :Elevation of Casing Flange above Permanent Datum
#--------------------------------------------------
~CURVE INFORMATION
#MNEM           .UNIT                  API CODE            :DESCRIPTION
#----            ------          --------------            -----------------------------
DEPT            .m                                         :                                                        Depth Index
TVD             .m                                         :(RT)    (DnMWorkflow)           (6in)                   True Vertical Depth
ROP5            .m/h                                       :(RT)    (DRILLING_SURFACE)      (6in)                   Rate of penetration averaged over the last 5 ft (1.5 m)
TAB_GR          .h                                         :        (ARC9)                  (6in)                   Gamma Ray Time after Bit
GR              .gAPI                                      :(RM)    (ARC9)                  (6in)                   Gamma Ray
TAB_RES         .h                                         :        (ARC9)                  (6in)                   Resistivity Time After Bit
P16H            .ohm.m                                     :(RM)    (ARC9)                  (6in)                   Phase Shift Resistivity 16 inch Spacing at 2 MHz, Environmentally Corrected.
P28H            .ohm.m                                     :(RM)    (ARC9)                  (6in)                   Phase Shift Resistivity 28 inch Spacing at 2 MHz, Environmentally Corrected.
P40H            .ohm.m                                     :(RM)    (ARC9)                  (6in)                   Phase Shift Resistivity 40 inch Spacing at 2 MHz, Environmentally Corrected.
P40L            .ohm.m                                     :(RM)    (ARC9)                  (6in)                   Phase Shift Resistivity 40 inch Spacing at 400 KHz, Environmentally Corrected.
A40H            .ohm.m                                     :(RM)    (ARC9)                  (6in)                   Attenuation Resistivity 40 inch Spacing at 2 MHz, Environmentally Corrected.
DHAT            .degC                                      :(RM)    (ARC9)                  (6in)                   Downhole Annulus Temperature
DHAP            .psi                                       :(RM)    (ARC9)                  (6in)                   Downhole Annulus Pressure
ECD             .g/cm3                                     :(RM)    (ARC9)                  (6in)                   Equivalent Circulating Density
#-------------------------------------------------------------
#            DEPT          TVD         ROP5       TAB_GR           GR      TAB_RES         P16H         P28H         P40H         P40L         A40H         DHAT         DHAP          ECD 
#                  (DnMWorkfl)  (DRILLING_)       (ARC9)       (ARC9)       (ARC9)       (ARC9)       (ARC9)       (ARC9)       (ARC9)       (ARC9)       (ARC9)       (ARC9)       (ARC9) 
#                         (RT)         (RT)                      (RM)                      (RM)         (RM)         (RM)         (RM)         (RM)         (RM)         (RM)         (RM) 
#                        (6in)        (6in)        (6in)        (6in)        (6in)        (6in)        (6in)        (6in)        (6in)        (6in)        (6in)        (6in)        (6in) 
~ASCII
# ...
        830.12280    830.09744     50.10737      0.64499     16.00349      0.64499      1.85028      1.53306      1.40781      1.43081      1.37476     34.00000   1258.99994      1.09791
        830.27520    830.24984     49.36961      0.64498     15.25430      0.64498      2.03523      1.70404      1.54953      1.54382      1.45878     34.00000   1258.99994      1.09762
        830.42760    830.40224     44.34441      0.64151     13.83917      0.64151      2.01239      1.59158      1.51436      1.57325      1.56602     34.00000   1258.99994      1.09738
        830.58000    830.55464     41.33782      0.64152     14.01259      0.64152      1.93224      1.50089      1.46763      1.58721      1.61851     34.00000   1260.00012      1.09814
        830.73240    830.70704     39.32831      0.64193     15.68855      0.64193      1.87890      1.52949      1.47485      1.56067      1.61230     34.00000   1260.00012      1.09798
        830.88480    830.85943     35.28931      0.64069     16.29345      0.64069      1.95398      1.55581      1.43329      1.50365      1.48088     34.00000   1260.00012      1.09766
        831.03720    831.01183     33.40460      0.64346     15.41940      0.64346      1.60430      1.29730      1.21769      1.40322      1.48959     34.00000   1261.00001      1.09828
        831.18960    831.16423     30.93797      0.64527     13.56123      0.64527      1.72714      1.46716      1.43640      1.48021      1.48349     34.00000   1261.00001      1.09817
        831.34200    831.31663     32.68250      0.64902     11.67253      0.64902      2.02712      1.64960      1.58422      1.49885      1.43758     34.00000   1261.00001      1.09787
        831.49440    831.46903     36.16517      0.65638     12.21130      0.65638      1.74861      1.37465      1.28631      1.35094      1.36927     34.00000   1262.00004      1.09853
        831.64680    831.62142     32.30704      0.65652     15.02538      0.65652      1.47028      1.13214      1.05222      1.22397      1.31203     34.00000   1262.00004      1.09838
        831.79920    831.77382     31.93378      0.65819     15.76208      0.65819      1.41163      1.14964      1.08449      1.25535      1.33582     34.00000   1262.00004      1.09828
        831.95160    831.92622     32.13603      0.65722     14.35230      0.65722      1.68731      1.42649      1.35316      1.37737      1.38683     34.00000   1262.00004      1.09798
        832.10400    832.07862     31.75497      0.66278     14.24215      0.66278      1.89883      1.52405      1.45245      1.43324      1.44050     34.00000   1262.00004      1.09772
        832.25640    832.23102     29.37708      0.66777     15.13166      0.66777      1.92604      1.45925      1.39941      1.44637      1.48799     34.00000   1262.00004      1.09765
        832.40880    832.38341     30.40081      0.68151     15.17002      0.68151      1.76313      1.38669      1.32485      1.41360      1.50268     34.00000   1262.99993      1.09816
        832.56120    832.53581     32.12995      0.68943     14.44580      0.68943      1.83423      1.49472      1.40896      1.43413      1.46125     34.00000   1262.00004      1.09712
        832.71360    832.68821     33.88016      0.69582     15.05035      0.69582      1.86995      1.51147      1.41829      1.41167      1.39500     34.00000   1262.00004      1.09695
        832.86600    832.84061     36.13961      0.70304     14.85369      0.70304      1.43975      1.17434      1.11414      1.32992      1.46655     34.00000   1262.00004      1.09680
        833.01840    832.99301     35.59023      0.71151     13.00881      0.71151      2.10211      1.76706      1.71429      1.68796      1.64205     34.00000   1262.00004      1.09657
        833.17080    833.14540     40.51404      0.72096     13.69245      0.72096      2.42758      1.97092      1.89746      1.85493      1.85213     34.00000   1262.00004      1.09627
        833.32320    833.29780     40.66711      0.72486     15.79399      0.72486      2.81396      2.09552      2.01831      1.99066      1.96792     34.00000   1261.00001      1.09529
        833.47560    833.45020     42.48001      0.72722     16.77844      0.72722      2.96827      2.19231      1.99729      1.99059      1.95832     34.00000   1262.00004      1.09590
        833.62800    833.60260     41.72520      0.72998     18.15691      0.72998      2.77893      2.11561      1.94285      1.92294      1.89470     34.00000   1262.00004      1.09568
        833.78040    833.75500     39.35697      1.25151     20.96834      1.25151      2.98049      2.21616      2.06374      1.96456      1.86988     35.00000   1262.00004      1.09549
        833.93280    833.90739     39.02499      1.24942     24.18212      1.24942      3.26761      2.35848      2.20462      2.00094      1.81959     35.00000   1262.00004      1.09531
        834.08520    834.05979     35.28235      1.24900     26.24239      1.24900      2.88413      2.05564      1.84643      1.81069      1.77635     35.00000   1262.00004      1.09505
        834.23760    834.21219     29.51790      1.24082     25.51402      1.24082      2.37313      1.69298      1.52925      1.65661      1.67170     35.00000   1262.99993      1.09574
        834.39000    834.36459     25.67876      1.23304     22.80861      1.23304      1.98296      1.53865      1.42474      1.51387      1.56631     35.00000   1247.99999      1.08249
        834.54240    834.51698     20.80556      1.21720     20.51943      1.21720      1.91434      1.55146      1.45471      1.48884      1.50885     35.00000   1247.99999      1.08239
        834.69480    834.66938     13.64075      1.17992     17.50186      1.17992      2.68512      1.48652      1.40507      1.38698      1.37822     35.00000   1248.61886      1.08269
        834.84720    834.82178     13.03883      1.16693     13.27728      1.16693      2.32338      1.25744      1.18586      1.22511      1.28899     35.00000   1249.00002      1.08272
        834.99960    834.97418     13.01901      1.16624     10.84241      1.16624      2.15846      1.16625      1.09884      1.16045      1.26262     35.00000   1249.00002      1.08261
        835.15200    835.12657     13.10490      1.16319     11.44593      1.16319      1.69954      0.98922      0.94699      1.07001      1.18385     35.00000   1249.00002      1.08240
        835.30440    835.27897     12.84208      1.15207     13.11079      1.15207      1.69639      1.01967      0.97874      1.02373      1.05464     35.00000   1249.31374      1.08248
        835.45680    835.43137     12.76003      1.15068     14.31781      1.15068      1.58913      0.91987      0.84861      0.93247      0.93938     35.00000   1249.64921      1.08257
        835.60920    835.58377     12.79800      1.14692     14.96295      1.14692      1.28661      0.75198      0.69500      0.94707      1.01558     35.00000   1249.99991      1.08266
        835.76160    835.73617     13.16176      1.14178     14.37331      1.14178      2.48613      1.39429      1.39032      1.41625      1.33976     35.00000   1251.00009      1.08324
        835.91400    835.88856     13.77615      1.14206     12.90962      1.14206      3.45453      1.76145      1.74752      1.71035      1.70841     35.00000   1251.00009      1.08313
        836.06640    836.04096     15.74116      1.13929     12.54196      1.13929      4.07546      1.85222      1.81704      1.89523      1.95704     35.00000   1251.00009      1.08295
        836.21880    836.19336     26.10564      1.13860     13.88772      1.13860      5.42587      2.28149      2.26473      2.19565      2.16807     35.00000   1251.57415      1.08322
        836.37120    836.34576     28.15341      1.13693     15.99655      1.13693      6.34343      2.72878      2.60496      2.33068      2.22301     35.00000   1253.00002      1.08419
        836.52360    836.49815     25.60077      1.13137     18.02907      1.13137      6.43240      2.80967      2.62706      2.31091      2.19893     35.00000   1253.99991      1.08489
