~VERSION INFORMATION 
VERS  .    2.0                                     :CWLS Log ASCII Standard - VERSION 2.0
WRAP  .    NO                                      :One Line per Depth step
PROD  .    Schlumberger Technology Corp.           :LAS Producer
PROG  .    Horizon LASWriter 9.2.113335.3100       :LAS Program name and version
SOURCE.    17.5in Section-Drilling                 :Run&Pass Information
CREA  .    12/03/2019                              :LAS Creation date {MM/DD/YYYY}
#--------------------------------------------------
~WELL INFORMATION 
#MNEM           .UNIT                      DATA            :DESCRIPTION
#----            ------          --------------            -----------------------------
STRT            .m                    259.99440            :START DEPTH
STOP            .m                   2415.08280            :STOP DEPTH
STEP            .m                       0.1524            :STEP
NULL            .                       -999.25            :NULL VALUE
COMP            .                Shell Australia Pty Ltd   :COMPANY
WELL            .                   Bratwurst-1            :WELL NAME
FLD             .                     Bratwurst            :FIELD NAME
RIGN            .                    Ocean Apex            :Rig Name
RIGTYP          .                Semi-Submersible          :Rig Type
SON             .                     19AWA0035            :Service Order Number
SRVC            .                  Schlumberger            :SERVICE COMPANY
DATE            .                    10/02/2019            :LOG DATE(Composite Date for Composite LAP) (MM/DD/YYYY)
CLAB            .                       County:            :County Label
CNTY            .                                          :COUNTY
SLAB            .                        State:            :State/Province Label
STAT            .                Western Australia         :STATE or PROVINCE
PROV            .                Western Australia         :STATE or PROVINCE
CTRY            .                     Australia            :COUNTRY
CONT_REGION     .                   Australasia            :Continent Region
SECT            .                                          :Section
TOWN            .                                          :Township
RANG            .                                          :Range
API             .                                          :API NUMBER
UWI             .                     19AWA0035            :UNIQUE WELL ID
LUL             .                        Zone 1            :Logging Unit Location
LUN             .                       1010979            :Logging Unit Number
LOC             .                  Browse Basin            :FIELD LOCATION
FL1             .                8 576 622.839 m N         :Field Location Line 1
FL2             .                653 417.755 m E           :Field Location Line 2
LATI            .deg             12° 52' 18.374" S         :LATITUDE
LONG            .deg             124° 24' 50.041" E        :LONGITUDE
PDAT            .                         OTHER            :Local Permanent Datum
LMF             .                            DF            :Logging Measured From
APD             .m                        23.85            :Elevation of Depth Reference (LMF) Above Permanent Datum
EPD             .m                        -2.68            :Elevation of Permanent Datum (PDAT) above Mean Sea Level
EKB             .m                      -999.25            :Elevation of Kelly Bushing Above Permanent Datum
EDF             .m                        23.85            :Elevation of Drill Floor Above Permanent Datum
EGL             .m                      -152.26            :Elevation of Ground Level Above Permanent Datum
ECF             .m                      -999.25            :Elevation of Casing Flange above Permanent Datum
#--------------------------------------------------
~CURVE INFORMATION
#MNEM           .UNIT                  API CODE            :DESCRIPTION
#----            ------          --------------            -----------------------------
DEPT            .m                                         :                                                        Depth Index
TVD             .m                                         :(RT)    (DnMWorkflow)           (6in)                   True Vertical Depth
ROP5            .m/h                                       :(RT)    (DRILLING_SURFACE)      (6in)                   Rate of penetration averaged over the last 5 ft (1.5 m)
TAB_GR          .h                                         :        (ARC9)                  (6in)                   Gamma Ray Time after Bit
GR              .gAPI                                      :(RM)    (ARC9)                  (6in)                   Gamma Ray
TAB_RES         .h                                         :        (ARC9)                  (6in)                   Resistivity Time After Bit
P16H            .ohm.m                                     :(RM)    (ARC9)                  (6in)                   Phase Shift Resistivity 16 inch Spacing at 2 MHz, Environmentally Corrected.
P28H            .ohm.m                                     :(RM)    (ARC9)                  (6in)                   Phase Shift Resistivity 28 inch Spacing at 2 MHz, Environmentally Corrected.
P40H            .ohm.m                                     :(RM)    (ARC9)                  (6in)                   Phase Shift Resistivity 40 inch Spacing at 2 MHz, Environmentally Corrected.
P40L            .ohm.m                                     :(RM)    (ARC9)                  (6in)                   Phase Shift Resistivity 40 inch Spacing at 400 KHz, Environmentally Corrected.
A40H            .ohm.m                                     :(RM)    (ARC9)                  (6in)                   Attenuation Resistivity 40 inch Spacing at 2 MHz, Environmentally Corrected.
DHAT            .degC                                      :(RM)    (ARC9)                  (6in)                   Downhole Annulus Temperature
DHAP            .psi                                       :(RM)    (ARC9)                  (6in)                   Downhole Annulus Pressure
ECD             .g/cm3                                     :(RM)    (ARC9)                  (6in)                   Equivalent Circulating Density
#-------------------------------------------------------------
#            DEPT          TVD         ROP5       TAB_GR           GR      TAB_RES         P16H         P28H         P40H         P40L         A40H         DHAT         DHAP          ECD 
#                  (DnMWorkfl)  (DRILLING_)       (ARC9)       (ARC9)       (ARC9)       (ARC9)       (ARC9)       (ARC9)       (ARC9)       (ARC9)       (ARC9)       (ARC9)       (ARC9) 
#                         (RT)         (RT)                      (RM)                      (RM)         (RM)         (RM)         (RM)         (RM)         (RM)         (RM)         (RM) 
#                        (6in)        (6in)        (6in)        (6in)        (6in)        (6in)        (6in)        (6in)        (6in)        (6in)        (6in)        (6in)        (6in) 
~ASCII
# ...
       1256.08080   1256.04766     38.18269      0.33110     46.50190      0.33110      0.38454      0.32030      0.30004      0.29267      0.28280     37.00000   1973.99987      1.12635
       1256.23320   1256.20006     38.77081      0.33247     47.09160      0.33247      0.37614      0.31190      0.28363      0.28747      0.28172     37.00000   1973.99987      1.12619
       1256.38560   1256.35246     42.18684      0.33488     45.13296      0.33488      0.37934      0.31457      0.28881      0.28486      0.26878     37.00000   1971.99980      1.12486
       1256.53800   1256.50486     48.02837      0.33653     42.58462      0.33653      0.38733      0.32301      0.28991      0.28611      0.27275     37.00000   1973.99987      1.12590
       1256.69040   1256.65726     47.68638      0.33694     42.83735      0.33694      0.40379      0.33055      0.29985      0.28703      0.26964     37.00000   1973.99987      1.12573
       1256.84280   1256.80966     49.72548      0.34362     44.88023      0.34362      0.41026      0.33095      0.30034      0.28987      0.27365     37.00000   1973.99987      1.12563
       1256.99520   1256.96206     51.43656      0.34861     43.59553      0.34861      0.41301      0.33407      0.30150      0.29325      0.27708     37.00000   1973.99987      1.12546
       1257.14760   1257.11446     75.87900      0.37069     39.79760      0.37069      0.41013      0.33085      0.29238      0.29745      0.28066     37.00000   1977.00070      1.12701
       1257.30000   1257.26686     79.71542      0.36735     36.92633      0.36735      0.38966      0.31804      0.28426      0.29324      0.27877     37.00000   1977.00070      1.12693
       1257.45240   1257.41926     56.21240      0.58082     35.01683      0.58082      0.40150      0.32546      0.29115      0.29046      0.27536     37.00000   1978.99932      1.12786
       1257.60480   1257.57166     51.16853      0.57971     34.09016      0.57971      0.40677      0.32541      0.28990      0.28271      0.26012     37.00000   1978.00001      1.12716
       1257.75720   1257.72406     48.13605      0.57715     35.53632      0.57715      0.40388      0.32079      0.29386      0.28247      0.27002     37.00000   1975.99994      1.12591
       1257.90960   1257.87646     44.51367      0.57818     36.84910      0.57818      0.40207      0.32334      0.29147      0.28257      0.26697     37.00000   1975.99994      1.12583
       1258.06200   1258.02886     41.59560      0.57790     34.79218      0.57790      0.42792      0.34239      0.30456      0.28676      0.26525     37.00000   1971.00049      1.12279
       1258.21440   1258.18126     41.17630      0.57903     32.81248      0.57903      0.44310      0.35531      0.31493      0.28820      0.26514     37.00000   1969.00042      1.12157
       1258.36680   1258.33366     37.72074      0.57597     34.83430      0.57597      0.43513      0.34489      0.30655      0.28730      0.26463     37.00000   1969.00042      1.12140
       1258.51920   1258.48606     36.18345      0.57472     38.28825      0.57472      0.40456      0.32220      0.28605      0.27802      0.25608     37.00000   1969.00042      1.12119
       1258.67160   1258.63846     37.94407      0.57653     39.34128      0.57653      0.39024      0.31348      0.28023      0.27601      0.25932     37.00000   1967.99966      1.12050
       1258.82400   1258.79086     41.83336      0.57693     37.95830      0.57693      0.38946      0.31175      0.27964      0.27717      0.26053     37.00000   1969.00042      1.12097
       1258.97640   1258.94326     50.58498      0.57611     37.16502      0.57611      0.39353      0.31954      0.28384      0.27754      0.25844     37.00000   1971.99980      1.12250
       1259.12880   1259.09566     46.58086      0.57401     39.74846      0.57401      0.39427      0.31906      0.28511      0.27607      0.25670     37.00000   1970.85835      1.12176
       1259.28120   1259.24806     42.25040      0.57013     42.73205      0.57013      0.44103      0.35575      0.31457      0.27912      0.25026     37.00000   1973.99987      1.12340
       1259.43360   1259.40046     40.27485      0.56693     41.08230      0.56693      0.44834      0.34667      0.30352      0.27794      0.25059     37.00000   1969.99973      1.12097
       1259.58600   1259.55286     38.72881      0.56540     36.29451      0.56540      0.43626      0.33182      0.28778      0.27637      0.24800     37.00000   1969.99973      1.12086
       1259.73840   1259.70526     36.66474      0.56416     35.15723      0.56416      0.42044      0.32423      0.28304      0.27153      0.24327     37.00000   1971.00049      1.12126
       1259.89080   1259.85766     38.37268      0.56541     38.92709      0.56541      0.42030      0.32886      0.28073      0.27357      0.25069     37.00000   1971.99980      1.12168
       1260.04320   1260.01006     39.94799      0.56597     41.85452      0.56597      0.42473      0.33040      0.29214      0.27328      0.24988     37.00000   1971.00194      1.12101
       1260.19560   1260.16246     39.79913      0.56624     40.75937      0.56624      0.42436      0.33017      0.28836      0.27318      0.24182     37.00000   1969.99973      1.12034
       1260.34800   1260.31485     38.82169      0.56652     38.63926      0.56652      0.43614      0.33644      0.29719      0.27918      0.24831     37.00000   1969.99973      1.12012
       1260.50040   1260.46725     38.37296      0.56541     39.06749      0.56541      0.44627      0.34431      0.29704      0.28036      0.25121     37.00000   1975.00063      1.12287
       1260.65280   1260.61965     41.25451      0.56555     40.47856      0.56555      0.43532      0.33683      0.29535      0.27763      0.25449     37.00000   1971.99980      1.12104
       1260.80520   1260.77205     46.36856      0.56513     41.52457      0.56513      0.41511      0.32478      0.28197      0.27477      0.25005     37.00000   1975.99994      1.12318
       1260.95760   1260.92445     48.07076      0.56388     41.89664      0.56388      0.41698      0.33218      0.30334      0.27450      0.25559     37.00000   1977.00070      1.12360
       1261.11000   1261.07685     50.00151      0.56290     41.16654      0.56290      0.39868      0.31732      0.28244      0.27440      0.25443     37.00000   1977.00070      1.12342
       1261.26240   1261.22925     53.55481      0.56208     41.36311      0.56208      0.40017      0.32058      0.29351      0.27762      0.25544     37.00000   1973.99987      1.12167
       1261.41480   1261.38165     51.32634      0.56193     42.87947      0.56193      0.41158      0.33318      0.29696      0.28415      0.26346     37.00000   1978.00001      1.12372
       1261.56720   1261.53405     49.27332      0.56110     43.44811      0.56110      0.44141      0.35280      0.31657      0.30208      0.27664     37.00000   1978.00001      1.12361
       1261.71960   1261.68645     46.69947      0.55957     42.43018      0.55957      0.43750      0.35161      0.31834      0.32695      0.31828     37.00000   1975.00063      1.12171
       1261.87200   1261.83885     46.80209      0.56027     42.38103      0.56027      0.43678      0.36363      0.33074      0.35800      0.35808     37.00000   1976.84116      1.12267
       1262.02440   1261.99125     47.11930      0.56137     44.30457      0.56137      0.45226      0.39577      0.36468      0.38239      0.38362     37.00000   1978.99932      1.12380
       1262.17680   1262.14365     48.68853      0.56151     46.16493      0.56151      0.45813      0.41718      0.39110      0.40533      0.39305     37.00000   1980.99939      1.12481
       1262.32920   1262.29605     49.36973      0.56166     46.01751      0.56166      0.46670      0.43354      0.40740      0.40665      0.40365     37.00000   1980.00008      1.12410
       1262.48160   1262.44845     45.97055      0.56000     44.18523      0.56000      0.44347      0.41052      0.38940      0.39288      0.38783     37.00000   1977.00070      1.12226
