~VERSION INFORMATION 
VERS  .    2.0                                     :CWLS Log ASCII Standard - VERSION 2.0
WRAP  .    NO                                      :One Line per Depth step
PROD  .    Schlumberger Technology Corp.           :LAS Producer
PROG  .    Horizon LASWriter 9.2.113335.3100       :LAS Program name and version
SOURCE.    17.5in Section-Drilling                 :Run&Pass Information
CREA  .    12/03/2019                              :LAS Creation date {MM/DD/YYYY}
#--------------------------------------------------
~WELL INFORMATION 
#MNEM           .UNIT                      DATA            :DESCRIPTION
#----            ------          --------------            -----------------------------
STRT            .m                    259.99440            :START DEPTH
STOP            .m                   2415.08280            :STOP DEPTH
STEP            .m                       0.1524            :STEP
NULL            .                       -999.25            :NULL VALUE
COMP            .                Shell Australia Pty Ltd   :COMPANY
WELL            .                   Bratwurst-1            :WELL NAME
FLD             .                     Bratwurst            :FIELD NAME
RIGN            .                    Ocean Apex            :Rig Name
RIGTYP          .                Semi-Submersible          :Rig Type
SON             .                     19AWA0035            :Service Order Number
SRVC            .                  Schlumberger            :SERVICE COMPANY
DATE            .                    10/02/2019            :LOG DATE(Composite Date for Composite LAP) (MM/DD/YYYY)
CLAB            .                       County:            :County Label
CNTY            .                                          :COUNTY
SLAB            .                        State:            :State/Province Label
STAT            .                Western Australia         :STATE or PROVINCE
PROV            .                Western Australia         :STATE or PROVINCE
CTRY            .                     Australia            :COUNTRY
CONT_REGION     .                   Australasia            :Continent Region
SECT            .                                          :Section
TOWN            .                                          :Township
RANG            .                                          :Range
API             .                                          :API NUMBER
UWI             .                     19AWA0035            :UNIQUE WELL ID
LUL             .                        Zone 1            :Logging Unit Location
LUN             .                       1010979            :Logging Unit Number
LOC             .                  Browse Basin            :FIELD LOCATION
FL1             .                8 576 622.839 m N         :Field Location Line 1
FL2             .                653 417.755 m E           :Field Location Line 2
LATI            .deg             12° 52' 18.374" S         :LATITUDE
LONG            .deg             124° 24' 50.041" E        :LONGITUDE
PDAT            .                         OTHER            :Local Permanent Datum
LMF             .                            DF            :Logging Measured From
APD             .m                        23.85            :Elevation of Depth Reference (LMF) Above Permanent Datum
EPD             .m                        -2.68            :Elevation of Permanent Datum (PDAT) above Mean Sea Level
EKB             .m                      -999.25            :Elevation of Kelly Bushing Above Permanent Datum
EDF             .m                        23.85            :Elevation of Drill Floor Above Permanent Datum
EGL             .m                      -152.26            :Elevation of Ground Level Above Permanent Datum
ECF             .m                      -999.25            :Elevation of Casing Flange above Permanent Datum
#--------------------------------------------------
~CURVE INFORMATION
#MNEM           .UNIT                  API CODE            :DESCRIPTION
#----            ------          --------------            -----------------------------
DEPT            .m                                         :                                                        Depth Index
TVD             .m                                         :(RT)    (DnMWorkflow)           (6in)                   True Vertical Depth
ROP5            .m/h                                       :(RT)    (DRILLING_SURFACE)      (6in)                   Rate of penetration averaged over the last 5 ft (1.5 m)
TAB_GR          .h                                         :        (ARC9)                  (6in)                   Gamma Ray Time after Bit
GR              .gAPI                                      :(RM)    (ARC9)                  (6in)                   Gamma Ray
TAB_RES         .h                                         :        (ARC9)                  (6in)                   Resistivity Time After Bit
P16H            .ohm.m                                     :(RM)    (ARC9)                  (6in)                   Phase Shift Resistivity 16 inch Spacing at 2 MHz, Environmentally Corrected.
P28H            .ohm.m                                     :(RM)    (ARC9)                  (6in)                   Phase Shift Resistivity 28 inch Spacing at 2 MHz, Environmentally Corrected.
P40H            .ohm.m                                     :(RM)    (ARC9)                  (6in)                   Phase Shift Resistivity 40 inch Spacing at 2 MHz, Environmentally Corrected.
P40L            .ohm.m                                     :(RM)    (ARC9)                  (6in)                   Phase Shift Resistivity 40 inch Spacing at 400 KHz, Environmentally Corrected.
A40H            .ohm.m                                     :(RM)    (ARC9)                  (6in)                   Attenuation Resistivity 40 inch Spacing at 2 MHz, Environmentally Corrected.
DHAT            .degC                                      :(RM)    (ARC9)                  (6in)                   Downhole Annulus Temperature
DHAP            .psi                                       :(RM)    (ARC9)                  (6in)                   Downhole Annulus Pressure
ECD             .g/cm3                                     :(RM)    (ARC9)                  (6in)                   Equivalent Circulating Density
#-------------------------------------------------------------
#            DEPT          TVD         ROP5       TAB_GR           GR      TAB_RES         P16H         P28H         P40H         P40L         A40H         DHAT         DHAP          ECD 
#                  (DnMWorkfl)  (DRILLING_)       (ARC9)       (ARC9)       (ARC9)       (ARC9)       (ARC9)       (ARC9)       (ARC9)       (ARC9)       (ARC9)       (ARC9)       (ARC9) 
#                         (RT)         (RT)                      (RM)                      (RM)         (RM)         (RM)         (RM)         (RM)         (RM)         (RM)         (RM) 
#                        (6in)        (6in)        (6in)        (6in)        (6in)        (6in)        (6in)        (6in)        (6in)        (6in)        (6in)        (6in)        (6in) 
~ASCII
# ...
       1826.20920   1826.15720     16.17387      1.44983     85.28189      1.44983      1.75892      1.66924      1.66463      1.64377      1.61893     48.00000   2896.00042      1.12973
       1826.36160   1826.30959     27.22933      1.45345     84.80254      1.45345      1.74089      1.61998      1.60195      1.63301      1.63844     49.00000   2896.00042      1.12963
       1826.51400   1826.46198     25.48439      1.45741     85.32324      1.45741      1.67535      1.56712      1.53802      1.62965      1.63924     49.00000   2894.99966      1.12918
       1826.66640   1826.61437     25.14221      1.45956     86.92213      1.45956      1.64505      1.53739      1.50165      1.61467      1.63130     49.00000   2896.00042      1.12938
       1826.81880   1826.76676     28.19397      1.45178     88.87328      1.45178      1.51805      1.46205      1.41965      1.61182      1.66517     49.00000   2896.00042      1.12933
       1826.97120   1826.91915     27.68438      1.46776     85.52132      1.46776      1.64171      1.60782      1.59478      1.73708      1.75367     49.00000   2896.99973      1.12963
       1827.12360   1827.07154     29.88515      1.48359     79.86802      1.48359      1.72846      1.69884      1.68883      1.81577      1.79275     49.00000   2896.99973      1.12957
       1827.27600   1827.22393     30.77645      1.48205     76.44460      1.48205      2.05159      1.96748      1.97947      1.98650      1.93301     49.00000   2898.00049      1.12983
       1827.42840   1827.37632     32.04168      1.50400     74.48273      1.50400      2.39503      2.18720      2.16022      2.12282      2.01857     49.00000   2897.46240      1.12952
       1827.58080   1827.52871     31.06145      1.51109     74.50571      1.51109      2.46320      2.21350      2.13712      2.10533      2.04037     49.00000   2896.99973      1.12923
       1827.73320   1827.68110     34.59862      1.51858     76.20109      1.51858      2.34474      2.13886      2.03480      2.06053      2.05060     49.00000   2896.99973      1.12917
       1827.88560   1827.83349     32.08263      1.51775     76.69449      1.51775      2.28785      2.13720      2.04189      2.04578      1.99207     49.00000   2896.99973      1.12903
       1828.03800   1827.98588     32.20637      1.52455     74.96873      1.52455      2.30884      2.16750      2.07396      2.04433      1.93555     49.00000   2896.99973      1.12897
       1828.19040   1828.13827     31.85359      1.52983     74.50525      1.52983      2.14848      1.99317      1.90425      1.93054      1.86943     49.00000   2898.00049      1.12925
       1828.34280   1828.29066     30.85961      1.53691     76.89343      1.53691      1.89629      1.75930      1.68289      1.80819      1.83351     49.00000   2896.99973      1.12875
       1828.49520   1828.44305     33.89405      1.53865     79.55283      1.53865      1.73466      1.63109      1.57646      1.75441      1.80741     49.00000   2898.00049      1.12903
       1828.64760   1828.59544     33.26123      1.54692     83.21283      1.54692      1.74326      1.66034      1.60658      1.74465      1.73949     49.00000   2896.99973      1.12860
       1828.80000   1828.74783     31.94291      1.54756     87.64041      1.54756      1.79188      1.70464      1.63178      1.71658      1.70743     49.00000   2898.99980      1.12922
       1828.95240   1828.90022     26.41011      1.54400     89.17880      1.54400      1.76439      1.65583      1.59485      1.71459      1.71305     49.00000   2898.99980      1.12919
       1829.10480   1829.05261     27.75805      1.54404     88.82504      1.54404      1.80644      1.66676      1.62767      1.73916      1.73493     49.00000   2898.00049      1.12866
       1829.25720   1829.20500     26.18950      1.57318     88.26756      1.57318      1.84832      1.70536      1.65085      1.73481      1.74478     49.00000   2898.00049      1.12854
       1829.40960   1829.35739     28.11601      1.57942     91.37437      1.57942      1.80833      1.67157      1.61330      1.72882      1.76546     49.00000   2898.00049      1.12849
       1829.56200   1829.50978     28.48399      1.58095     98.97845      1.58095      1.83283      1.69773      1.62722      1.74287      1.75067     49.00000   2898.00049      1.12839
       1829.71440   1829.66217     28.86255      1.59219    100.15990      1.59219      1.92050      1.75502      1.69036      1.75354      1.74273     49.00000   2898.00049      1.12827
       1829.86680   1829.81456     32.85873      1.59275     96.82434      1.59275      1.90258      1.77606      1.70021      1.75986      1.73894     49.00000   2898.99980      1.12857
       1830.01920   1829.96695     28.76105      1.59761     96.08463      1.59761      1.83318      1.70902      1.65756      1.73474      1.74591     49.00000   2900.00056      1.12885
       1830.17160   1830.11934     28.37942      1.60844     98.74331      1.60844      1.75831      1.63317      1.59315      1.70922      1.77076     49.00000   2900.00056      1.12879
       1830.32400   1830.27173     28.30475      1.61136    103.86770      1.61136      1.86188      1.71754      1.67122      1.73538      1.71689     49.00000   2900.00056      1.12872
       1830.47640   1830.42412     33.58076      1.61872    105.81030      1.61872      1.79333      1.66612      1.60552      1.69463      1.70226     49.00000   2900.99987      1.12903
       1830.62880   1830.57651     35.85590      1.62626    107.77430      1.62626      1.71493      1.56320      1.51128      1.63702      1.66650     49.00000   2900.00056      1.12851
       1830.78120   1830.72890     35.71643      1.63372    110.79890      1.63372      1.61656      1.49814      1.45944      1.62246      1.65134     49.00000   2900.99987      1.12877
       1830.93360   1830.88129     32.15387      1.62997    111.47220      1.62997      1.57774      1.48303      1.44536      1.58815      1.64212     49.00000   2900.00056      1.12828
       1831.08600   1831.03368     31.26044      1.62997    108.70630      1.62997      1.59545      1.50295      1.46043      1.59397      1.62665     49.00000   2900.99987      1.12858
       1831.23840   1831.18607     30.71267      1.62674    103.56040      1.62674      1.67569      1.54412      1.50758      1.62432      1.64224     49.00000   2902.00063      1.12892
       1831.39080   1831.33846     32.99339      1.63254    100.01550      1.63254      1.74757      1.63226      1.60340      1.68033      1.66651     49.00000   2902.00063      1.12882
       1831.54320   1831.49085     33.20338      1.62900     99.45802      1.62900      1.98909      1.76442      1.71861      1.69245      1.62712     49.00000   2902.99994      1.12914
       1831.69560   1831.64324     34.43753      1.62914    101.91660      1.62914      1.71630      1.56109      1.51490      1.58092      1.58881     49.00000   2902.99994      1.12897
       1831.84800   1831.79563     34.64103      1.63151    103.29960      1.63151      1.58252      1.46180      1.42852      1.52676      1.56775     49.00000   2903.87742      1.12925
       1832.00040   1831.94801     36.30753      1.62985    102.93860      1.62985      1.42449      1.34845      1.31319      1.44619      1.48629     49.00000   2902.00063      1.12842
       1832.15280   1832.10040     33.08011      1.63193    105.11490      1.63193      1.30671      1.26512      1.23662      1.36472      1.44814     49.00000   2905.00001      1.12950
       1832.30520   1832.25279     26.82572      1.61955    107.54840      1.61955      1.28897      1.25357      1.22522      1.35248      1.43825     49.00000   2907.00008      1.13014
       1832.45760   1832.40518     30.83064      1.62220    106.99100      1.62220      1.24612      1.22537      1.21247      1.33535      1.41244     49.00000   2905.00001      1.12931
       1832.61000   1832.55757     31.19577      1.62484    107.29120      1.62484      1.22237      1.21455      1.22455      1.33298      1.41279     49.00000   2905.00001      1.12926
