~VERSION INFORMATION 
VERS  .    2.0                                     :CWLS Log ASCII Standard - VERSION 2.0
WRAP  .    NO                                      :One Line per Depth step
PROD  .    Schlumberger Technology Corp.           :LAS Producer
PROG  .    Horizon LASWriter 9.2.113335.3100       :LAS Program name and version
SOURCE.    17.5in Section-Drilling                 :Run&Pass Information
CREA  .    12/03/2019                              :LAS Creation date {MM/DD/YYYY}
#--------------------------------------------------
~WELL INFORMATION 
#MNEM           .UNIT                      DATA            :DESCRIPTION
#----            ------          --------------            -----------------------------
STRT            .m                    259.99440            :START DEPTH
STOP            .m                   2415.08280            :STOP DEPTH
STEP            .m                       0.1524            :STEP
NULL            .                       -999.25            :NULL VALUE
COMP            .                Shell Australia Pty Ltd   :COMPANY
WELL            .                   Bratwurst-1            :WELL NAME
FLD             .                     Bratwurst            :FIELD NAME
RIGN            .                    Ocean Apex            :Rig Name
RIGTYP          .                Semi-Submersible          :Rig Type
SON             .                     19AWA0035            :Service Order Number
SRVC            .                  Schlumberger            :SERVICE COMPANY
DATE            .                    10/02/2019            :LOG DATE(Composite Date for Composite LAP) (MM/DD/YYYY)
CLAB            .                       County:            :County Label
CNTY            .                                          :COUNTY
SLAB            .                        State:            :State/Province Label
STAT            .                Western Australia         :STATE or PROVINCE
PROV            .                Western Australia         :STATE or PROVINCE
CTRY            .                     Australia            :COUNTRY
CONT_REGION     .                   Australasia            :Continent Region
SECT            .                                          :Section
TOWN            .                                          :Township
RANG            .                                          :Range
API             .                                          :API NUMBER
UWI             .                     19AWA0035            :UNIQUE WELL ID
LUL             .                        Zone 1            :Logging Unit Location
LUN             .                       1010979            :Logging Unit Number
LOC             .                  Browse Basin            :FIELD LOCATION
FL1             .                8 576 622.839 m N         :Field Location Line 1
FL2             .                653 417.755 m E           :Field Location Line 2
LATI            .deg             12° 52' 18.374" S         :LATITUDE
LONG            .deg             124° 24' 50.041" E        :LONGITUDE
PDAT            .                         OTHER            :Local Permanent Datum
LMF             .                            DF            :Logging Measured From
APD             .m                        23.85            :Elevation of Depth Reference (LMF) Above Permanent Datum
EPD             .m                        -2.68            :Elevation of Permanent Datum (PDAT) above Mean Sea Level
EKB             .m                      -999.25            :Elevation of Kelly Bushing Above Permanent Datum
EDF             .m                        23.85            :Elevation of Drill Floor Above Permanent Datum
EGL             .m                      -152.26            :Elevation of Ground Level Above Permanent Datum
ECF             .m                      -999.25            :Elevation of Casing Flange above Permanent Datum
#--------------------------------------------------
~CURVE INFORMATION
#MNEM           .UNIT                  API CODE            :DESCRIPTION
#----            ------          --------------            -----------------------------
DEPT            .m                                         :                                                        Depth Index
TVD             .m                                         :(RT)    (DnMWorkflow)           (6in)                   True Vertical Depth
ROP5            .m/h                                       :(RT)    (DRILLING_SURFACE)      (6in)                   Rate of penetration averaged over the last 5 ft (1.5 m)
TAB_GR          .h                                         :        (ARC9)                  (6in)                   Gamma Ray Time after Bit
GR              .gAPI                                      :(RM)    (ARC9)                  (6in)                   Gamma Ray
TAB_RES         .h                                         :        (ARC9)                  (6in)                   Resistivity Time After Bit
P16H            .ohm.m                                     :(RM)    (ARC9)                  (6in)                   Phase Shift Resistivity 16 inch Spacing at 2 MHz, Environmentally Corrected.
P28H            .ohm.m                                     :(RM)    (ARC9)                  (6in)                   Phase Shift Resistivity 28 inch Spacing at 2 MHz, Environmentally Corrected.
P40H            .ohm.m                                     :(RM)    (ARC9)                  (6in)                   Phase Shift Resistivity 40 inch Spacing at 2 MHz, Environmentally Corrected.
P40L            .ohm.m                                     :(RM)    (ARC9)                  (6in)                   Phase Shift Resistivity 40 inch Spacing at 400 KHz, Environmentally Corrected.
A40H            .ohm.m                                     :(RM)    (ARC9)                  (6in)                   Attenuation Resistivity 40 inch Spacing at 2 MHz, Environmentally Corrected.
DHAT            .degC                                      :(RM)    (ARC9)                  (6in)                   Downhole Annulus Temperature
DHAP            .psi                                       :(RM)    (ARC9)                  (6in)                   Downhole Annulus Pressure
ECD             .g/cm3                                     :(RM)    (ARC9)                  (6in)                   Equivalent Circulating Density
#-------------------------------------------------------------
#            DEPT          TVD         ROP5       TAB_GR           GR      TAB_RES         P16H         P28H         P40H         P40L         A40H         DHAT         DHAP          ECD 
#                  (DnMWorkfl)  (DRILLING_)       (ARC9)       (ARC9)       (ARC9)       (ARC9)       (ARC9)       (ARC9)       (ARC9)       (ARC9)       (ARC9)       (ARC9)       (ARC9) 
#                         (RT)         (RT)                      (RM)                      (RM)         (RM)         (RM)         (RM)         (RM)         (RM)         (RM)         (RM) 
#                        (6in)        (6in)        (6in)        (6in)        (6in)        (6in)        (6in)        (6in)        (6in)        (6in)        (6in)        (6in)        (6in) 
~ASCII
# ...
       2114.55000   2114.47915      7.19765      1.11143     29.73878      1.11143      0.39152      0.37889      0.33763      0.32497      0.30727     54.00000   3344.99954      1.12491
       2114.70240   2114.63154      7.61868      1.11469     33.27655      1.11469      0.33563      0.32534      0.29736      0.26804      0.24762     54.00000   3344.00023      1.12445
       2114.85480   2114.78393      7.77966      1.11763     34.43437      1.11763      0.32071      0.31036      0.28635      0.24412      0.22976     54.00000   3344.99954      1.12473
       2115.00720   2114.93632     10.05555      1.12128     33.54457      1.12128      0.31520      0.29908      0.27782      0.23404      0.21958     54.00000   3346.00030      1.12498
       2115.15960   2115.08871     12.15877      1.12529     30.29624      1.12529      0.31090      0.28067      0.26712      0.23146      0.22280     54.00000   3344.99954      1.12458
       2115.31200   2115.24109     13.64306      1.13635     27.90557      1.13635      0.32347      0.26872      0.25776      0.23002      0.22013     54.00000   3346.00030      1.12486
       2115.46440   2115.39348     15.99797      1.13651     27.80908      1.13651      0.32962      0.27993      0.24614      0.23134      0.21700     54.00000   3346.57465      1.12495
       2115.61680   2115.54587     20.46228      1.13817     27.95917      1.13817      0.34525      0.29204      0.24097      0.24259      0.21637     54.00000   3346.99961      1.12503
       2115.76920   2115.69826     46.33830      1.12602     26.90141      1.12602      0.34525      0.29204      0.24097      0.24259      0.21637     54.00000   3346.99961      1.12493
       2115.92160   2115.85065     42.23249      1.10804     24.55718      1.10804      1.11761      1.05457      1.01412      0.74470      0.54998     54.00000   3348.99968      1.12553
       2116.07400   2116.00304     38.03037      1.10832     23.04201      1.10832      2.36703      1.98997      1.87185      0.99436      0.75212     54.00000   3346.99961      1.12475
       2116.22640   2116.15543     21.24985      1.07517     23.97970      1.07517      2.42211      2.05562      1.92298      1.02644      0.76377     54.00000   3347.48984      1.12485
       2116.37880   2116.30782     13.65069      1.03916     26.51833      1.03916      1.28828      1.20116      1.06684      0.91148      0.73804     54.00000   3348.00037      1.12494
       2116.53120   2116.46021     10.88899      1.01569     28.28936      1.01569      0.75407      0.80948      0.75574      0.80365      0.75570     54.00000   3355.99921      1.12753
       2116.68360   2116.61260     10.80589      1.02290     28.19073      1.02290      0.71088      0.76223      0.73600      0.81854      0.75253     54.00000   3350.00044      1.12541
       2116.83600   2116.76498     10.59937      1.03402     27.64327      1.03402      0.72963      0.78329      0.76555      0.83064      0.75254     54.00000   3350.56754      1.12555
       2116.98840   2116.91737     10.56113      1.04567     27.76527      1.04567      0.81496      0.83428      0.84640      0.85698      0.77817     54.00000   3351.45662      1.12577
       2117.14080   2117.06976     10.40419      1.07096     26.42214      1.07096      0.85344      0.81125      0.87183      0.82232      0.77671     54.00000   3352.99983      1.12619
       2117.29320   2117.22215     11.32473      1.10374     23.51708      1.10374      0.81531      0.76479      0.83830      0.79082      0.75253     54.00000   3354.00059      1.12642
       2117.44560   2117.37454     12.48454      1.12651     22.47025      1.12651      0.68570      0.62887      0.66943      0.60689      0.57608     54.00000   3354.00059      1.12641
       2117.59800   2117.52693     12.68219      1.12734     22.00927      1.12734      0.56814      0.52550      0.47648      0.44679      0.41683     54.00000   3354.00059      1.12629
       2117.75040   2117.67932     16.81508      1.13013     21.14805      1.13013      0.48183      0.42841      0.38726      0.33332      0.30471     54.00000   3352.00052      1.12553
       2117.90280   2117.83171     29.82430      1.13304     23.67453      1.13304      0.38979      0.33492      0.30187      0.25482      0.22363     54.00000   3354.00059      1.12613
       2118.05520   2117.98410     69.99587      1.13901     26.77276      1.13901      0.37647      0.32142      0.28884      0.23144      0.20050     54.00000   3352.47189      1.12554
       2118.20760   2118.13648     72.54239      1.14297     25.73930      1.14297      0.38105      0.32205      0.28632      0.22445      0.19170     54.00000   3359.00004      1.12765
       2118.36000   2118.28887     81.43631      1.14943     24.31275      1.14943      0.39542      0.32309      0.28215      0.21646      0.18178     54.00000   3354.99990      1.12621
       2118.51240   2118.44126     82.99209      1.16106     25.48915      1.16106      0.40635      0.32536      0.27672      0.21435      0.17506     54.00000   3356.99997      1.12681
       2118.66480   2118.59365     95.48773      1.16235     26.12810      1.16235      0.41704      0.32703      0.28133      0.21343      0.17074     54.00000   3354.99990      1.12602
       2118.81720   2118.74604     97.63693      1.16925     25.42054      1.16925      0.43060      0.34322      0.27754      0.21068      0.16207     54.00000   3355.83386      1.12625
       2118.96960   2118.89843    151.21920      1.18401     25.53776      1.18401      0.43825      0.35389      0.28726      0.20731      0.15296     54.00000   3355.99921      1.12619
       2119.12200   2119.05082    124.20550      1.18457     26.04281      1.18457      0.48576      0.38850      0.32362      0.21058      0.15903     54.00000   3356.99997      1.12648
       2119.27440   2119.20321    107.95330      1.18887     27.61784      1.18887      0.57016      0.45244      0.36612      0.22643      0.17064     54.00000   3356.99997      1.12644
       2119.42680   2119.35560     73.05704      0.96999     28.72593      0.96999      0.63772      0.51264      0.42197      0.24078      0.18617     54.00000   3356.99997      1.12634
       2119.57920   2119.50799     67.10912      0.98601     26.59844      0.98601      0.66682      0.54295      0.46020      0.25062      0.19496     54.00000   3356.99997      1.12623
       2119.73160   2119.66037     67.73292      0.99908     26.07848      0.99908      0.68028      0.57362      0.48087      0.25435      0.19769     54.00000   3356.99997      1.12615
       2119.88400   2119.81276     68.64780      1.04568     28.55525      1.04568      0.68224      0.59948      0.50733      0.25166      0.19422     54.00000   3358.00073      1.12641
       2120.03640   2119.96515     68.98756      1.07522     29.17951      1.07522      0.67292      0.60378      0.52158      0.24717      0.18837     54.00000   3359.00004      1.12664
       2120.18880   2120.11754     68.42838      1.11345     28.29520      1.11345      0.66062      0.59525      0.52754      0.24167      0.18520     54.00000   3359.99935      1.12691
       2120.34120   2120.26993     63.34988      1.14755     28.95771      1.14755      0.64287      0.57287      0.51323      0.22800      0.17355     54.00000   3359.00004      1.12647
       2120.49360   2120.42232     63.60448      1.21548     29.51007      1.21548      0.64191      0.56436      0.49531      0.22604      0.16978     54.00000   3359.00004      1.12640
       2120.64600   2120.57471     54.25076      1.21290     27.18014      1.21290      0.64320      0.55231      0.48371      0.22422      0.17276     54.00000   3359.00004      1.12635
       2120.79840   2120.72710     59.14956      1.21150     25.05747      1.21150      0.63613      0.54843      0.47665      0.23065      0.18061     54.00000   3359.99935      1.12656
       2120.95080   2120.87949     71.58399      1.21525     26.49403      1.21525      0.64220      0.55615      0.48338      0.24482      0.19643     54.00000   3359.00004      1.12614
