~VERSION INFORMATION 
VERS  .    2.0                                     :CWLS Log ASCII Standard - VERSION 2.0
WRAP  .    NO                                      :One Line per Depth step
PROD  .    Schlumberger Technology Corp.           :LAS Producer
PROG  .    Horizon LASWriter 6.2.68624.3100        :LAS Program name and version
SOURCE.    17.5in Section-Drilling                 :Run&Pass Information
CREA  .    12/12/2016                              :LAS Creation date {MM/DD/YYYY}
#--------------------------------------------------
~WELL INFORMATION 
#MNEM           .UNIT                      DATA            :DESCRIPTION
#----            ------          --------------            -----------------------------
STRT            .m                    344.88120            :START DEPTH
STOP            .m                   2348.02680            :STOP DEPTH
STEP            .m                       0.1524            :STEP
NULL            .                       -999.25            :NULL VALUE
COMP            .                Woodside Energy Ltd       :COMPANY
WELL            .                         KDA02            :WELL NAME
FLD             .                      Dockrell            :FIELD NAME
RIGN            .                 Atwood Osprey            :Rig Name
RIGTYP          .                Semi-Submersible          :Rig Type
SON             .                     16AWA0071            :Service Order Number
SRVC            .                  Schlumberger            :SERVICE COMPANY
DATE            .                    11/12/2016            :LOG DATE(Composite Date for Composite LAP) (MM/DD/YYYY)
CLAB            .                       County:            :County Label
CNTY            .                                          :COUNTY
SLAB            .                        State:            :State/Province Label
STAT            .                Western Australia         :STATE or PROVINCE
PROV            .                Western Australia         :STATE or PROVINCE
CTRY            .                     Australia            :COUNTRY
CONT_REGION     .                   Australasia            :Continent Region
SECT            .                                          :Section
TOWN            .                                          :Township
RANG            .                                          :Range
API             .                                          :API NUMBER
UWI             .                     16AWA0071            :UNIQUE WELL ID
LUL             .                 Below Helipad            :Logging Unit Location
LUN             .                   OLU-MB 8047            :Logging Unit Number
LOC             .                 Dampier Basin            :FIELD LOCATION
FL1             .                X: E 372778.040m          :Field Location Line 1
FL2             .                Y: N 7814860.760 m        :Field Location Line 2
LATI            .deg             19° 45' 28.198" S         :LATITUDE
LONG            .deg             115° 47' 8.544" E         :LONGITUDE
PDAT            .                         OTHER            :Local Permanent Datum
LMF             .                            DF            :Logging Measured From
APD             .m                     28.70000            :Elevation of Depth Reference (LMF) Above Permanent Datum
EPD             .m                     -1.60000            :Elevation of Permanent Datum (PDAT) above Mean Sea Level
EKB             .m                      -999.25            :Elevation of Kelly Bushing Above Permanent Datum
EDF             .m                     28.70000            :Elevation of Drill Floor Above Permanent Datum
EGL             .m                   -122.00000            :Elevation of Ground Level Above Permanent Datum
ECF             .m                      -999.25            :Elevation of Casing Flange above Permanent Datum
#--------------------------------------------------
~CURVE INFORMATION
#MNEM           .UNIT                  API CODE            :DESCRIPTION
#----            ------          --------------            -----------------------------
DEPT            .m                                         :                                                        Depth Index
TVD             .m                                         :(RT)    (DnMWorkflow)           (6in)                   True Vertical Depth
GR              .gAPI                                      :(RM)    (ARC9)                  (6in)                   Gamma Ray
ROP5            .m/h                                       :(RT)    (DRILLING_SURFACE)      (6in)                   Rate of penetration averaged over the last 5 ft (1.5 m)
BLKP            .m                                         :(RT)    (DRILLING_SURFACE)      (6in)                   Height of block above rig floor
HKLA            .1000 lbf                                  :(RT)    (DRILLING_SURFACE)      (6in)                   Average Hookload
SWOB            .1000 lbf                                  :(RT)    (DRILLING_SURFACE)      (6in)                   Surface Weight On Bit
STOR            .1000 ft.lbf                               :(RT)    (DRILLING_SURFACE)      (6in)                   Surface Torque
RPM             .c/min                                     :(RT)    (DRILLING_SURFACE)      (6in)                   Rotational Speed
CRPM            .c/min                                     :(RT)    (TELE900)               (6in)                   Collar Rotational Speed
STICK           .c/min                                     :(RT)    (TELE900)               (6in)                   Stick Slip Indicator
SPPA            .psi                                       :(RT)    (DRILLING_SURFACE)      (6in)                   Standpipe Pressure
TFLO            .gal/min                                   :(RT)    (DRILLING_SURFACE)      (6in)                   Total flow rate of all active pumps
TRPM            .c/min                                     :(RT)    (TELE900)               (6in)                   MWD Turbine Rotation Speed
DHAT            .degC                                      :(RM)    (ARC9)                  (6in)                   Downhole Annulus Temperature
DHAP            .psi                                       :(RM)    (ARC9)                  (6in)                   Downhole Annulus Pressure
ECD             .g/cm3                                     :(RM)    (ARC9)                  (6in)                   Equivalent Circulating Density
COBTM           .                                          :(RT)    (DRILLING_SURFACE)      (6in)                   Composite On Bottom Status
SHKL            .                                          :(RM)    (ARC9)                  (6in)                   Tool Shock Level
SHKRSK          .                                          :(RT)    (TELE900)               (6in)                   Shock Risk
SHKRSK          .                                          :(RT)    (PDORBIT_900)           (6in)                   Shock Risk
SHKPK           .gn                                        :(RT)    (TELE900)               (6in)                   Shock Peak
VIB_X           .gn                                        :(RT)    (TELE900)               (6in)                   RMS Vibration, X-Axis
VIB_LAT         .gn                                        :(RT)    (TELE900)               (6in)                   Transverse RMS Vibration
#-------------------------------------------------------------
#            DEPT          TVD           GR         ROP5         BLKP         HKLA         SWOB         STOR          RPM         CRPM        STICK         SPPA         TFLO         TRPM         DHAT         DHAP          ECD        COBTM         SHKL       SHKRSK       SHKRSK        SHKPK        VIB_X      VIB_LAT 
#                  (DnMWorkfl)       (ARC9)  (DRILLING_)  (DRILLING_)  (DRILLING_)  (DRILLING_)  (DRILLING_)  (DRILLING_)    (TELE900)    (TELE900)  (DRILLING_)  (DRILLING_)    (TELE900)       (ARC9)       (ARC9)       (ARC9)  (DRILLING_)       (ARC9)    (TELE900)  (PDORBIT_9)    (TELE900)    (TELE900)    (TELE900) 
#                         (RT)         (RM)         (RT)         (RT)         (RT)         (RT)         (RT)         (RT)         (RT)         (RT)         (RT)         (RT)         (RT)         (RM)         (RM)         (RM)         (RT)         (RM)         (RT)         (RT)         (RT)         (RT)         (RT) 
#                        (6in)        (6in)        (6in)        (6in)        (6in)        (6in)        (6in)        (6in)        (6in)        (6in)        (6in)        (6in)        (6in)        (6in)        (6in)        (6in)        (6in)        (6in)        (6in)        (6in)        (6in)        (6in)        (6in) 
~ASCII
# ...
       2345.89320   2259.24792      -999.25     49.56920     30.02634    245.74377     48.56698     20.34505    159.87060      -999.25      -999.25   2240.99984   1102.89765      -999.25      -999.25      -999.25      -999.25      0.00000      -999.25      0.00000      -999.25      0.00000      -999.25      -999.25
       2346.04560   2259.39352      -999.25     44.98862     29.89699    244.68136     49.98296     22.84479    159.99460    175.00000      -999.25   2247.00005   1102.64140   2890.62500      -999.25      -999.25      -999.25      0.00000      -999.25      0.00000      -999.25      0.00000      -999.25      -999.25
       2346.19800   2259.53912      -999.25     37.01745     29.76496    247.03458     47.88412     18.75528    160.01840      -999.25    171.00000   2219.99983   1104.94868      -999.25      -999.25      -999.25      -999.25      0.00000      -999.25      -999.25      -999.25      -999.25      -999.25      -999.25
       2346.35040   2259.68472      -999.25     36.89969     29.59278    246.34034     48.57368     20.39831    160.00140    151.00000      -999.25   2240.99984   1102.64140      -999.25      -999.25      -999.25      -999.25      0.00000      -999.25      -999.25      1.00000      -999.25      0.37475      0.74949
       2346.50280   2259.83033      -999.25     39.57027     29.42150    245.53676     48.62070     19.74960    159.94870      -999.25      -999.25   2253.00026   1099.30861   2929.68800      -999.25      -999.25      -999.25      0.00000      -999.25      -999.25      -999.25      -999.25      -999.25      -999.25
       2346.65520   2259.97594      -999.25     32.90799     29.27670    245.73782     48.81028     20.75434    159.94830      -999.25     87.00000   2255.99964   1102.38489      -999.25      -999.25      -999.25      -999.25      0.00000      -999.25      -999.25      1.00000      -999.25      0.37475      -999.25
       2346.80760   2260.12155      -999.25     33.39628     29.07769    248.01542     46.77030     19.39819    159.96540      -999.25      -999.25   2192.99960   1102.38489      -999.25      -999.25      -999.25      -999.25      0.00000      -999.25      -999.25      -999.25      -999.25      -999.25      0.49966
       2346.96000   2260.26716      -999.25     31.26153     28.97164    244.45693     50.53156     21.66220    159.97110      -999.25      -999.25   2207.99940   1102.89765   2929.68800      -999.25      -999.25      -999.25      0.00000      -999.25      0.00000      -999.25      0.00000      -999.25      -999.25
       2347.11240   2260.41278      -999.25     34.33655     28.79332    245.87781     48.07590     20.53543    159.97080      -999.25      -999.25   2198.99981   1101.87213      -999.25      -999.25      -999.25      -999.25      0.00000      -999.25      -999.25      -999.25      -999.25      -999.25      -999.25
       2347.26480   2260.55840      -999.25     35.21408     28.62316    243.42010     51.42478     20.96346    159.98430    164.00000     81.00000   2198.99981   1101.35964      -999.25      -999.25      -999.25      -999.25      0.00000      -999.25      -999.25      -999.25      -999.25      -999.25      -999.25
       2347.41720   2260.70401      -999.25     35.95411     28.52271    245.07555     48.90054     20.65724    159.95260      -999.25      -999.25   2243.99922   1102.12865      -999.25      -999.25      -999.25      -999.25      0.00000      -999.25      -999.25      1.00000      -999.25      -999.25      -999.25
       2347.56960   2260.84964      -999.25     42.40921     28.31388    246.85689     48.27658     19.67768    159.92320      -999.25      -999.25   2249.99943   1102.64140      -999.25      -999.25      -999.25      -999.25      0.00000      -999.25      -999.25      -999.25      -999.25      0.37475      -999.25
       2347.72200   2260.99526      -999.25     47.47060     28.22793    246.26208     48.76153     21.41413    159.94980      -999.25      -999.25   2238.00046   1104.17941      -999.25      -999.25      -999.25      -999.25      0.00000      -999.25      -999.25      -999.25      -999.25      -999.25      0.49966
       2347.87440   2261.14089      -999.25     48.03654     28.02205    248.73544     45.75421     20.82287    159.88190      -999.25      -999.25   2207.99940   1102.38489   2929.68800      -999.25      -999.25      -999.25      0.00000      -999.25      -999.25      -999.25      -999.25      -999.25      -999.25
       2348.02680   2261.28651      -999.25     48.03417     27.89718    248.84854     45.87804     25.58519    154.83110      -999.25      -999.25   2258.99902   1104.94868      -999.25      -999.25      -999.25      -999.25      0.00000      -999.25      0.00000      -999.25      0.00000      -999.25      -999.25
