~VERSION INFORMATION 
VERS  .    2.0                                     :CWLS Log ASCII Standard - VERSION 2.0
WRAP  .    NO                                      :One Line per Depth step
PROD  .    Schlumberger Technology Corp.           :LAS Producer
PROG  .    Horizon LASWriter 6.2.68624.3100        :LAS Program name and version
SOURCE.    17.5in Section-Drilling                 :Run&Pass Information
CREA  .    12/12/2016                              :LAS Creation date {MM/DD/YYYY}
#--------------------------------------------------
~WELL INFORMATION 
#MNEM           .UNIT                      DATA            :DESCRIPTION
#----            ------          --------------            -----------------------------
STRT            .m                    344.88120            :START DEPTH
STOP            .m                   2348.02680            :STOP DEPTH
STEP            .m                       0.1524            :STEP
NULL            .                       -999.25            :NULL VALUE
COMP            .                Woodside Energy Ltd       :COMPANY
WELL            .                         KDA02            :WELL NAME
FLD             .                      Dockrell            :FIELD NAME
RIGN            .                 Atwood Osprey            :Rig Name
RIGTYP          .                Semi-Submersible          :Rig Type
SON             .                     16AWA0071            :Service Order Number
SRVC            .                  Schlumberger            :SERVICE COMPANY
DATE            .                    11/12/2016            :LOG DATE(Composite Date for Composite LAP) (MM/DD/YYYY)
CLAB            .                       County:            :County Label
CNTY            .                                          :COUNTY
SLAB            .                        State:            :State/Province Label
STAT            .                Western Australia         :STATE or PROVINCE
PROV            .                Western Australia         :STATE or PROVINCE
CTRY            .                     Australia            :COUNTRY
CONT_REGION     .                   Australasia            :Continent Region
SECT            .                                          :Section
TOWN            .                                          :Township
RANG            .                                          :Range
API             .                                          :API NUMBER
UWI             .                     16AWA0071            :UNIQUE WELL ID
LUL             .                 Below Helipad            :Logging Unit Location
LUN             .                   OLU-MB 8047            :Logging Unit Number
LOC             .                 Dampier Basin            :FIELD LOCATION
FL1             .                X: E 372778.040m          :Field Location Line 1
FL2             .                Y: N 7814860.760 m        :Field Location Line 2
LATI            .deg             19° 45' 28.198" S         :LATITUDE
LONG            .deg             115° 47' 8.544" E         :LONGITUDE
PDAT            .                         OTHER            :Local Permanent Datum
LMF             .                            DF            :Logging Measured From
APD             .m                     28.70000            :Elevation of Depth Reference (LMF) Above Permanent Datum
EPD             .m                     -1.60000            :Elevation of Permanent Datum (PDAT) above Mean Sea Level
EKB             .m                      -999.25            :Elevation of Kelly Bushing Above Permanent Datum
EDF             .m                     28.70000            :Elevation of Drill Floor Above Permanent Datum
EGL             .m                   -122.00000            :Elevation of Ground Level Above Permanent Datum
ECF             .m                      -999.25            :Elevation of Casing Flange above Permanent Datum
#--------------------------------------------------
~CURVE INFORMATION
#MNEM           .UNIT                  API CODE            :DESCRIPTION
#----            ------          --------------            -----------------------------
DEPT            .m                                         :                                                        Depth Index
TVD             .m                                         :(RT)    (DnMWorkflow)           (6in)                   True Vertical Depth
GR              .gAPI                                      :(RM)    (ARC9)                  (6in)                   Gamma Ray
ROP5            .m/h                                       :(RT)    (DRILLING_SURFACE)      (6in)                   Rate of penetration averaged over the last 5 ft (1.5 m)
BLKP            .m                                         :(RT)    (DRILLING_SURFACE)      (6in)                   Height of block above rig floor
HKLA            .1000 lbf                                  :(RT)    (DRILLING_SURFACE)      (6in)                   Average Hookload
SWOB            .1000 lbf                                  :(RT)    (DRILLING_SURFACE)      (6in)                   Surface Weight On Bit
STOR            .1000 ft.lbf                               :(RT)    (DRILLING_SURFACE)      (6in)                   Surface Torque
RPM             .c/min                                     :(RT)    (DRILLING_SURFACE)      (6in)                   Rotational Speed
CRPM            .c/min                                     :(RT)    (TELE900)               (6in)                   Collar Rotational Speed
STICK           .c/min                                     :(RT)    (TELE900)               (6in)                   Stick Slip Indicator
SPPA            .psi                                       :(RT)    (DRILLING_SURFACE)      (6in)                   Standpipe Pressure
TFLO            .gal/min                                   :(RT)    (DRILLING_SURFACE)      (6in)                   Total flow rate of all active pumps
TRPM            .c/min                                     :(RT)    (TELE900)               (6in)                   MWD Turbine Rotation Speed
DHAT            .degC                                      :(RM)    (ARC9)                  (6in)                   Downhole Annulus Temperature
DHAP            .psi                                       :(RM)    (ARC9)                  (6in)                   Downhole Annulus Pressure
ECD             .g/cm3                                     :(RM)    (ARC9)                  (6in)                   Equivalent Circulating Density
COBTM           .                                          :(RT)    (DRILLING_SURFACE)      (6in)                   Composite On Bottom Status
SHKL            .                                          :(RM)    (ARC9)                  (6in)                   Tool Shock Level
SHKRSK          .                                          :(RT)    (TELE900)               (6in)                   Shock Risk
SHKRSK          .                                          :(RT)    (PDORBIT_900)           (6in)                   Shock Risk
SHKPK           .gn                                        :(RT)    (TELE900)               (6in)                   Shock Peak
VIB_X           .gn                                        :(RT)    (TELE900)               (6in)                   RMS Vibration, X-Axis
VIB_LAT         .gn                                        :(RT)    (TELE900)               (6in)                   Transverse RMS Vibration
#-------------------------------------------------------------
#            DEPT          TVD           GR         ROP5         BLKP         HKLA         SWOB         STOR          RPM         CRPM        STICK         SPPA         TFLO         TRPM         DHAT         DHAP          ECD        COBTM         SHKL       SHKRSK       SHKRSK        SHKPK        VIB_X      VIB_LAT 
#                  (DnMWorkfl)       (ARC9)  (DRILLING_)  (DRILLING_)  (DRILLING_)  (DRILLING_)  (DRILLING_)  (DRILLING_)    (TELE900)    (TELE900)  (DRILLING_)  (DRILLING_)    (TELE900)       (ARC9)       (ARC9)       (ARC9)  (DRILLING_)       (ARC9)    (TELE900)  (PDORBIT_9)    (TELE900)    (TELE900)    (TELE900) 
#                         (RT)         (RM)         (RT)         (RT)         (RT)         (RT)         (RT)         (RT)         (RT)         (RT)         (RT)         (RT)         (RT)         (RM)         (RM)         (RM)         (RT)         (RM)         (RT)         (RT)         (RT)         (RT)         (RT) 
#                        (6in)        (6in)        (6in)        (6in)        (6in)        (6in)        (6in)        (6in)        (6in)        (6in)        (6in)        (6in)        (6in)        (6in)        (6in)        (6in)        (6in)        (6in)        (6in)        (6in)        (6in)        (6in)        (6in) 
~ASCII
# ...
       1010.56440    995.19323     32.31895     51.38540     21.96102    189.18442     52.30723     12.72913    104.65150     91.50000      -999.25   2205.00002   1008.55415      -999.25     45.00000   1705.54952      1.20787      0.00000      0.00000      -999.25      0.00000      -999.25      0.37475      1.24915
       1010.71680    995.33564     31.30322     42.33373     21.85638    190.17679     51.04321     12.90151     82.21894      -999.25    267.00000   2198.99981      -999.25   2929.68800     45.00000   1706.00059      1.20796      0.00000      1.00000      0.00000      -999.25     23.98373      -999.25      -999.25
       1010.86920    995.47804     31.48790     25.48960     21.65499    185.44948     57.17493     22.77352     79.86906      -999.25      -999.25   2181.00063   1008.81040      -999.25     45.00000   1706.46616      1.20817      0.00000      0.00000      -999.25      -999.25      -999.25      -999.25      0.99932
       1011.02160    995.62045     32.38821     26.30999     21.50736    190.61963     46.53742      9.89342     79.87946     73.00000      -999.25   2181.00063   1005.22136      -999.25     45.00000   1706.99990      1.20843      0.00000      0.00000      0.00000      0.00000     23.98373      0.24983      -999.25
       1011.17400    995.76286     32.68831     25.10456     21.36462    191.40983     48.58303     17.12194     79.97108      -999.25    207.00000   2171.99959   1009.32316      -999.25     45.00000   1706.99990      1.20821      0.00000      0.00000      -999.25      -999.25      -999.25      -999.25      -999.25
       1011.32640    995.90528     31.32630     24.62977     21.19226    187.56530     54.49477     16.02728     79.81051     60.00000      -999.25   2171.99959   1008.81040      -999.25     45.00000   1706.99990      1.20803      0.00000      0.00000      -999.25      -999.25      -999.25      -999.25      -999.25
       1011.47880    996.04770     29.45642     22.48720     21.06337    189.87273     48.03824     11.00736     80.14893      -999.25      -999.25   2144.99936   1008.81040   2929.68800     45.00000   1706.99990      1.20783      0.00000      0.00000      -999.25      0.00000      -999.25      0.24983      -999.25
       1011.63120    996.19012     30.81843     22.74758     20.94966    189.73708     47.62834     11.22296     80.38370      -999.25      -999.25   2177.99980   1009.06691      -999.25     45.00000   1706.99990      1.20766      0.00000      0.00000      -999.25      -999.25      -999.25      -999.25      1.24915
       1011.78360    996.33254     35.92021     24.60210     20.79052    192.76354     48.37956     20.21521     79.68573      -999.25    246.00000   2171.99959   1009.06691      -999.25     45.00000   1707.56990      1.20792      0.00000      0.00000      -999.25      -999.25      -999.25      -999.25      -999.25
       1011.93600    996.47497     40.09859     28.44011     20.51431    193.46822     47.71110     15.65978     79.78359      -999.25      -999.25   2150.99957   1009.32316      -999.25     45.00000   1708.00066      1.20809      0.00000      0.00000      -999.25      -999.25      -999.25      -999.25      -999.25
       1012.08840    996.61740     42.70720     25.64043     20.42141    199.39996     40.40487     14.97919     80.61440      -999.25      -999.25   2141.99998   1005.47761      -999.25     45.00000   1708.99997      1.20863      0.00000      0.00000      0.00000      -999.25     23.98373      -999.25      -999.25
       1012.24080    996.75983     45.75441     28.54888     20.27917    204.69690     34.76597     16.06602     79.61073      -999.25      -999.25   2154.00040   1009.57967      -999.25     45.00000   1708.00066      1.20776      0.00000      0.00000      -999.25      -999.25      -999.25      -999.25      -999.25
       1012.39320    996.90226     46.21611     52.14076     20.09464    212.85272     27.34519     13.18902     79.75520      -999.25      -999.25   2169.00021      -999.25      -999.25     45.00000   1708.00066      1.20753      0.00000      0.00000      -999.25      -999.25      -999.25      -999.25      -999.25
       1012.54560    997.04469     45.80058     52.60819     19.97822    212.10967     28.47951     13.71145     80.09604      -999.25      -999.25   2171.99959   1009.06691   2929.68800     45.00000   1708.99997      1.20812      0.00000      0.00000      -999.25      -999.25      -999.25      -999.25      -999.25
       1012.69800    997.18712     48.15525     52.76739     19.84579    214.82899     26.28746      9.01086     80.26236     92.00000      -999.25   2150.99957   1009.06691      -999.25     45.00000   1708.99997      1.20791      0.00000      0.00000      -999.25      -999.25      -999.25      -999.25      -999.25
       1012.85040    997.32955     50.60225     58.54744     19.70026    214.57239     25.73061     10.13559     79.73237      -999.25      -999.25   2150.99957      -999.25      -999.25     45.00000   1710.16752      1.20854      0.00000      0.00000      -999.25      -999.25      -999.25      -999.25      -999.25
       1013.00280    997.47198     52.07969     75.97133     19.50108    213.52504     26.25772      9.97804     79.80582      -999.25    219.00000   2169.00021   1009.32316      -999.25     45.00000   1711.00004      1.20899      0.00000      0.00000      -999.25      0.00000      -999.25      0.12492      -999.25
       1013.15520    997.61441     52.81841     77.56390     19.40937    208.50108     33.11954     12.93269    107.80680      -999.25      -999.25   2154.00040   1009.06691      -999.25     45.00000   1711.49317      1.20913      0.00000      0.00000      -999.25      -999.25      -999.25      -999.25      1.24915
       1013.30760    997.75684     50.83310     90.88759     19.20469    207.90627     32.30575     12.45797    110.68160      -999.25      -999.25   2171.99959      -999.25      -999.25     45.00000   1711.99935      1.20928      0.00000      0.00000      -999.25      -999.25      -999.25      -999.25      -999.25
       1013.46000    997.89927     44.90796     91.03781     19.05816    208.61608     30.91941     13.63505    114.32700      -999.25      -999.25   2144.99936   1006.75963      -999.25     45.00000   1711.99935      1.20921      0.00000      0.00000      -999.25      -999.25      -999.25      -999.25      -999.25
       1013.61240    998.04170     38.79814    110.95980     18.98455    222.77645     17.80315      8.86757    120.04660      -999.25      -999.25   2150.99957      -999.25      -999.25     45.00000   1711.99935      1.20897      0.00000      0.00000      -999.25      -999.25      -999.25      -999.25      -999.25
       1013.76480    998.18413     36.08950    115.04920     18.74095    222.19002     18.30353      9.90164    119.92640      -999.25      -999.25   2156.99979   1009.06691      -999.25     45.00000   1711.99935      1.20878      0.00000      0.00000      0.00000      -999.25     23.98373      -999.25      -999.25
       1013.91720    998.32657     35.32000    138.09880     18.59688    221.77842     18.60689     10.41433    120.05070      -999.25      -999.25   2171.99959      -999.25      -999.25     45.00000   1712.32423      1.20885      0.00000      0.00000      -999.25      -999.25      -999.25      -999.25      -999.25
       1014.06960    998.46900     35.41234    111.31170     18.41157    223.82321     16.35681     10.10882    119.96870      -999.25      -999.25   2150.99957   1007.01588      -999.25     45.00000   1712.67813      1.20893      0.00000      0.00000      -999.25      -999.25      -999.25      -999.25      -999.25
       1014.22200    998.61143     36.28957    140.41090     18.24795    223.57298     16.70617      9.38365    120.07070      -999.25      -999.25   2171.99959      -999.25      -999.25     45.00000   1713.00011      1.20900      0.00000      0.00000      -999.25      -999.25      -999.25      -999.25      -999.25
       1014.37440    998.75386     35.18149    110.29390     18.17422    223.51368     16.61039      9.25732    120.00790      -999.25      -999.25   2156.99979   1006.75963      -999.25     45.00000   1714.36491      1.20976      0.00000      0.00000      -999.25      -999.25      -999.25      -999.25      -999.25
