~VERSION INFORMATION 
VERS  .    2.0                                     :CWLS Log ASCII Standard - VERSION 2.0
WRAP  .    NO                                      :One Line per Depth step
PROD  .    Schlumberger Technology Corp.           :LAS Producer
PROG  .    Horizon LASWriter 6.2.68624.3100        :LAS Program name and version
SOURCE.    17.5in Section-Drilling                 :Run&Pass Information
CREA  .    12/12/2016                              :LAS Creation date {MM/DD/YYYY}
#--------------------------------------------------
~WELL INFORMATION 
#MNEM           .UNIT                      DATA            :DESCRIPTION
#----            ------          --------------            -----------------------------
STRT            .m                    344.88120            :START DEPTH
STOP            .m                   2348.02680            :STOP DEPTH
STEP            .m                       0.1524            :STEP
NULL            .                       -999.25            :NULL VALUE
COMP            .                Woodside Energy Ltd       :COMPANY
WELL            .                         KDA02            :WELL NAME
FLD             .                      Dockrell            :FIELD NAME
RIGN            .                 Atwood Osprey            :Rig Name
RIGTYP          .                Semi-Submersible          :Rig Type
SON             .                     16AWA0071            :Service Order Number
SRVC            .                  Schlumberger            :SERVICE COMPANY
DATE            .                    11/12/2016            :LOG DATE(Composite Date for Composite LAP) (MM/DD/YYYY)
CLAB            .                       County:            :County Label
CNTY            .                                          :COUNTY
SLAB            .                        State:            :State/Province Label
STAT            .                Western Australia         :STATE or PROVINCE
PROV            .                Western Australia         :STATE or PROVINCE
CTRY            .                     Australia            :COUNTRY
CONT_REGION     .                   Australasia            :Continent Region
SECT            .                                          :Section
TOWN            .                                          :Township
RANG            .                                          :Range
API             .                                          :API NUMBER
UWI             .                     16AWA0071            :UNIQUE WELL ID
LUL             .                 Below Helipad            :Logging Unit Location
LUN             .                   OLU-MB 8047            :Logging Unit Number
LOC             .                 Dampier Basin            :FIELD LOCATION
FL1             .                X: E 372778.040m          :Field Location Line 1
FL2             .                Y: N 7814860.760 m        :Field Location Line 2
LATI            .deg             19° 45' 28.198" S         :LATITUDE
LONG            .deg             115° 47' 8.544" E         :LONGITUDE
PDAT            .                         OTHER            :Local Permanent Datum
LMF             .                            DF            :Logging Measured From
APD             .m                     28.70000            :Elevation of Depth Reference (LMF) Above Permanent Datum
EPD             .m                     -1.60000            :Elevation of Permanent Datum (PDAT) above Mean Sea Level
EKB             .m                      -999.25            :Elevation of Kelly Bushing Above Permanent Datum
EDF             .m                     28.70000            :Elevation of Drill Floor Above Permanent Datum
EGL             .m                   -122.00000            :Elevation of Ground Level Above Permanent Datum
ECF             .m                      -999.25            :Elevation of Casing Flange above Permanent Datum
#--------------------------------------------------
~CURVE INFORMATION
#MNEM           .UNIT                  API CODE            :DESCRIPTION
#----            ------          --------------            -----------------------------
DEPT            .m                                         :                                                        Depth Index
TVD             .m                                         :(RT)    (DnMWorkflow)           (6in)                   True Vertical Depth
GR              .gAPI                                      :(RM)    (ARC9)                  (6in)                   Gamma Ray
ROP5            .m/h                                       :(RT)    (DRILLING_SURFACE)      (6in)                   Rate of penetration averaged over the last 5 ft (1.5 m)
BLKP            .m                                         :(RT)    (DRILLING_SURFACE)      (6in)                   Height of block above rig floor
HKLA            .1000 lbf                                  :(RT)    (DRILLING_SURFACE)      (6in)                   Average Hookload
SWOB            .1000 lbf                                  :(RT)    (DRILLING_SURFACE)      (6in)                   Surface Weight On Bit
STOR            .1000 ft.lbf                               :(RT)    (DRILLING_SURFACE)      (6in)                   Surface Torque
RPM             .c/min                                     :(RT)    (DRILLING_SURFACE)      (6in)                   Rotational Speed
CRPM            .c/min                                     :(RT)    (TELE900)               (6in)                   Collar Rotational Speed
STICK           .c/min                                     :(RT)    (TELE900)               (6in)                   Stick Slip Indicator
SPPA            .psi                                       :(RT)    (DRILLING_SURFACE)      (6in)                   Standpipe Pressure
TFLO            .gal/min                                   :(RT)    (DRILLING_SURFACE)      (6in)                   Total flow rate of all active pumps
TRPM            .c/min                                     :(RT)    (TELE900)               (6in)                   MWD Turbine Rotation Speed
DHAT            .degC                                      :(RM)    (ARC9)                  (6in)                   Downhole Annulus Temperature
DHAP            .psi                                       :(RM)    (ARC9)                  (6in)                   Downhole Annulus Pressure
ECD             .g/cm3                                     :(RM)    (ARC9)                  (6in)                   Equivalent Circulating Density
COBTM           .                                          :(RT)    (DRILLING_SURFACE)      (6in)                   Composite On Bottom Status
SHKL            .                                          :(RM)    (ARC9)                  (6in)                   Tool Shock Level
SHKRSK          .                                          :(RT)    (TELE900)               (6in)                   Shock Risk
SHKRSK          .                                          :(RT)    (PDORBIT_900)           (6in)                   Shock Risk
SHKPK           .gn                                        :(RT)    (TELE900)               (6in)                   Shock Peak
VIB_X           .gn                                        :(RT)    (TELE900)               (6in)                   RMS Vibration, X-Axis
VIB_LAT         .gn                                        :(RT)    (TELE900)               (6in)                   Transverse RMS Vibration
#-------------------------------------------------------------
#            DEPT          TVD           GR         ROP5         BLKP         HKLA         SWOB         STOR          RPM         CRPM        STICK         SPPA         TFLO         TRPM         DHAT         DHAP          ECD        COBTM         SHKL       SHKRSK       SHKRSK        SHKPK        VIB_X      VIB_LAT 
#                  (DnMWorkfl)       (ARC9)  (DRILLING_)  (DRILLING_)  (DRILLING_)  (DRILLING_)  (DRILLING_)  (DRILLING_)    (TELE900)    (TELE900)  (DRILLING_)  (DRILLING_)    (TELE900)       (ARC9)       (ARC9)       (ARC9)  (DRILLING_)       (ARC9)    (TELE900)  (PDORBIT_9)    (TELE900)    (TELE900)    (TELE900) 
#                         (RT)         (RM)         (RT)         (RT)         (RT)         (RT)         (RT)         (RT)         (RT)         (RT)         (RT)         (RT)         (RT)         (RM)         (RM)         (RM)         (RT)         (RM)         (RT)         (RT)         (RT)         (RT)         (RT) 
#                        (6in)        (6in)        (6in)        (6in)        (6in)        (6in)        (6in)        (6in)        (6in)        (6in)        (6in)        (6in)        (6in)        (6in)        (6in)        (6in)        (6in)        (6in)        (6in)        (6in)        (6in)        (6in)        (6in) 
~ASCII
# ...
       2080.41240   2006.65289     47.57656      7.15900      8.17011    253.09950     48.82902     11.97473    107.78480     51.00000      -999.25   2433.00080   1194.42137   3164.06300     58.00000   3439.99926      1.20673      0.00000      0.00000      -999.25      0.00000      -999.25      0.37475      0.99932
       2080.56480   2006.79764     44.98156      7.16376      8.01023    257.25345     41.76955     17.56278    100.34740    135.00000    270.00000   2408.99995   1198.26693   3164.06300     58.00000   3439.99926      1.20665      0.00000      0.00000      0.00000      0.00000     23.98373      0.49966      0.74949
       2080.71720   2006.94238     42.58466      8.97469      7.87038    253.32745     49.06897     17.04289    100.29650      -999.25      -999.25   2396.99953   1198.52317      -999.25     58.00000   3441.99933      1.20726      0.00000      0.00000      0.00000      -999.25     15.98915      -999.25      -999.25
       2080.86960   2007.08712     40.53852      9.37869      7.72385    254.60856     46.38061     19.08198    127.88900    131.50000    294.00000   2438.99956   1200.57394   3164.06300     58.00000   3441.99933      1.20716      0.00000      0.00000      0.00000      0.00000     15.98915      0.49966      0.99932
       2081.02200   2007.23187     37.29395      8.69356      7.55739    255.61387     45.21064     15.50131    139.74860    162.00000    300.00000   2421.00038   1201.08696   3164.06300     58.00000   3441.00002      1.20674      0.00000      0.00000      0.00000      0.00000     15.98915      0.37475      0.99932
       2081.17440   2007.37661     39.58690      9.74270      7.40211    256.53959     43.82239     16.67397    139.98730    145.00000      -999.25   2400.00036   1201.08696   3125.00000     58.00000   3441.99933      1.20704      0.00000      1.00000      -999.25      -999.25      -999.25      0.37475      0.99932
       2081.32680   2007.52136     44.68600      8.01816      7.24951    254.04704     47.18979     14.98565    140.01190    160.00000    102.00000   2408.99995   1201.08696   3164.06300     58.00000   3439.99926      1.20622      0.00000      0.00000      0.00000      0.00000      0.00000      0.49966      0.99932
       2081.47920   2007.66610     47.01633      8.27166      7.10203    254.97276     44.79432     14.96649    139.92050      -999.25    279.00000   2411.99933   1198.01041      -999.25     58.00000   3438.00064      1.20543      0.00000      0.00000      -999.25      1.00000      -999.25      0.49966      0.99932
       2081.63160   2007.81085     50.51586      7.80374      6.93784    250.97777     49.74292     17.87101    139.90010    193.00000    315.00000   2373.00014   1201.85623   3144.53100     58.00000   3438.00064      1.20537      0.00000      0.00000      0.00000      -999.25     39.97288      -999.25      -999.25
       2081.78400   2007.95559     50.99815      7.40299      6.84239    252.97053     47.75872     14.82650    139.66330     84.50000      -999.25   2345.99991   1198.52317   3144.53100     58.00000   3438.00064      1.20523      0.00000      0.00000      0.00000      1.00000     23.98373      -999.25      -999.25
       2081.93640   2008.10034     45.88607      7.67932      6.65248    254.35723     45.02300     16.12762    139.67280      -999.25    324.00000   2402.99974   1197.49766      -999.25     58.00000   3436.99988      1.20478      0.00000      0.00000      -999.25      1.00000      -999.25      0.49966      0.99932
       2082.08880   2008.24508     42.82175      7.02875      6.48873    250.82168     50.41498     23.22222    119.77150    152.00000    321.00000   2423.99976   1197.49766      -999.25     58.00000   3438.00064      1.20511      0.00000      0.00000      -999.25      -999.25      -999.25      -999.25      0.99932
       2082.24120   2008.38983     38.15786      8.64922      6.33709    251.26150     49.97599     17.10710    119.71610      -999.25      -999.25   2394.00015   1200.83045   3125.00000     58.00000   3438.99995      1.20537      0.00000      0.00000      0.00000      -999.25      0.00000      -999.25      -999.25
       2082.39360   2008.53458     33.48099      8.51123      6.18371    250.39883     51.32955     23.72421    109.84510    104.00000      -999.25   2438.99956   1194.42137   3125.00000     58.00000   3438.00064      1.20490      0.00000      0.00000      0.00000      0.00000      0.00000      0.24983      0.74949
       2082.54600   2008.67932     36.97241      9.02257      6.04054    256.70427     43.46491     19.81343    109.95580      -999.25    180.00000   2349.00074   1194.67788      -999.25     58.00000   3437.38133      1.20460      0.00000      1.00000      -999.25      -999.25      -999.25      -999.25      -999.25
       2082.69840   2008.82407     40.91852      9.11816      5.87859    259.84718     43.86441     18.56214    109.95380      -999.25      -999.25   2417.99955   1201.85597   3164.06300     58.00000   3436.99988      1.20438      0.00000      1.00000      0.00000      -999.25     23.98373      -999.25      -999.25
       2082.85080   2008.96882     39.34008     11.30449      5.67850    253.87222     48.75247     18.56248    110.00100      -999.25     36.00000   2417.99955   1201.08696   3242.18800     58.00000   3436.99988      1.20429      0.00000      0.00000      0.00000      -999.25     23.98373      -999.25      -999.25
       2083.00320   2009.11356     33.91295     12.39711      5.56917    249.31791     53.19283     18.99353    109.88190     54.00000      -999.25   2433.00080   1201.85597      -999.25     58.00000   3436.99988      1.20418      0.00000      0.00000      -999.25      0.00000      -999.25      0.37475      0.99932
       2083.15560   2009.25831     31.98374     12.95036      5.43311    248.20545     52.85905     18.49643    109.97580    129.50000    294.00000   2394.00015   1201.08670      -999.25     58.00000   3436.00057      1.20377      0.00000      0.00000      -999.25      0.00000      -999.25      0.37475      -999.25
       2083.30800   2009.40306     39.12815     16.61862      5.27345    247.28172     53.92337     21.43213    109.16650      -999.25      -999.25   2457.00019   1201.34321      -999.25     58.00000   3438.00064      1.20440      0.00000      0.00000      0.00000      -999.25     15.98915      0.37475      0.99932
       2083.46040   2009.54781     44.59669     15.17540      5.11326    249.43056     52.56596     21.25805    109.35550      -999.25      -999.25   2453.99936   1196.98516   3203.12500     58.00000   3436.99988      1.20398      0.00000      0.00000      -999.25      -999.25      -999.25      -999.25      -999.25
       2083.61280   2009.69256     41.73453     18.69251      5.00443    248.38932     52.50064     17.70784    109.59700     86.00000    300.00000   2448.00060   1196.21589      -999.25     58.00000   3436.99988      1.20390      0.00000      0.00000      -999.25      -999.25      -999.25      -999.25      0.74949
       2083.76520   2009.83731     40.94288     19.55299      4.77910    246.93096     54.27095     19.74133    109.92700      -999.25      -999.25   2426.99914      -999.25   3203.12500     58.00000   3439.99926      1.20481      0.00000      0.00000      -999.25      0.00000      -999.25      -999.25      -999.25
       2083.91760   2009.98206     45.19104     20.59196      4.66212    249.12853     51.43971     15.98318    110.37160    132.00000      -999.25   2465.99978   1201.34321   3222.65600     58.00000   3437.43499      1.20384      0.00000      1.00000      0.00000      0.00000     15.98915      0.37475      0.99932
       2084.07000   2010.12681     47.03988     14.25469      4.52517    245.65493     56.05244     15.33158    109.76100     59.00000    299.00000   2489.99918   1198.77968   3242.18800     59.00000   3439.99926      1.20464      0.00000      0.00000      -999.25      -999.25      -999.25      0.49966      0.99932
       2084.22240   2010.27156     46.92050     13.49821      4.35306    249.75266     50.96539     22.52734    110.18160    172.00000    300.00000   2474.99938   1198.01041      -999.25     59.00000   3441.00002      1.20493      0.00000      0.00000      0.00000      1.00000     15.98915      0.49966      0.99932
