~VERSION INFORMATION 
VERS  .    2.0                                     :CWLS Log ASCII Standard - VERSION 2.0
WRAP  .    NO                                      :One Line per Depth step
PROD  .    Schlumberger Technology Corp.           :LAS Producer
PROG  .    Horizon LASWriter 6.2.68624.3100        :LAS Program name and version
SOURCE.    17.5in Section-Drilling                 :Run&Pass Information
CREA  .    12/12/2016                              :LAS Creation date {MM/DD/YYYY}
#--------------------------------------------------
~WELL INFORMATION 
#MNEM           .UNIT                      DATA            :DESCRIPTION
#----            ------          --------------            -----------------------------
STRT            .m                    344.88120            :START DEPTH
STOP            .m                   2348.02680            :STOP DEPTH
STEP            .m                       0.1524            :STEP
NULL            .                       -999.25            :NULL VALUE
COMP            .                Woodside Energy Ltd       :COMPANY
WELL            .                         KDA02            :WELL NAME
FLD             .                      Dockrell            :FIELD NAME
RIGN            .                 Atwood Osprey            :Rig Name
RIGTYP          .                Semi-Submersible          :Rig Type
SON             .                     16AWA0071            :Service Order Number
SRVC            .                  Schlumberger            :SERVICE COMPANY
DATE            .                    11/12/2016            :LOG DATE(Composite Date for Composite LAP) (MM/DD/YYYY)
CLAB            .                       County:            :County Label
CNTY            .                                          :COUNTY
SLAB            .                        State:            :State/Province Label
STAT            .                Western Australia         :STATE or PROVINCE
PROV            .                Western Australia         :STATE or PROVINCE
CTRY            .                     Australia            :COUNTRY
CONT_REGION     .                   Australasia            :Continent Region
SECT            .                                          :Section
TOWN            .                                          :Township
RANG            .                                          :Range
API             .                                          :API NUMBER
UWI             .                     16AWA0071            :UNIQUE WELL ID
LUL             .                 Below Helipad            :Logging Unit Location
LUN             .                   OLU-MB 8047            :Logging Unit Number
LOC             .                 Dampier Basin            :FIELD LOCATION
FL1             .                X: E 372778.040m          :Field Location Line 1
FL2             .                Y: N 7814860.760 m        :Field Location Line 2
LATI            .deg             19° 45' 28.198" S         :LATITUDE
LONG            .deg             115° 47' 8.544" E         :LONGITUDE
PDAT            .                         OTHER            :Local Permanent Datum
LMF             .                            DF            :Logging Measured From
APD             .m                     28.70000            :Elevation of Depth Reference (LMF) Above Permanent Datum
EPD             .m                     -1.60000            :Elevation of Permanent Datum (PDAT) above Mean Sea Level
EKB             .m                      -999.25            :Elevation of Kelly Bushing Above Permanent Datum
EDF             .m                     28.70000            :Elevation of Drill Floor Above Permanent Datum
EGL             .m                   -122.00000            :Elevation of Ground Level Above Permanent Datum
ECF             .m                      -999.25            :Elevation of Casing Flange above Permanent Datum
#--------------------------------------------------
~CURVE INFORMATION
#MNEM           .UNIT                  API CODE            :DESCRIPTION
#----            ------          --------------            -----------------------------
DEPT            .m                                         :                                                        Depth Index
TVD             .m                                         :(RT)    (DnMWorkflow)           (6in)                   True Vertical Depth
GR              .gAPI                                      :(RM)    (ARC9)                  (6in)                   Gamma Ray
ROP5            .m/h                                       :(RT)    (DRILLING_SURFACE)      (6in)                   Rate of penetration averaged over the last 5 ft (1.5 m)
BLKP            .m                                         :(RT)    (DRILLING_SURFACE)      (6in)                   Height of block above rig floor
HKLA            .1000 lbf                                  :(RT)    (DRILLING_SURFACE)      (6in)                   Average Hookload
SWOB            .1000 lbf                                  :(RT)    (DRILLING_SURFACE)      (6in)                   Surface Weight On Bit
STOR            .1000 ft.lbf                               :(RT)    (DRILLING_SURFACE)      (6in)                   Surface Torque
RPM             .c/min                                     :(RT)    (DRILLING_SURFACE)      (6in)                   Rotational Speed
CRPM            .c/min                                     :(RT)    (TELE900)               (6in)                   Collar Rotational Speed
STICK           .c/min                                     :(RT)    (TELE900)               (6in)                   Stick Slip Indicator
SPPA            .psi                                       :(RT)    (DRILLING_SURFACE)      (6in)                   Standpipe Pressure
TFLO            .gal/min                                   :(RT)    (DRILLING_SURFACE)      (6in)                   Total flow rate of all active pumps
TRPM            .c/min                                     :(RT)    (TELE900)               (6in)                   MWD Turbine Rotation Speed
DHAT            .degC                                      :(RM)    (ARC9)                  (6in)                   Downhole Annulus Temperature
DHAP            .psi                                       :(RM)    (ARC9)                  (6in)                   Downhole Annulus Pressure
ECD             .g/cm3                                     :(RM)    (ARC9)                  (6in)                   Equivalent Circulating Density
COBTM           .                                          :(RT)    (DRILLING_SURFACE)      (6in)                   Composite On Bottom Status
SHKL            .                                          :(RM)    (ARC9)                  (6in)                   Tool Shock Level
SHKRSK          .                                          :(RT)    (TELE900)               (6in)                   Shock Risk
SHKRSK          .                                          :(RT)    (PDORBIT_900)           (6in)                   Shock Risk
SHKPK           .gn                                        :(RT)    (TELE900)               (6in)                   Shock Peak
VIB_X           .gn                                        :(RT)    (TELE900)               (6in)                   RMS Vibration, X-Axis
VIB_LAT         .gn                                        :(RT)    (TELE900)               (6in)                   Transverse RMS Vibration
#-------------------------------------------------------------
#            DEPT          TVD           GR         ROP5         BLKP         HKLA         SWOB         STOR          RPM         CRPM        STICK         SPPA         TFLO         TRPM         DHAT         DHAP          ECD        COBTM         SHKL       SHKRSK       SHKRSK        SHKPK        VIB_X      VIB_LAT 
#                  (DnMWorkfl)       (ARC9)  (DRILLING_)  (DRILLING_)  (DRILLING_)  (DRILLING_)  (DRILLING_)  (DRILLING_)    (TELE900)    (TELE900)  (DRILLING_)  (DRILLING_)    (TELE900)       (ARC9)       (ARC9)       (ARC9)  (DRILLING_)       (ARC9)    (TELE900)  (PDORBIT_9)    (TELE900)    (TELE900)    (TELE900) 
#                         (RT)         (RM)         (RT)         (RT)         (RT)         (RT)         (RT)         (RT)         (RT)         (RT)         (RT)         (RT)         (RT)         (RM)         (RM)         (RM)         (RT)         (RM)         (RT)         (RT)         (RT)         (RT)         (RT) 
#                        (6in)        (6in)        (6in)        (6in)        (6in)        (6in)        (6in)        (6in)        (6in)        (6in)        (6in)        (6in)        (6in)        (6in)        (6in)        (6in)        (6in)        (6in)        (6in)        (6in)        (6in)        (6in)        (6in) 
~ASCII
# ...
       1545.48840   1497.67749     36.66008     66.73838     15.45418    247.93517     23.55604     12.05236    139.97760      -999.25      -999.25   2091.00036   1043.42011      -999.25     49.00000   2682.00014      1.26109      0.00000      0.00000      -999.25      -999.25      -999.25      -999.25      -999.25
       1545.64080   1497.82270     38.54875     72.84958     15.24507    247.12254     24.04613     12.07103    139.95510      -999.25      -999.25   2156.99979   1191.85758      -999.25     49.00000   2684.99952      1.26240      0.00000      0.00000      -999.25      -999.25      -999.25      -999.25      -999.25
       1545.79320   1497.96790     43.00409     73.23387     15.12325    247.59786     23.15017     11.92017    140.04960    139.00000      -999.25   2228.99942   1194.16486   3125.00000     49.00000   2684.00021      1.26174      0.00000      0.00000      -999.25      -999.25      -999.25      -999.25      -999.25
       1545.94560   1498.11311     43.87579     74.56004      -999.25      -999.25      -999.25      -999.25      -999.25      -999.25      -999.25      -999.25      -999.25      -999.25     49.00000   2684.99952      1.26213      -999.25      0.00000      -999.25      -999.25      -999.25      -999.25      -999.25
       1546.09800   1498.25831     45.64339     84.84621     14.88359    254.45203     16.82235      9.73001    140.02400      -999.25     39.00000   2165.99938      -999.25      -999.25     49.00000   2685.58692      1.26229      0.00000      0.00000      -999.25      0.00000      -999.25      -999.25      -999.25
       1546.25040   1498.40351     50.51037    100.40850     14.70499    256.22940     13.85321     10.07885    140.03170      -999.25      -999.25   1923.00025   1057.26404      -999.25     49.00000   2686.00028      1.26240      0.00000      0.00000      -999.25      -999.25      -999.25      0.12492      -999.25
       1546.40280   1498.54872     51.79371     87.43713     14.53458    251.69383     20.12581     10.85281    140.02670      -999.25      -999.25   2066.99952      -999.25      -999.25     49.00000   2686.00028      1.26222      0.00000      0.00000      -999.25      -999.25      -999.25      -999.25      0.74949
       1546.55520   1498.69392     51.04308    104.24100     14.34229    250.87415     20.71117     11.08219    139.92440      -999.25      -999.25   2154.00040   1198.26693      -999.25     49.00000   2686.00028      1.26210      0.00000      0.00000      -999.25      -999.25      -999.25      -999.25      -999.25
       1546.70760   1498.83912     50.94623     97.30584     14.21265    249.60605     21.97787     11.60123    139.95930      -999.25      -999.25   1910.99983   1069.05695      -999.25     49.00000   2686.00028      1.26199      0.00000      0.00000      -999.25      -999.25      -999.25      -999.25      -999.25
       1546.86000   1498.98433     52.78648     84.57700     14.02448    248.17878     23.27008     11.24725    140.02270      -999.25      -999.25   1994.99988   1114.17806      -999.25     49.00000   2686.00028      1.26193      0.00000      0.00000      0.00000      -999.25      0.00000      -999.25      -999.25
       1547.01240   1499.12953     60.14747    100.57730     13.91031    247.91819     23.13110     11.08186    139.95840      -999.25      -999.25   2049.00033   1175.45012      -999.25     49.00000   2688.00035      1.26265      0.00000      0.00000      -999.25      -999.25      -999.25      -999.25      -999.25
       1547.16480   1499.27473     67.89589     87.41133     13.69366    248.24646     22.74668     12.03870    139.98460      -999.25      -999.25   2219.99983   1194.67788      -999.25     49.00000   2688.00035      1.26257      0.00000      0.00000      -999.25      -999.25      -999.25      -999.25      -999.25
       1547.31720   1499.41993     72.10909     88.61494     13.60714    255.34160     16.27855      9.57034    139.91620      -999.25      -999.25   1856.99938   1091.36099   2890.62500     49.00000   2688.00035      1.26242      0.00000      0.00000      -999.25      -999.25      -999.25      -999.25      -999.25
       1547.46960   1499.56513     75.40216     84.60928     13.45073    253.78205     17.16442     12.11119    139.94410    146.00000      -999.25   1868.99980   1067.00618      -999.25     49.00000   2688.00035      1.26226      0.00000      0.00000      -999.25      -999.25      -999.25      -999.25      -999.25
       1547.62200   1499.71033     76.80656     74.29726     13.25559    253.63257     18.41594     10.22315    139.93730      -999.25      -999.25   2051.99971      -999.25      -999.25     49.00000   2688.99966      1.26270      0.00000      0.00000      -999.25      0.00000      -999.25      0.12492      0.74949
       1547.77440   1499.85553     76.08015     75.15012     13.08009    252.62837     19.00068     12.00329    139.91690      -999.25     66.00000   2087.99953   1190.57582      -999.25     49.00000   2688.99966      1.26254      0.00000      0.00000      -999.25      -999.25      -999.25      -999.25      -999.25
       1547.92680   1500.00073     73.80405     86.57042     12.93401    252.18855     19.04167     11.78528    140.05710      -999.25      -999.25   2165.99938      -999.25      -999.25     49.00000   2688.00035      1.26201      0.00000      0.00000      0.00000      -999.25      0.00000      -999.25      -999.25
       1548.07920   1500.14593     68.86443     72.46068     12.80604    254.78912     16.40164     10.69160    140.08600      -999.25      -999.25   2171.99959   1193.39586      -999.25     49.00000   2689.48553      1.26253      0.00000      0.00000      -999.25      -999.25      -999.25      -999.25      -999.25
       1548.23160   1500.29113     63.87639     73.00816     12.69021    253.64293     16.84773     10.68941    140.00460      -999.25      -999.25   2249.99943   1194.67788      -999.25     49.00000   2688.99966      1.26215      0.00000      0.00000      -999.25      -999.25      -999.25      -999.25      -999.25
       1548.38400   1500.43633     62.42357     71.40468     12.55661    252.81157     18.35169     11.02638    140.01390      -999.25      -999.25   2258.99902   1195.70314   3125.00000     49.00000   2689.48989      1.26228      0.00000      0.00000      -999.25      -999.25      -999.25      -999.25      -999.25
       1548.53640   1500.58153     63.44053     71.62037     12.34464    252.34397     18.96796     10.78262    139.94560      -999.25      -999.25   2201.99919   1198.01041      -999.25     49.00000   2690.00042      1.26245      0.00000      0.00000      -999.25      -999.25      -999.25      -999.25      -999.25
       1548.68880   1500.72672     68.57385     79.96136     12.24971    251.96367     19.33384     11.29638    139.94440      -999.25      -999.25   2219.99983   1197.49766      -999.25     49.00000   2690.00042      1.26228      0.00000      0.00000      -999.25      -999.25      -999.25      -999.25      -999.25
       1548.84120   1500.87192     75.07931     68.50567     12.07645    253.98950     17.75007     10.36248    139.99200    135.00000     27.00000   2253.00026   1199.03593      -999.25     49.00000   2692.00049      1.26315      0.00000      0.00000      -999.25      -999.25      -999.25      -999.25      -999.25
       1548.99360   1501.01712     72.43192     66.07449     11.93210    253.09288     18.05370     11.26549    140.02290      -999.25      -999.25   2306.99926   1198.77968      -999.25     49.00000   2692.00049      1.26296      0.00000      0.00000      0.00000      0.00000      0.00000      0.12492      0.74949
       1549.14600   1501.16231     66.74976     67.26723     11.78277    253.09332     18.26562     10.66103    139.93870      -999.25      -999.25   2291.99946   1198.77968      -999.25     49.00000   2692.00049      1.26287      0.00000      0.00000      -999.25      -999.25      -999.25      -999.25      -999.25
       1549.29840   1501.30751     65.13551     66.06445     11.62236    252.65593     18.14988     10.83109    139.95480      -999.25      -999.25   2255.99964   1201.85597      -999.25     49.00000   2692.00049      1.26269      0.00000      0.00000      -999.25      -999.25      -999.25      -999.25      -999.25
