~VERSION INFORMATION 
VERS  .    2.0                                     :CWLS Log ASCII Standard - VERSION 2.0
WRAP  .    NO                                      :One Line per Depth step
PROD  .    Schlumberger Technology Corp.           :LAS Producer
PROG  .    Horizon LASWriter 6.2.68624.3100        :LAS Program name and version
SOURCE.    17.5in Section-Drilling                 :Run&Pass Information
CREA  .    12/12/2016                              :LAS Creation date {MM/DD/YYYY}
#--------------------------------------------------
~WELL INFORMATION 
#MNEM           .UNIT                      DATA            :DESCRIPTION
#----            ------          --------------            -----------------------------
STRT            .m                    344.88120            :START DEPTH
STOP            .m                   2348.02680            :STOP DEPTH
STEP            .m                       0.1524            :STEP
NULL            .                       -999.25            :NULL VALUE
COMP            .                Woodside Energy Ltd       :COMPANY
WELL            .                         KDA02            :WELL NAME
FLD             .                      Dockrell            :FIELD NAME
RIGN            .                 Atwood Osprey            :Rig Name
RIGTYP          .                Semi-Submersible          :Rig Type
SON             .                     16AWA0071            :Service Order Number
SRVC            .                  Schlumberger            :SERVICE COMPANY
DATE            .                    11/12/2016            :LOG DATE(Composite Date for Composite LAP) (MM/DD/YYYY)
CLAB            .                       County:            :County Label
CNTY            .                                          :COUNTY
SLAB            .                        State:            :State/Province Label
STAT            .                Western Australia         :STATE or PROVINCE
PROV            .                Western Australia         :STATE or PROVINCE
CTRY            .                     Australia            :COUNTRY
CONT_REGION     .                   Australasia            :Continent Region
SECT            .                                          :Section
TOWN            .                                          :Township
RANG            .                                          :Range
API             .                                          :API NUMBER
UWI             .                     16AWA0071            :UNIQUE WELL ID
LUL             .                 Below Helipad            :Logging Unit Location
LUN             .                   OLU-MB 8047            :Logging Unit Number
LOC             .                 Dampier Basin            :FIELD LOCATION
FL1             .                X: E 372778.040m          :Field Location Line 1
FL2             .                Y: N 7814860.760 m        :Field Location Line 2
LATI            .deg             19° 45' 28.198" S         :LATITUDE
LONG            .deg             115° 47' 8.544" E         :LONGITUDE
PDAT            .                         OTHER            :Local Permanent Datum
LMF             .                            DF            :Logging Measured From
APD             .m                     28.70000            :Elevation of Depth Reference (LMF) Above Permanent Datum
EPD             .m                     -1.60000            :Elevation of Permanent Datum (PDAT) above Mean Sea Level
EKB             .m                      -999.25            :Elevation of Kelly Bushing Above Permanent Datum
EDF             .m                     28.70000            :Elevation of Drill Floor Above Permanent Datum
EGL             .m                   -122.00000            :Elevation of Ground Level Above Permanent Datum
ECF             .m                      -999.25            :Elevation of Casing Flange above Permanent Datum
#--------------------------------------------------
~CURVE INFORMATION
#MNEM           .UNIT                  API CODE            :DESCRIPTION
#----            ------          --------------            -----------------------------
DEPT            .m                                         :                                                        Depth Index
TVD             .m                                         :(RT)    (DnMWorkflow)           (6in)                   True Vertical Depth
GR              .gAPI                                      :(RM)    (ARC9)                  (6in)                   Gamma Ray
ROP5            .m/h                                       :(RT)    (DRILLING_SURFACE)      (6in)                   Rate of penetration averaged over the last 5 ft (1.5 m)
BLKP            .m                                         :(RT)    (DRILLING_SURFACE)      (6in)                   Height of block above rig floor
HKLA            .1000 lbf                                  :(RT)    (DRILLING_SURFACE)      (6in)                   Average Hookload
SWOB            .1000 lbf                                  :(RT)    (DRILLING_SURFACE)      (6in)                   Surface Weight On Bit
STOR            .1000 ft.lbf                               :(RT)    (DRILLING_SURFACE)      (6in)                   Surface Torque
RPM             .c/min                                     :(RT)    (DRILLING_SURFACE)      (6in)                   Rotational Speed
CRPM            .c/min                                     :(RT)    (TELE900)               (6in)                   Collar Rotational Speed
STICK           .c/min                                     :(RT)    (TELE900)               (6in)                   Stick Slip Indicator
SPPA            .psi                                       :(RT)    (DRILLING_SURFACE)      (6in)                   Standpipe Pressure
TFLO            .gal/min                                   :(RT)    (DRILLING_SURFACE)      (6in)                   Total flow rate of all active pumps
TRPM            .c/min                                     :(RT)    (TELE900)               (6in)                   MWD Turbine Rotation Speed
DHAT            .degC                                      :(RM)    (ARC9)                  (6in)                   Downhole Annulus Temperature
DHAP            .psi                                       :(RM)    (ARC9)                  (6in)                   Downhole Annulus Pressure
ECD             .g/cm3                                     :(RM)    (ARC9)                  (6in)                   Equivalent Circulating Density
COBTM           .                                          :(RT)    (DRILLING_SURFACE)      (6in)                   Composite On Bottom Status
SHKL            .                                          :(RM)    (ARC9)                  (6in)                   Tool Shock Level
SHKRSK          .                                          :(RT)    (TELE900)               (6in)                   Shock Risk
SHKRSK          .                                          :(RT)    (PDORBIT_900)           (6in)                   Shock Risk
SHKPK           .gn                                        :(RT)    (TELE900)               (6in)                   Shock Peak
VIB_X           .gn                                        :(RT)    (TELE900)               (6in)                   RMS Vibration, X-Axis
VIB_LAT         .gn                                        :(RT)    (TELE900)               (6in)                   Transverse RMS Vibration
#-------------------------------------------------------------
#            DEPT          TVD           GR         ROP5         BLKP         HKLA         SWOB         STOR          RPM         CRPM        STICK         SPPA         TFLO         TRPM         DHAT         DHAP          ECD        COBTM         SHKL       SHKRSK       SHKRSK        SHKPK        VIB_X      VIB_LAT 
#                  (DnMWorkfl)       (ARC9)  (DRILLING_)  (DRILLING_)  (DRILLING_)  (DRILLING_)  (DRILLING_)  (DRILLING_)    (TELE900)    (TELE900)  (DRILLING_)  (DRILLING_)    (TELE900)       (ARC9)       (ARC9)       (ARC9)  (DRILLING_)       (ARC9)    (TELE900)  (PDORBIT_9)    (TELE900)    (TELE900)    (TELE900) 
#                         (RT)         (RM)         (RT)         (RT)         (RT)         (RT)         (RT)         (RT)         (RT)         (RT)         (RT)         (RT)         (RT)         (RM)         (RM)         (RM)         (RT)         (RM)         (RT)         (RT)         (RT)         (RT)         (RT) 
#                        (6in)        (6in)        (6in)        (6in)        (6in)        (6in)        (6in)        (6in)        (6in)        (6in)        (6in)        (6in)        (6in)        (6in)        (6in)        (6in)        (6in)        (6in)        (6in)        (6in)        (6in)        (6in)        (6in) 
~ASCII
# ...
        479.60280    479.57816     62.51409    190.90150     24.55152    205.44362      9.06627      3.55966    100.93340      -999.25     27.00000   1818.00018    929.07985      -999.25     37.00000    818.20400      1.20563      0.00000      0.00000      0.00000      -999.25      0.00000      -999.25      -999.25
        479.75520    479.73048     60.89815    141.00570     24.45084    205.15969      9.23245      3.92925    101.04370      -999.25      -999.25   1793.99934      -999.25      -999.25     37.00000    818.57834      1.20580      0.00000      0.00000      -999.25      -999.25      -999.25      -999.25      -999.25
        479.90760    479.88280     60.20560    140.42640     24.18923    205.09584      8.89840      2.97041    101.04910      -999.25      -999.25   1809.00059    925.23429      -999.25     37.00000    818.99997      1.20594      0.00000      0.00000      -999.25      -999.25      -999.25      -999.25      -999.25
        480.06000    480.03512     58.68199    190.18000     24.07120    205.16339      9.04630      4.31300    101.00150      -999.25      -999.25   1788.00057    924.97778      -999.25     37.00000    819.27597      1.20606      0.00000      0.00000      -999.25      -999.25      -999.25      -999.25      -999.25
        480.21240    480.18745     54.98839    149.93090     23.96447    205.54848      8.83077      4.17780    100.96980      -999.25      -999.25   1805.99976    928.56709      -999.25     37.00000    819.64495      1.20621      0.00000      0.00000      -999.25      -999.25      -999.25      -999.25      -999.25
        480.36480    480.33977     52.17203    145.83930     23.79106    205.91330      8.01745      4.10189    101.02060      -999.25      -999.25   1799.99955    928.82334      -999.25     37.00000    821.00004      1.20767      0.00000      0.00000      -999.25      -999.25      -999.25      -999.25      -999.25
        480.51720    480.49209     51.52565    143.72380     23.58971    205.94967      8.28058      3.16387    101.06540      -999.25      -999.25   1790.99995    927.28506      -999.25     37.00000    821.17510      1.20770      0.00000      0.00000      -999.25      -999.25      -999.25      -999.25      -999.25
        480.66960    480.64441     51.24863    151.34310     23.49501    203.19475     11.17629      4.30146    100.90260      -999.25      -999.25   1820.99956    924.72154      -999.25     37.00000    821.46329      1.20773      0.00000      0.00000      -999.25      -999.25      -999.25      -999.25      -999.25
        480.82200    480.79673     50.69460    148.72260     23.27436    204.21278      9.47206      3.90028    100.95650      -999.25      -999.25   1811.99997      -999.25      -999.25     37.00000    821.75148      1.20777      0.00000      0.00000      -999.25      -999.25      -999.25      -999.25      -999.25
        480.97440    480.94905     50.41757    147.63350     23.13428    204.94366      8.73658      3.18814    100.92340      -999.25      -999.25   1803.00038    929.07985   2578.12500     37.00000    822.00007      1.20766      0.00000      0.00000      -999.25      -999.25      -999.25      -999.25      -999.25
        481.12680    481.10137     51.01778    148.37270     23.02144    205.00543      9.26877      3.93476    100.93400      -999.25      -999.25   1790.99995    928.56709      -999.25     37.00000    822.99996      1.20881      0.00000      0.00000      -999.25      -999.25      -999.25      -999.25      -999.25
        481.27920    481.25369     52.54139    161.46620     22.86716    203.32538     10.65497      4.29937    101.09990      -999.25      -999.25   1799.99955    928.56709      -999.25     37.00000    823.28946      1.20888      0.00000      0.00000      -999.25      -999.25      -999.25      -999.25      -999.25
        481.43160    481.40601     54.38819    160.76650     22.74868    203.61330     10.45337      3.81772    100.91080      -999.25      -999.25   1818.00018    925.49081      -999.25     37.00000    823.60129      1.20895      0.00000      0.00000      -999.25      -999.25      -999.25      -999.25      -999.25
        481.58400    481.55833     55.91179    161.01570     22.61900    203.74406     10.27317      3.77311    101.08050      -999.25      -999.25   1793.99934    926.00330      -999.25     37.00000    824.00000      1.20904      0.00000      0.00000      -999.25      -999.25      -999.25      -999.25      -999.25
        481.73640    481.71065     56.51200    196.43940     22.41547    203.54194     10.81292      3.74725    100.90460    100.00000      -999.25   1788.00057    928.82334      -999.25     37.00000    824.30704      1.20922      0.00000      0.00000      -999.25      -999.25      -999.25      -999.25      -999.25
        481.88880    481.86297     56.37350    167.81430     22.29505    202.23987     12.22570      5.17084    100.97730      -999.25      -999.25   1814.99935    929.07985      -999.25     37.00000    824.74361      1.20948      0.00000      0.00000      -999.25      -999.25      -999.25      -999.25      -999.25
        482.04120    482.01529     56.69668    168.98480     22.05383    202.33235     11.56599      4.46060    101.06020      -999.25      -999.25   1793.99934    928.56709      -999.25     37.00000    825.00003      1.20963      0.00000      0.00000      -999.25      -999.25      -999.25      -999.25      -999.25
        482.19360    482.16761     57.75859    209.94960     21.94993    202.94530     10.92632      4.31104    100.95280      -999.25      -999.25   1818.00018      -999.25      -999.25     37.00000    825.99992      1.21052      0.00000      0.00000      -999.25      -999.25      -999.25      -999.25      -999.25
        482.34600    482.31993     58.22029    177.40440     21.80827    201.82577     12.85446      4.57137    100.97200      -999.25     27.00000   1818.00018    924.72154      -999.25     37.00000    826.99996      1.21169      0.00000      0.00000      -999.25      0.00000      -999.25      0.12492      -999.25
        482.49840    482.47225     57.34306    172.01370     21.67082    202.41125     11.41518      4.19988    100.96220      -999.25      -999.25   1809.00059      -999.25      -999.25     37.00000    827.35342      1.21176      0.00000      0.00000      -999.25      -999.25      -999.25      -999.25      0.00000
        482.65080    482.62457     56.00414    171.40260     21.45632    202.79627     11.51247      4.15534    100.97140      -999.25      -999.25   1814.99935    928.82334      -999.25     37.00000    827.66191      1.21183      0.00000      0.00000      -999.25      -999.25      -999.25      -999.25      -999.25
        482.80320    482.77689     54.61904    196.89290     21.36534    201.30314     12.81291      4.33145    100.92820      -999.25      -999.25   1814.99935    926.77257      -999.25     37.00000    827.99999      1.21190      0.00000      0.00000      0.00000      -999.25      0.00000      -999.25      -999.25
        482.95560    482.92920     53.04926    183.73930     21.21357    201.38778     13.10259      4.76684    100.95270      -999.25      -999.25   1805.99976    928.82334      -999.25     37.00000    827.99999      1.21169      0.00000      0.00000      -999.25      -999.25      -999.25      -999.25      -999.25
        483.10800    483.08152     52.86458    174.59270     21.08694    201.32049     12.55640      4.61277    100.96830      -999.25      -999.25   1814.99935    928.82334      -999.25     37.00000    828.66528      1.21215      0.00000      0.00000      -999.25      -999.25      -999.25      -999.25      -999.25
        483.26040    483.23384     54.06500    180.76630     20.86865    202.34478     11.71078      4.43872    101.02230      -999.25      -999.25   1797.00017      -999.25      -999.25     37.00000    829.00003      1.21238      0.00000      0.00000      -999.25      -999.25      -999.25      -999.25      -999.25
        483.41280    483.38616     54.68829    179.62820     20.75420    202.69684     11.32426      4.09496    100.95900      -999.25      -999.25   1832.99998    926.25981      -999.25     37.00000    830.99995      1.21483      0.00000      0.00000      -999.25      -999.25      -999.25      -999.25      -999.25
