~VERSION INFORMATION 
VERS  .    2.0                                     :CWLS Log ASCII Standard - VERSION 2.0
WRAP  .    NO                                      :One Line per Depth step
PROD  .    Schlumberger Technology Corp.           :LAS Producer
PROG  .    Horizon LASWriter 6.2.68624.3100        :LAS Program name and version
SOURCE.    17.5in Section-Drilling                 :Run&Pass Information
CREA  .    12/12/2016                              :LAS Creation date {MM/DD/YYYY}
#--------------------------------------------------
~WELL INFORMATION 
#MNEM           .UNIT                      DATA            :DESCRIPTION
#----            ------          --------------            -----------------------------
STRT            .m                    344.88120            :START DEPTH
STOP            .m                   2348.02680            :STOP DEPTH
STEP            .m                       0.1524            :STEP
NULL            .                       -999.25            :NULL VALUE
COMP            .                Woodside Energy Ltd       :COMPANY
WELL            .                         KDA02            :WELL NAME
FLD             .                      Dockrell            :FIELD NAME
RIGN            .                 Atwood Osprey            :Rig Name
RIGTYP          .                Semi-Submersible          :Rig Type
SON             .                     16AWA0071            :Service Order Number
SRVC            .                  Schlumberger            :SERVICE COMPANY
DATE            .                    11/12/2016            :LOG DATE(Composite Date for Composite LAP) (MM/DD/YYYY)
CLAB            .                       County:            :County Label
CNTY            .                                          :COUNTY
SLAB            .                        State:            :State/Province Label
STAT            .                Western Australia         :STATE or PROVINCE
PROV            .                Western Australia         :STATE or PROVINCE
CTRY            .                     Australia            :COUNTRY
CONT_REGION     .                   Australasia            :Continent Region
SECT            .                                          :Section
TOWN            .                                          :Township
RANG            .                                          :Range
API             .                                          :API NUMBER
UWI             .                     16AWA0071            :UNIQUE WELL ID
LUL             .                 Below Helipad            :Logging Unit Location
LUN             .                   OLU-MB 8047            :Logging Unit Number
LOC             .                 Dampier Basin            :FIELD LOCATION
FL1             .                X: E 372778.040m          :Field Location Line 1
FL2             .                Y: N 7814860.760 m        :Field Location Line 2
LATI            .deg             19° 45' 28.198" S         :LATITUDE
LONG            .deg             115° 47' 8.544" E         :LONGITUDE
PDAT            .                         OTHER            :Local Permanent Datum
LMF             .                            DF            :Logging Measured From
APD             .m                     28.70000            :Elevation of Depth Reference (LMF) Above Permanent Datum
EPD             .m                     -1.60000            :Elevation of Permanent Datum (PDAT) above Mean Sea Level
EKB             .m                      -999.25            :Elevation of Kelly Bushing Above Permanent Datum
EDF             .m                     28.70000            :Elevation of Drill Floor Above Permanent Datum
EGL             .m                   -122.00000            :Elevation of Ground Level Above Permanent Datum
ECF             .m                      -999.25            :Elevation of Casing Flange above Permanent Datum
#--------------------------------------------------
~CURVE INFORMATION
#MNEM           .UNIT                  API CODE            :DESCRIPTION
#----            ------          --------------            -----------------------------
DEPT            .m                                         :                                                        Depth Index
TVD             .m                                         :(RT)    (DnMWorkflow)           (6in)                   True Vertical Depth
GR              .gAPI                                      :(RM)    (ARC9)                  (6in)                   Gamma Ray
ROP5            .m/h                                       :(RT)    (DRILLING_SURFACE)      (6in)                   Rate of penetration averaged over the last 5 ft (1.5 m)
BLKP            .m                                         :(RT)    (DRILLING_SURFACE)      (6in)                   Height of block above rig floor
HKLA            .1000 lbf                                  :(RT)    (DRILLING_SURFACE)      (6in)                   Average Hookload
SWOB            .1000 lbf                                  :(RT)    (DRILLING_SURFACE)      (6in)                   Surface Weight On Bit
STOR            .1000 ft.lbf                               :(RT)    (DRILLING_SURFACE)      (6in)                   Surface Torque
RPM             .c/min                                     :(RT)    (DRILLING_SURFACE)      (6in)                   Rotational Speed
CRPM            .c/min                                     :(RT)    (TELE900)               (6in)                   Collar Rotational Speed
STICK           .c/min                                     :(RT)    (TELE900)               (6in)                   Stick Slip Indicator
SPPA            .psi                                       :(RT)    (DRILLING_SURFACE)      (6in)                   Standpipe Pressure
TFLO            .gal/min                                   :(RT)    (DRILLING_SURFACE)      (6in)                   Total flow rate of all active pumps
TRPM            .c/min                                     :(RT)    (TELE900)               (6in)                   MWD Turbine Rotation Speed
DHAT            .degC                                      :(RM)    (ARC9)                  (6in)                   Downhole Annulus Temperature
DHAP            .psi                                       :(RM)    (ARC9)                  (6in)                   Downhole Annulus Pressure
ECD             .g/cm3                                     :(RM)    (ARC9)                  (6in)                   Equivalent Circulating Density
COBTM           .                                          :(RT)    (DRILLING_SURFACE)      (6in)                   Composite On Bottom Status
SHKL            .                                          :(RM)    (ARC9)                  (6in)                   Tool Shock Level
SHKRSK          .                                          :(RT)    (TELE900)               (6in)                   Shock Risk
SHKRSK          .                                          :(RT)    (PDORBIT_900)           (6in)                   Shock Risk
SHKPK           .gn                                        :(RT)    (TELE900)               (6in)                   Shock Peak
VIB_X           .gn                                        :(RT)    (TELE900)               (6in)                   RMS Vibration, X-Axis
VIB_LAT         .gn                                        :(RT)    (TELE900)               (6in)                   Transverse RMS Vibration
#-------------------------------------------------------------
#            DEPT          TVD           GR         ROP5         BLKP         HKLA         SWOB         STOR          RPM         CRPM        STICK         SPPA         TFLO         TRPM         DHAT         DHAP          ECD        COBTM         SHKL       SHKRSK       SHKRSK        SHKPK        VIB_X      VIB_LAT 
#                  (DnMWorkfl)       (ARC9)  (DRILLING_)  (DRILLING_)  (DRILLING_)  (DRILLING_)  (DRILLING_)  (DRILLING_)    (TELE900)    (TELE900)  (DRILLING_)  (DRILLING_)    (TELE900)       (ARC9)       (ARC9)       (ARC9)  (DRILLING_)       (ARC9)    (TELE900)  (PDORBIT_9)    (TELE900)    (TELE900)    (TELE900) 
#                         (RT)         (RM)         (RT)         (RT)         (RT)         (RT)         (RT)         (RT)         (RT)         (RT)         (RT)         (RT)         (RT)         (RM)         (RM)         (RM)         (RT)         (RM)         (RT)         (RT)         (RT)         (RT)         (RT) 
#                        (6in)        (6in)        (6in)        (6in)        (6in)        (6in)        (6in)        (6in)        (6in)        (6in)        (6in)        (6in)        (6in)        (6in)        (6in)        (6in)        (6in)        (6in)        (6in)        (6in)        (6in)        (6in)        (6in) 
~ASCII
# ...
       1680.21000   1626.00297     43.10095     86.90285      3.34872    236.05446     43.67406     17.11217    139.99110      -999.25      -999.25   2144.99936      -999.25      -999.25     52.00000   2915.00036      1.26236      0.00000      0.00000      -999.25      -999.25      -999.25      -999.25      -999.25
       1680.36240   1626.14812     43.43996     85.08087      3.16047    236.10141     43.69291     16.68474    139.93420      -999.25      -999.25   2190.00022   1198.52317      -999.25     52.00000   2917.00043      1.26307      0.00000      0.00000      -999.25      -999.25      -999.25      -999.25      -999.25
       1680.51480   1626.29327     48.79927     87.81827      2.98529    230.85066     49.97747     18.05806    139.99020      -999.25      -999.25   2190.00022   1195.19038   3046.87500     52.00000   2917.00043      1.26298      0.00000      0.00000      -999.25      -999.25      -999.25      -999.25      -999.25
       1680.66720   1626.43842     56.38626     90.14291      2.89415    230.08191     50.23164     18.06618    139.98120      -999.25      -999.25   2133.00039   1197.49766      -999.25     52.00000   2917.00043      1.26284      0.00000      0.00000      -999.25      -999.25      -999.25      -999.25      -999.25
       1680.81960   1626.58358     56.41854     90.12815      2.75039    229.79487     50.01828     18.05847    140.00090    140.00000      -999.25   2141.99998   1196.98516      -999.25     52.00000   2917.99974      1.26312      0.00000      0.00000      -999.25      0.00000      -999.25      0.24983      0.74949
       1680.97200   1626.72873     48.67820     90.32818      2.57764    225.09947     53.83292     19.72306    140.01350      -999.25      -999.25   2156.99979   1197.24141      -999.25     52.00000   2917.99974      1.26300      0.00000      0.00000      -999.25      -999.25      -999.25      -999.25      -999.25
       1681.12440   1626.87388     42.68124     90.05286      2.41331    225.84749     53.84143     18.90009    139.97910      -999.25     24.00000   2156.99979   1198.01041      -999.25     52.00000   2918.57264      1.26318      0.00000      0.00000      0.00000      -999.25      0.00000      -999.25      -999.25
       1681.27680   1627.01903     41.12349     88.87258      2.25594    226.16474     52.69976     19.32915    139.98400      -999.25      -999.25   2133.00039   1200.57394   3046.87500     52.00000   2919.99981      1.26365      0.00000      0.00000      -999.25      -999.25      -999.25      -999.25      -999.25
       1681.42920   1627.16419     41.17999     63.54951      2.14095    225.69052     55.57675     19.19962    139.95520      -999.25      -999.25   2184.00001   1200.83072      -999.25     52.00000   2919.99981      1.26360      0.00000      0.00000      -999.25      -999.25      -999.25      -999.25      -999.25
       1681.58160   1627.30934     41.43827     69.54296      1.94939    224.40721     54.71055     19.65020    139.99090      -999.25      -999.25   2201.99919   1201.59972      -999.25     52.00000   2921.99988      1.26428      0.00000      0.00000      -999.25      -999.25      -999.25      -999.25      -999.25
       1681.73400   1627.45449     41.16385     61.84629      1.76139    225.33404     54.02558     18.63143    140.02180      -999.25     42.00000   2154.00040   1199.80494      -999.25     52.00000   2921.00057      1.26373      0.00000      0.00000      -999.25      0.00000      -999.25      0.24983      0.74949
       1681.88640   1627.59964     46.15189     51.54636      1.53498    225.62615     53.58915     19.04526    139.98520    135.00000      -999.25   2184.00001   1201.59972      -999.25     52.00000   2921.00057      1.26363      0.00000      0.00000      0.00000      -999.25      0.00000      -999.25      -999.25
       1682.03880   1627.74480     58.81570     51.46358      1.38170    222.36794     57.02750     19.15252    140.01880    138.00000      -999.25   2177.99980   1200.57394      -999.25     52.00000   2921.00057      1.26356      0.00000      0.00000      -999.25      -999.25      -999.25      -999.25      -999.25
       1682.19120   1627.88995     69.20343     49.82960      1.23181    224.07498     54.34412     19.01850    140.01020      -999.25     30.00000   2169.00021   1201.08670   3007.81300     52.00000   2923.00064      1.26430      0.00000      0.00000      -999.25      -999.25      -999.25      -999.25      -999.25
       1682.34360   1628.03510     74.26411     46.27378      1.11927    224.72931     56.03597     19.62914    139.98350    125.00000      -999.25   2201.99919   1200.83072   3046.87500     52.00000   2923.00064      1.26420      0.00000      0.00000      0.00000      0.00000      0.00000      0.24983      -999.25
       1682.49600   1628.18026     80.34177     46.68606      0.93668    226.07523     52.78733     19.20667    140.00810    136.00000      9.00000   2207.99940   1201.08696      -999.25     52.00000   2923.00064      1.26411      0.00000      0.00000      0.00000      -999.25      0.00000      -999.25      0.74949
       1682.64840   1628.32541     85.86252     23.44529     41.19290    257.49221     24.73981     13.14199    139.94110      -999.25      -999.25   2196.00043   1200.31769      -999.25     52.00000   2924.21461      1.26450      0.00000      0.00000      -999.25      0.00000      -999.25      0.12492      0.74949
       1682.80080   1628.47056     82.27888     21.41589     41.03909    254.53118     27.14695     13.29499    139.95120      -999.25      -999.25   2228.99942   1201.34321   3046.87500     52.00000   2923.00064      1.26380      0.00000      0.00000      -999.25      -999.25      -999.25      -999.25      -999.25
       1682.95320   1628.61572     73.22292     21.97410     40.89536    248.82120     33.04242     14.10554    139.94900      -999.25     18.00000   2186.99939   1201.08696      -999.25     52.00000   2925.00071      1.26458      0.00000      0.00000      -999.25      0.00000      -999.25      0.24983      0.74949
       1683.10560   1628.76087     62.42357     21.29576     40.73476    251.48020     29.55738     14.61313    139.95070    139.00000      -999.25   2213.99962   1200.83072      -999.25     52.00000   2925.00071      1.26445      0.00000      0.00000      -999.25      -999.25      -999.25      -999.25      -999.25
       1683.25800   1628.90602     52.64120     21.04764     40.58111    253.97914     28.05074     13.77279    139.94720      -999.25      -999.25   2192.99960   1200.57420      -999.25     52.00000   2925.00071      1.26434      0.00000      0.00000      0.00000      -999.25      0.00000      -999.25      -999.25
       1683.41040   1629.05118     53.17389     21.79409     40.43541    253.19209     28.26628     14.62415    139.95280      -999.25      -999.25   2228.99942   1197.24141      -999.25     52.00000   2926.00002      1.26474      0.00000      0.00000      -999.25      -999.25      -999.25      -999.25      -999.25
       1683.56280   1629.19633     57.70187     20.75852     40.27227    257.31782     24.85999     13.33627    139.97190    139.00000     24.00000   2184.00001   1201.85597   3046.87500     52.00000   2926.00002      1.26459      0.00000      0.00000      -999.25      0.00000      -999.25      -999.25      -999.25
       1683.71520   1629.34149     58.06507     21.07028     40.09171    256.34492     26.64868     14.28316    139.93520      -999.25      -999.25   2226.00004   1200.57420      -999.25     52.00000   2925.00071      1.26403      0.00000      0.00000      -999.25      -999.25      -999.25      0.24983      -999.25
       1683.86760   1629.48664     56.20062     20.83829     39.97164    254.43704     28.32038     14.49040    139.99220      -999.25      -999.25   2177.99980   1201.08696      -999.25     52.00000   2927.00078      1.26478      0.00000      0.00000      0.00000      -999.25      0.00000      -999.25      0.74949
       1684.02000   1629.63180     53.02861     20.87876     39.84164    252.59177     29.65850     15.30539    139.98340      -999.25      -999.25   2226.00004   1200.06145   3085.93800     52.34938   2925.00071      1.26382      0.00000      0.00000      -999.25      -999.25      -999.25      -999.25      -999.25
