~VERSION INFORMATION 
VERS  .    2.0                                     :CWLS Log ASCII Standard - VERSION 2.0
WRAP  .    NO                                      :One Line per Depth step
PROD  .    Schlumberger Technology Corp.           :LAS Producer
PROG  .    Horizon LASWriter 6.2.68624.3100        :LAS Program name and version
SOURCE.    17.5in Section-Drilling                 :Run&Pass Information
CREA  .    12/12/2016                              :LAS Creation date {MM/DD/YYYY}
#--------------------------------------------------
~WELL INFORMATION 
#MNEM           .UNIT                      DATA            :DESCRIPTION
#----            ------          --------------            -----------------------------
STRT            .m                    344.88120            :START DEPTH
STOP            .m                   2348.02680            :STOP DEPTH
STEP            .m                       0.1524            :STEP
NULL            .                       -999.25            :NULL VALUE
COMP            .                Woodside Energy Ltd       :COMPANY
WELL            .                         KDA02            :WELL NAME
FLD             .                      Dockrell            :FIELD NAME
RIGN            .                 Atwood Osprey            :Rig Name
RIGTYP          .                Semi-Submersible          :Rig Type
SON             .                     16AWA0071            :Service Order Number
SRVC            .                  Schlumberger            :SERVICE COMPANY
DATE            .                    11/12/2016            :LOG DATE(Composite Date for Composite LAP) (MM/DD/YYYY)
CLAB            .                       County:            :County Label
CNTY            .                                          :COUNTY
SLAB            .                        State:            :State/Province Label
STAT            .                Western Australia         :STATE or PROVINCE
PROV            .                Western Australia         :STATE or PROVINCE
CTRY            .                     Australia            :COUNTRY
CONT_REGION     .                   Australasia            :Continent Region
SECT            .                                          :Section
TOWN            .                                          :Township
RANG            .                                          :Range
API             .                                          :API NUMBER
UWI             .                     16AWA0071            :UNIQUE WELL ID
LUL             .                 Below Helipad            :Logging Unit Location
LUN             .                   OLU-MB 8047            :Logging Unit Number
LOC             .                 Dampier Basin            :FIELD LOCATION
FL1             .                X: E 372778.040m          :Field Location Line 1
FL2             .                Y: N 7814860.760 m        :Field Location Line 2
LATI            .deg             19° 45' 28.198" S         :LATITUDE
LONG            .deg             115° 47' 8.544" E         :LONGITUDE
PDAT            .                         OTHER            :Local Permanent Datum
LMF             .                            DF            :Logging Measured From
APD             .m                     28.70000            :Elevation of Depth Reference (LMF) Above Permanent Datum
EPD             .m                     -1.60000            :Elevation of Permanent Datum (PDAT) above Mean Sea Level
EKB             .m                      -999.25            :Elevation of Kelly Bushing Above Permanent Datum
EDF             .m                     28.70000            :Elevation of Drill Floor Above Permanent Datum
EGL             .m                   -122.00000            :Elevation of Ground Level Above Permanent Datum
ECF             .m                      -999.25            :Elevation of Casing Flange above Permanent Datum
#--------------------------------------------------
~CURVE INFORMATION
#MNEM           .UNIT                  API CODE            :DESCRIPTION
#----            ------          --------------            -----------------------------
DEPT            .m                                         :                                                        Depth Index
TVD             .m                                         :(RT)    (DnMWorkflow)           (6in)                   True Vertical Depth
GR              .gAPI                                      :(RM)    (ARC9)                  (6in)                   Gamma Ray
ROP5            .m/h                                       :(RT)    (DRILLING_SURFACE)      (6in)                   Rate of penetration averaged over the last 5 ft (1.5 m)
BLKP            .m                                         :(RT)    (DRILLING_SURFACE)      (6in)                   Height of block above rig floor
HKLA            .1000 lbf                                  :(RT)    (DRILLING_SURFACE)      (6in)                   Average Hookload
SWOB            .1000 lbf                                  :(RT)    (DRILLING_SURFACE)      (6in)                   Surface Weight On Bit
STOR            .1000 ft.lbf                               :(RT)    (DRILLING_SURFACE)      (6in)                   Surface Torque
RPM             .c/min                                     :(RT)    (DRILLING_SURFACE)      (6in)                   Rotational Speed
CRPM            .c/min                                     :(RT)    (TELE900)               (6in)                   Collar Rotational Speed
STICK           .c/min                                     :(RT)    (TELE900)               (6in)                   Stick Slip Indicator
SPPA            .psi                                       :(RT)    (DRILLING_SURFACE)      (6in)                   Standpipe Pressure
TFLO            .gal/min                                   :(RT)    (DRILLING_SURFACE)      (6in)                   Total flow rate of all active pumps
TRPM            .c/min                                     :(RT)    (TELE900)               (6in)                   MWD Turbine Rotation Speed
DHAT            .degC                                      :(RM)    (ARC9)                  (6in)                   Downhole Annulus Temperature
DHAP            .psi                                       :(RM)    (ARC9)                  (6in)                   Downhole Annulus Pressure
ECD             .g/cm3                                     :(RM)    (ARC9)                  (6in)                   Equivalent Circulating Density
COBTM           .                                          :(RT)    (DRILLING_SURFACE)      (6in)                   Composite On Bottom Status
SHKL            .                                          :(RM)    (ARC9)                  (6in)                   Tool Shock Level
SHKRSK          .                                          :(RT)    (TELE900)               (6in)                   Shock Risk
SHKRSK          .                                          :(RT)    (PDORBIT_900)           (6in)                   Shock Risk
SHKPK           .gn                                        :(RT)    (TELE900)               (6in)                   Shock Peak
VIB_X           .gn                                        :(RT)    (TELE900)               (6in)                   RMS Vibration, X-Axis
VIB_LAT         .gn                                        :(RT)    (TELE900)               (6in)                   Transverse RMS Vibration
#-------------------------------------------------------------
#            DEPT          TVD           GR         ROP5         BLKP         HKLA         SWOB         STOR          RPM         CRPM        STICK         SPPA         TFLO         TRPM         DHAT         DHAP          ECD        COBTM         SHKL       SHKRSK       SHKRSK        SHKPK        VIB_X      VIB_LAT 
#                  (DnMWorkfl)       (ARC9)  (DRILLING_)  (DRILLING_)  (DRILLING_)  (DRILLING_)  (DRILLING_)  (DRILLING_)    (TELE900)    (TELE900)  (DRILLING_)  (DRILLING_)    (TELE900)       (ARC9)       (ARC9)       (ARC9)  (DRILLING_)       (ARC9)    (TELE900)  (PDORBIT_9)    (TELE900)    (TELE900)    (TELE900) 
#                         (RT)         (RM)         (RT)         (RT)         (RT)         (RT)         (RT)         (RT)         (RT)         (RT)         (RT)         (RT)         (RT)         (RM)         (RM)         (RM)         (RT)         (RM)         (RT)         (RT)         (RT)         (RT)         (RT) 
#                        (6in)        (6in)        (6in)        (6in)        (6in)        (6in)        (6in)        (6in)        (6in)        (6in)        (6in)        (6in)        (6in)        (6in)        (6in)        (6in)        (6in)        (6in)        (6in)        (6in)        (6in)        (6in)        (6in) 
~ASCII
# ...
       1945.69080   1878.65274     47.69024     34.11189     23.02979    240.88545     60.33036     19.53998    120.03070      -999.25      -999.25   2169.00021   1102.12865      -999.25     57.00000   3342.00016      1.25238      0.00000      0.00000      -999.25      0.00000      -999.25      0.12492      -999.25
       1945.84320   1878.79756     47.39795     33.96019     22.89810    236.42153     64.06444     20.63761    120.10710      -999.25      -999.25   2175.00042   1100.07788      -999.25     57.00000   3340.99940      1.25182      0.00000      0.00000      0.00000      -999.25      0.00000      -999.25      0.49966
       1945.99560   1878.94238     55.58249     31.20290     22.76564    235.50573     65.51340     19.73108    119.90550      -999.25      -999.25   2192.99960   1102.89765   2968.75000     57.00000   3340.99940      1.25178      0.00000      0.00000      -999.25      -999.25      -999.25      -999.25      -999.25
       1946.14800   1879.08721     63.99842     31.17895     22.61375    236.12037     64.30472     19.32841    120.01620      -999.25      -999.25   2213.99962   1100.33412      -999.25     57.00000   3340.00009      1.25132      0.00000      0.00000      -999.25      -999.25      -999.25      -999.25      -999.25
       1946.30040   1879.23203     63.06060     35.28270     22.43158    235.68584     64.91487     20.08295    120.04350      -999.25      -999.25   2192.99960   1103.41041      -999.25     57.00000   3340.00009      1.25118      0.00000      0.00000      -999.25      0.00000      -999.25      0.24983      -999.25
       1946.45280   1879.37685     55.01004     45.52071     22.29875    238.30097     61.18535     19.04513    119.96530    117.00000     60.00000   2184.00001   1102.89765      -999.25     57.00000   3340.00009      1.25107      0.00000      0.00000      -999.25      -999.25      -999.25      -999.25      0.49966
       1946.60520   1879.52167     54.10876     42.61365     22.13052    236.75949     63.18627     18.72344    119.99740    111.00000      -999.25   2198.99981   1103.41041      -999.25     57.00000   3338.99933      1.25063      0.00000      0.00000      0.00000      -999.25      0.00000      -999.25      -999.25
       1946.75760   1879.66649     62.76830     42.47732     21.98910    235.48059     64.99688     19.81604    120.06640      -999.25     63.00000   2213.99962   1102.89765      -999.25     57.00000   3340.00009      1.25094      0.00000      0.00000      -999.25      -999.25      -999.25      -999.25      -999.25
       1946.91000   1879.81131     64.33944     43.67997     21.82547    236.68608     65.33106     19.40719    119.99160      -999.25      -999.25   2181.00063   1100.07761   2968.75000     57.00000   3342.00016      1.25157      0.00000      0.00000      -999.25      -999.25      -999.25      -999.25      -999.25
       1947.06240   1879.95613     57.80723     40.93471     21.68673    235.66710     64.81566     17.95164    120.04720      -999.25      -999.25   2205.00002   1103.15416      -999.25     57.00000   3340.99940      1.25108      0.00000      0.00000      0.00000      0.00000      0.00000      0.24983      0.49966
       1947.21480   1880.10095     56.59742     35.41348     21.52480    236.51169     63.84578     21.44994    119.97580      -999.25      -999.25   2219.99983   1104.17941   2968.75000     57.00000   3341.54910      1.25121      0.00000      0.00000      -999.25      0.00000      -999.25      0.24983      -999.25
       1947.36720   1880.24577     60.53542     33.57014     21.36984    236.97422     64.65995     18.44256    119.99290    126.00000     75.00000   2186.99939   1105.71769      -999.25     57.00000   3342.99947      1.25169      0.00000      0.00000      -999.25      -999.25      -999.25      -999.25      0.49966
       1947.51960   1880.39058     63.79137     32.51273     21.22375    237.01964     63.08221     18.37084    119.96610      -999.25      -999.25   2186.99939   1106.23071      -999.25     57.00000   3342.99947      1.25155      0.00000      0.00000      0.00000      -999.25      0.00000      -999.25      -999.25
       1947.67200   1880.53540     66.79967     32.75034     21.12300    237.35849     64.18785     19.06775    120.01320      -999.25      -999.25   2196.00043   1106.23071      -999.25     57.00000   3342.00016      1.25106      0.00000      0.00000      -999.25      -999.25      -999.25      -999.25      -999.25
       1947.82440   1880.68022     68.10286     30.83881     20.92447    236.53771     63.94872     19.30590    119.95740      -999.25      -999.25   2192.99960   1105.46144   2968.75000     57.00000   3342.00016      1.25101      0.00000      0.00000      -999.25      -999.25      -999.25      -999.25      -999.25
       1947.97680   1880.82504     69.41418     32.29184     20.75194    237.36665     63.49968     17.47685    119.93100    119.00000      -999.25   2192.99960   1102.89791      -999.25     57.00000   3340.99940      1.25048      0.00000      0.00000      -999.25      -999.25      -999.25      0.12492      0.24983
       1948.12920   1880.96986     74.16818     31.60946     20.59621    236.67506     63.57629     16.92648    120.01050      -999.25     60.00000   2213.99962   1103.92317      -999.25     57.00000   3342.00016      1.25084      0.00000      0.00000      0.00000      0.00000      0.00000      -999.25      -999.25
       1948.28160   1881.11467     77.62713     31.28908     20.46198    236.08554     64.05745     17.29999    120.00590      -999.25      -999.25   2184.00001   1106.23071      -999.25     57.00000   3342.99947      1.25104      0.00000      0.00000      -999.25      -999.25      -999.25      -999.25      -999.25
       1948.43400   1881.25949     78.75575     31.24418     20.30977    244.16151     55.69719     17.17949    119.96100    121.00000      -999.25   2177.99980   1101.87240   2968.75000     57.00000   3342.00016      1.25065      0.00000      0.00000      -999.25      -999.25      -999.25      -999.25      -999.25
       1948.58640   1881.40431     78.94250     31.90711     20.12410    246.97417     54.41348     17.17947    119.98990      -999.25     60.00000   2198.99981      -999.25      -999.25     57.00000   3342.00016      1.25051      0.00000      0.00000      -999.25      0.00000      -999.25      -999.25      -999.25
       1948.73880   1881.54913     76.67712     38.72069     20.00307    246.92699     53.17869     16.90689    120.02460      -999.25      -999.25   2216.99900   1102.89765      -999.25     57.00000   3342.00016      1.25043      0.00000      0.00000      -999.25      -999.25      -999.25      0.12492      -999.25
       1948.89120   1881.69395     74.72843     41.81866     19.85470    248.99824     51.54542     16.99685    119.97860      -999.25      -999.25   2171.99959   1102.89765      -999.25     57.00000   3342.00016      1.25034      0.00000      0.00000      -999.25      -999.25      -999.25      -999.25      0.24983
       1949.04360   1881.83877     69.95412     45.90298     19.69781    251.41605     49.75593     17.46724    120.04810      -999.25      -999.25   2223.00066   1100.07761   2968.75000     57.00000   3340.99940      1.24982      0.00000      0.00000      0.00000      -999.25      0.00000      -999.25      -999.25
       1949.19600   1881.98359     60.69780     39.47366     19.54328    251.26172     50.01048     17.17243    119.95190      -999.25      -999.25   2159.99917   1102.89765      -999.25     57.00000   3340.00009      1.24934      0.00000      0.00000      -999.25      -999.25      -999.25      -999.25      -999.25
       1949.34840   1882.12841     56.84913     36.18255     19.38843    248.04297     52.19241     16.54460    119.98450    123.00000    114.00000   2175.00042   1099.82137      -999.25     57.00000   3340.99940      1.24964      0.00000      0.00000      -999.25      0.00000      -999.25      0.12492      0.24983
       1949.50080   1882.27323     58.60295     32.73929     19.24399    247.74138     52.95206     17.33745    119.97200      -999.25      -999.25   2228.99942   1102.89765      -999.25     57.00000   3342.00016      1.24991      0.00000      0.00000      0.00000      -999.25      0.00000      -999.25      -999.25
