~VERSION INFORMATION 
VERS  .    2.0                                     :CWLS Log ASCII Standard - VERSION 2.0
WRAP  .    NO                                      :One Line per Depth step
PROD  .    Schlumberger Technology Corp.           :LAS Producer
PROG  .    Horizon LASWriter 6.2.68624.3100        :LAS Program name and version
SOURCE.    17.5in Section-Drilling                 :Run&Pass Information
CREA  .    12/12/2016                              :LAS Creation date {MM/DD/YYYY}
#--------------------------------------------------
~WELL INFORMATION 
#MNEM           .UNIT                      DATA            :DESCRIPTION
#----            ------          --------------            -----------------------------
STRT            .m                    344.88120            :START DEPTH
STOP            .m                   2348.02680            :STOP DEPTH
STEP            .m                       0.1524            :STEP
NULL            .                       -999.25            :NULL VALUE
COMP            .                Woodside Energy Ltd       :COMPANY
WELL            .                         KDA02            :WELL NAME
FLD             .                      Dockrell            :FIELD NAME
RIGN            .                 Atwood Osprey            :Rig Name
RIGTYP          .                Semi-Submersible          :Rig Type
SON             .                     16AWA0071            :Service Order Number
SRVC            .                  Schlumberger            :SERVICE COMPANY
DATE            .                    11/12/2016            :LOG DATE(Composite Date for Composite LAP) (MM/DD/YYYY)
CLAB            .                       County:            :County Label
CNTY            .                                          :COUNTY
SLAB            .                        State:            :State/Province Label
STAT            .                Western Australia         :STATE or PROVINCE
PROV            .                Western Australia         :STATE or PROVINCE
CTRY            .                     Australia            :COUNTRY
CONT_REGION     .                   Australasia            :Continent Region
SECT            .                                          :Section
TOWN            .                                          :Township
RANG            .                                          :Range
API             .                                          :API NUMBER
UWI             .                     16AWA0071            :UNIQUE WELL ID
LUL             .                 Below Helipad            :Logging Unit Location
LUN             .                   OLU-MB 8047            :Logging Unit Number
LOC             .                 Dampier Basin            :FIELD LOCATION
FL1             .                X: E 372778.040m          :Field Location Line 1
FL2             .                Y: N 7814860.760 m        :Field Location Line 2
LATI            .deg             19° 45' 28.198" S         :LATITUDE
LONG            .deg             115° 47' 8.544" E         :LONGITUDE
PDAT            .                         OTHER            :Local Permanent Datum
LMF             .                            DF            :Logging Measured From
APD             .m                     28.70000            :Elevation of Depth Reference (LMF) Above Permanent Datum
EPD             .m                     -1.60000            :Elevation of Permanent Datum (PDAT) above Mean Sea Level
EKB             .m                      -999.25            :Elevation of Kelly Bushing Above Permanent Datum
EDF             .m                     28.70000            :Elevation of Drill Floor Above Permanent Datum
EGL             .m                   -122.00000            :Elevation of Ground Level Above Permanent Datum
ECF             .m                      -999.25            :Elevation of Casing Flange above Permanent Datum
#--------------------------------------------------
~CURVE INFORMATION
#MNEM           .UNIT                  API CODE            :DESCRIPTION
#----            ------          --------------            -----------------------------
DEPT            .m                                         :                                                        Depth Index
TVD             .m                                         :(RT)    (DnMWorkflow)           (6in)                   True Vertical Depth
GR              .gAPI                                      :(RM)    (ARC9)                  (6in)                   Gamma Ray
ROP5            .m/h                                       :(RT)    (DRILLING_SURFACE)      (6in)                   Rate of penetration averaged over the last 5 ft (1.5 m)
BLKP            .m                                         :(RT)    (DRILLING_SURFACE)      (6in)                   Height of block above rig floor
HKLA            .1000 lbf                                  :(RT)    (DRILLING_SURFACE)      (6in)                   Average Hookload
SWOB            .1000 lbf                                  :(RT)    (DRILLING_SURFACE)      (6in)                   Surface Weight On Bit
STOR            .1000 ft.lbf                               :(RT)    (DRILLING_SURFACE)      (6in)                   Surface Torque
RPM             .c/min                                     :(RT)    (DRILLING_SURFACE)      (6in)                   Rotational Speed
CRPM            .c/min                                     :(RT)    (TELE900)               (6in)                   Collar Rotational Speed
STICK           .c/min                                     :(RT)    (TELE900)               (6in)                   Stick Slip Indicator
SPPA            .psi                                       :(RT)    (DRILLING_SURFACE)      (6in)                   Standpipe Pressure
TFLO            .gal/min                                   :(RT)    (DRILLING_SURFACE)      (6in)                   Total flow rate of all active pumps
TRPM            .c/min                                     :(RT)    (TELE900)               (6in)                   MWD Turbine Rotation Speed
DHAT            .degC                                      :(RM)    (ARC9)                  (6in)                   Downhole Annulus Temperature
DHAP            .psi                                       :(RM)    (ARC9)                  (6in)                   Downhole Annulus Pressure
ECD             .g/cm3                                     :(RM)    (ARC9)                  (6in)                   Equivalent Circulating Density
COBTM           .                                          :(RT)    (DRILLING_SURFACE)      (6in)                   Composite On Bottom Status
SHKL            .                                          :(RM)    (ARC9)                  (6in)                   Tool Shock Level
SHKRSK          .                                          :(RT)    (TELE900)               (6in)                   Shock Risk
SHKRSK          .                                          :(RT)    (PDORBIT_900)           (6in)                   Shock Risk
SHKPK           .gn                                        :(RT)    (TELE900)               (6in)                   Shock Peak
VIB_X           .gn                                        :(RT)    (TELE900)               (6in)                   RMS Vibration, X-Axis
VIB_LAT         .gn                                        :(RT)    (TELE900)               (6in)                   Transverse RMS Vibration
#-------------------------------------------------------------
#            DEPT          TVD           GR         ROP5         BLKP         HKLA         SWOB         STOR          RPM         CRPM        STICK         SPPA         TFLO         TRPM         DHAT         DHAP          ECD        COBTM         SHKL       SHKRSK       SHKRSK        SHKPK        VIB_X      VIB_LAT 
#                  (DnMWorkfl)       (ARC9)  (DRILLING_)  (DRILLING_)  (DRILLING_)  (DRILLING_)  (DRILLING_)  (DRILLING_)    (TELE900)    (TELE900)  (DRILLING_)  (DRILLING_)    (TELE900)       (ARC9)       (ARC9)       (ARC9)  (DRILLING_)       (ARC9)    (TELE900)  (PDORBIT_9)    (TELE900)    (TELE900)    (TELE900) 
#                         (RT)         (RM)         (RT)         (RT)         (RT)         (RT)         (RT)         (RT)         (RT)         (RT)         (RT)         (RT)         (RT)         (RM)         (RM)         (RM)         (RT)         (RM)         (RT)         (RT)         (RT)         (RT)         (RT) 
#                        (6in)        (6in)        (6in)        (6in)        (6in)        (6in)        (6in)        (6in)        (6in)        (6in)        (6in)        (6in)        (6in)        (6in)        (6in)        (6in)        (6in)        (6in)        (6in)        (6in)        (6in)        (6in)        (6in) 
~ASCII
# ...
        879.80520    873.32321     63.02196    104.97680      -999.25      -999.25      -999.25      -999.25      -999.25      -999.25      -999.25      -999.25      -999.25      -999.25     43.00000   1507.00011      1.21653      -999.25      0.00000      -999.25      -999.25      -999.25      -999.25      -999.25
        879.95760    873.46654     62.09856    128.71960     29.42385    223.97511     14.16386      7.28196    120.89710      -999.25      -999.25   2163.00000      -999.25      -999.25     43.00000   1507.00011      1.21641      0.00000      0.00000      -999.25      -999.25      -999.25      -999.25      -999.25
        880.11000    873.60986     62.28324    133.47320     29.23013    223.33290     14.65956      7.46549    121.04880    118.00000      -999.25   2148.00019   1004.45209      -999.25     43.00000   1507.99942      1.21694      0.00000      0.00000      -999.25      -999.25      -999.25      -999.25      -999.25
        880.26240    873.75318     63.85302    134.10530     29.09725    222.49867     15.56439      7.37807    120.93710      -999.25      -999.25   2156.99979   1005.22136      -999.25     43.00000   1507.32790      1.21627      0.00000      0.00000      -999.25      0.00000      -999.25      0.12492      1.24915
        880.41480    873.89648     65.60748    136.34570     28.90255    222.25242     15.49296      7.46362    121.00970      -999.25      -999.25   2186.99939      -999.25      -999.25     43.00000   1507.99942      1.21659      0.00000      0.00000      0.00000      -999.25      0.00000      -999.25      -999.25
        880.56720    874.03978     68.10065    138.27590     28.76431    220.97418     17.04103      7.61511    120.99750      -999.25     42.00000   2184.00001   1009.06691      -999.25     43.00000   1507.00011      1.21568      0.00000      0.00000      -999.25      -999.25      -999.25      -999.25      -999.25
        880.71960    874.18307     70.77851    137.49270     28.58540    218.41842     19.66331      7.81327    121.08590      -999.25      -999.25   2190.00022      -999.25      -999.25     43.00000   1507.99942      1.21621      0.00000      0.00000      -999.25      -999.25      -999.25      -999.25      -999.25
        880.87200    874.32635     70.22447    137.95010     28.44270    217.81797     20.19439      8.36806    120.94560      -999.25      -999.25   2150.99957   1009.06691      -999.25     43.00000   1508.42728      1.21636      0.00000      0.00000      -999.25      -999.25      -999.25      -999.25      -999.25
        881.02440    874.46963     65.60748    131.78340     28.30682    216.18375     21.88184      8.21649    120.96990      -999.25      -999.25   2190.00022   1008.81040      -999.25     43.00000   1509.00018      1.21655      0.00000      0.00000      -999.25      -999.25      -999.25      -999.25      -999.25
        881.17680    874.61290     61.31367    110.88450     28.10995    215.89539     22.37024      8.73697    121.06200      -999.25      -999.25   2181.00063   1008.81040   2890.62500     43.00000   1509.36713      1.21672      0.00000      0.00000      -999.25      -999.25      -999.25      -999.25      -999.25
        881.32920    874.75616     58.08178    134.36860     27.97443    215.10966     22.98848      8.62018    121.01610      -999.25      -999.25   2177.99980      -999.25      -999.25     43.00000   1509.00018      1.21621      0.00000      0.00000      -999.25      -999.25      -999.25      -999.25      -999.25
        881.48160    874.89941     55.17307    132.84810     27.84830    214.64891     23.17446      8.49585    121.01350      -999.25      -999.25   2169.00021   1006.50312      -999.25     43.00000   1509.43674      1.21638      0.00000      0.00000      -999.25      -999.25      -999.25      -999.25      -999.25
        881.63400    875.04265     53.64947    106.61110     27.67765    216.92038     21.32703      8.52628    120.95490      -999.25      -999.25   2175.00042      -999.25      -999.25     43.00000   1509.00018      1.21589      0.00000      0.00000      -999.25      -999.25      -999.25      -999.25      -999.25
        881.78640    875.18589     52.72607    134.30650      -999.25      -999.25      -999.25      -999.25      -999.25      -999.25      -999.25      -999.25      -999.25      -999.25     43.00000   1509.99949      1.21642      -999.25      0.00000      -999.25      -999.25      -999.25      -999.25      -999.25
        881.93880    875.32912     51.66416    135.26290     27.37066    215.94102     21.91761      8.48394    120.95210      -999.25      -999.25   2184.00001   1009.06691      -999.25     43.00000   1511.26132      1.21725      0.00000      1.00000      -999.25      -999.25      -999.25      -999.25      -999.25
        882.09120    875.47234     50.46374    108.28140     27.23609    215.67082     22.74137      8.28650    121.00900      -999.25      -999.25   2163.00000   1009.06691      -999.25     43.00000   1511.99956      1.21755      0.00000      1.00000      -999.25      -999.25      -999.25      -999.25      -999.25
        882.24360    875.61556     49.86353    134.73400     27.07946    215.33376     22.41382      8.58101    120.95130    122.00000      -999.25   2196.00043   1005.99037      -999.25     43.00000   1511.00025      1.21657      0.00000      1.00000      -999.25      -999.25      -999.25      -999.25      -999.25
        882.39600    875.75876     52.17203    134.93740     26.93234    215.44209     22.09367      8.19256    120.95350      -999.25      -999.25   2156.99979      -999.25      -999.25     43.00000   1510.43025      1.21598      0.00000      1.00000      -999.25      -999.25      -999.25      -999.25      -999.25
        882.54840    875.90196     57.20455    115.69000     26.82353    215.93159     22.19885      8.17495    120.96590      -999.25     24.00000   2163.00000   1004.70860      -999.25     43.00000   1509.99949      1.21553      0.00000      0.00000      -999.25      -999.25      -999.25      -999.25      -999.25
        882.70080    876.04515     59.74390    138.22610     26.62268    215.76344     21.85712      8.17978    121.03770      -999.25      -999.25   2181.00063   1009.06691      -999.25     43.00000   1510.64781      1.21575      0.00000      0.00000      0.00000      0.00000      0.00000      0.12492      1.24915
        882.85320    876.18834     58.49730    116.44590     26.51779    215.90189     22.33624      8.48418    119.98700      -999.25      -999.25   2165.99938      -999.25      -999.25     43.00000   1511.00025      1.21588      0.00000      0.00000      -999.25      -999.25      -999.25      -999.25      -999.25
        883.00560    876.33151     57.62008    116.83110     26.36509    215.36648     22.51821      8.30204    119.96810      -999.25      -999.25   2156.99979   1009.06691      -999.25     43.00000   1511.38170      1.21595      0.00000      0.00000      -999.25      -999.25      -999.25      -999.25      -999.25
        883.15800    876.47468     58.45114    147.35350     26.12379    215.43239     22.02073      8.23547    119.98440      -999.25      -999.25   2165.99938   1004.96511      -999.25     43.00000   1511.70078      1.21600      0.00000      0.00000      -999.25      -999.25      -999.25      -999.25      -999.25
        883.31040    876.61784     58.77433    118.20150     26.04827    215.36817     22.43775      8.48852    120.00210      -999.25      -999.25   2163.00000   1006.24688      -999.25     43.00000   1511.99956      1.21606      0.00000      0.00000      -999.25      -999.25      -999.25      -999.25      -999.25
        883.46280    876.76099     59.05135    116.44620     25.91653    215.86373     22.07896      8.50410    120.01080      -999.25      -999.25   2190.00022   1008.81040   2890.62500     43.00000   1513.00032      1.21668      0.00000      0.00000      -999.25      -999.25      -999.25      -999.25      -999.25
        883.61520    876.90414     60.57495    142.27560     25.71316    216.12132     21.34546      8.50270    120.04380      -999.25      -999.25   2181.00063   1006.50312      -999.25     43.00000   1513.00032      1.21643      0.00000      0.00000      -999.25      -999.25      -999.25      -999.25      -999.25
