~VERSION INFORMATION 
VERS  .    2.0                                     :CWLS Log ASCII Standard - VERSION 2.0
WRAP  .    NO                                      :One Line per Depth step
PROD  .    Schlumberger Technology Corp.           :LAS Producer
PROG  .    Horizon LASWriter 6.2.68624.3100        :LAS Program name and version
SOURCE.    17.5in Section-Drilling                 :Run&Pass Information
CREA  .    12/12/2016                              :LAS Creation date {MM/DD/YYYY}
#--------------------------------------------------
~WELL INFORMATION 
#MNEM           .UNIT                      DATA            :DESCRIPTION
#----            ------          --------------            -----------------------------
STRT            .m                    344.88120            :START DEPTH
STOP            .m                   2348.02680            :STOP DEPTH
STEP            .m                       0.1524            :STEP
NULL            .                       -999.25            :NULL VALUE
COMP            .                Woodside Energy Ltd       :COMPANY
WELL            .                         KDA02            :WELL NAME
FLD             .                      Dockrell            :FIELD NAME
RIGN            .                 Atwood Osprey            :Rig Name
RIGTYP          .                Semi-Submersible          :Rig Type
SON             .                     16AWA0071            :Service Order Number
SRVC            .                  Schlumberger            :SERVICE COMPANY
DATE            .                    11/12/2016            :LOG DATE(Composite Date for Composite LAP) (MM/DD/YYYY)
CLAB            .                       County:            :County Label
CNTY            .                                          :COUNTY
SLAB            .                        State:            :State/Province Label
STAT            .                Western Australia         :STATE or PROVINCE
PROV            .                Western Australia         :STATE or PROVINCE
CTRY            .                     Australia            :COUNTRY
CONT_REGION     .                   Australasia            :Continent Region
SECT            .                                          :Section
TOWN            .                                          :Township
RANG            .                                          :Range
API             .                                          :API NUMBER
UWI             .                     16AWA0071            :UNIQUE WELL ID
LUL             .                 Below Helipad            :Logging Unit Location
LUN             .                   OLU-MB 8047            :Logging Unit Number
LOC             .                 Dampier Basin            :FIELD LOCATION
FL1             .                X: E 372778.040m          :Field Location Line 1
FL2             .                Y: N 7814860.760 m        :Field Location Line 2
LATI            .deg             19° 45' 28.198" S         :LATITUDE
LONG            .deg             115° 47' 8.544" E         :LONGITUDE
PDAT            .                         OTHER            :Local Permanent Datum
LMF             .                            DF            :Logging Measured From
APD             .m                     28.70000            :Elevation of Depth Reference (LMF) Above Permanent Datum
EPD             .m                     -1.60000            :Elevation of Permanent Datum (PDAT) above Mean Sea Level
EKB             .m                      -999.25            :Elevation of Kelly Bushing Above Permanent Datum
EDF             .m                     28.70000            :Elevation of Drill Floor Above Permanent Datum
EGL             .m                   -122.00000            :Elevation of Ground Level Above Permanent Datum
ECF             .m                      -999.25            :Elevation of Casing Flange above Permanent Datum
#--------------------------------------------------
~CURVE INFORMATION
#MNEM           .UNIT                  API CODE            :DESCRIPTION
#----            ------          --------------            -----------------------------
DEPT            .m                                         :                                                        Depth Index
TVD             .m                                         :(RT)    (DnMWorkflow)           (6in)                   True Vertical Depth
GR              .gAPI                                      :(RM)    (ARC9)                  (6in)                   Gamma Ray
ROP5            .m/h                                       :(RT)    (DRILLING_SURFACE)      (6in)                   Rate of penetration averaged over the last 5 ft (1.5 m)
BLKP            .m                                         :(RT)    (DRILLING_SURFACE)      (6in)                   Height of block above rig floor
HKLA            .1000 lbf                                  :(RT)    (DRILLING_SURFACE)      (6in)                   Average Hookload
SWOB            .1000 lbf                                  :(RT)    (DRILLING_SURFACE)      (6in)                   Surface Weight On Bit
STOR            .1000 ft.lbf                               :(RT)    (DRILLING_SURFACE)      (6in)                   Surface Torque
RPM             .c/min                                     :(RT)    (DRILLING_SURFACE)      (6in)                   Rotational Speed
CRPM            .c/min                                     :(RT)    (TELE900)               (6in)                   Collar Rotational Speed
STICK           .c/min                                     :(RT)    (TELE900)               (6in)                   Stick Slip Indicator
SPPA            .psi                                       :(RT)    (DRILLING_SURFACE)      (6in)                   Standpipe Pressure
TFLO            .gal/min                                   :(RT)    (DRILLING_SURFACE)      (6in)                   Total flow rate of all active pumps
TRPM            .c/min                                     :(RT)    (TELE900)               (6in)                   MWD Turbine Rotation Speed
DHAT            .degC                                      :(RM)    (ARC9)                  (6in)                   Downhole Annulus Temperature
DHAP            .psi                                       :(RM)    (ARC9)                  (6in)                   Downhole Annulus Pressure
ECD             .g/cm3                                     :(RM)    (ARC9)                  (6in)                   Equivalent Circulating Density
COBTM           .                                          :(RT)    (DRILLING_SURFACE)      (6in)                   Composite On Bottom Status
SHKL            .                                          :(RM)    (ARC9)                  (6in)                   Tool Shock Level
SHKRSK          .                                          :(RT)    (TELE900)               (6in)                   Shock Risk
SHKRSK          .                                          :(RT)    (PDORBIT_900)           (6in)                   Shock Risk
SHKPK           .gn                                        :(RT)    (TELE900)               (6in)                   Shock Peak
VIB_X           .gn                                        :(RT)    (TELE900)               (6in)                   RMS Vibration, X-Axis
VIB_LAT         .gn                                        :(RT)    (TELE900)               (6in)                   Transverse RMS Vibration
#-------------------------------------------------------------
#            DEPT          TVD           GR         ROP5         BLKP         HKLA         SWOB         STOR          RPM         CRPM        STICK         SPPA         TFLO         TRPM         DHAT         DHAP          ECD        COBTM         SHKL       SHKRSK       SHKRSK        SHKPK        VIB_X      VIB_LAT 
#                  (DnMWorkfl)       (ARC9)  (DRILLING_)  (DRILLING_)  (DRILLING_)  (DRILLING_)  (DRILLING_)  (DRILLING_)    (TELE900)    (TELE900)  (DRILLING_)  (DRILLING_)    (TELE900)       (ARC9)       (ARC9)       (ARC9)  (DRILLING_)       (ARC9)    (TELE900)  (PDORBIT_9)    (TELE900)    (TELE900)    (TELE900) 
#                         (RT)         (RM)         (RT)         (RT)         (RT)         (RT)         (RT)         (RT)         (RT)         (RT)         (RT)         (RT)         (RT)         (RM)         (RM)         (RM)         (RT)         (RM)         (RT)         (RT)         (RT)         (RT)         (RT) 
#                        (6in)        (6in)        (6in)        (6in)        (6in)        (6in)        (6in)        (6in)        (6in)        (6in)        (6in)        (6in)        (6in)        (6in)        (6in)        (6in)        (6in)        (6in)        (6in)        (6in)        (6in)        (6in)        (6in) 
~ASCII
# ...
       2211.17160   2130.95403     47.66589     16.24637     39.44572    252.29260     67.59249     15.72390    160.00510    160.00000      -999.25   2291.99946   1100.07761   2929.68800     64.00000   3707.99999      1.22481      0.00000      0.00000      0.00000      -999.25     23.98373      -999.25      1.24915
       2211.32400   2131.09889     56.69485     16.11766     39.33451    251.27715     67.47741     15.26212    159.98150      -999.25     61.50000   2295.00029   1104.94868   2890.62500     64.00000   3708.70198      1.22494      0.00000      1.00000      -999.25      0.00000      -999.25      0.62458      1.24915
       2211.47640   2131.24375     62.53283     15.96349     39.17118    251.81883     66.78432     16.46875    159.99480    165.00000      -999.25   2303.99988   1101.87240      -999.25     64.00000   3710.00006      1.22529      0.00000      0.00000      -999.25      0.00000      -999.25      -999.25      -999.25
       2211.62880   2131.38862     60.99012     16.43951     38.96861    252.01570     67.19090     16.29962    160.05060    152.00000      -999.25   2289.00008   1101.10313   2929.68800     64.00000   3710.99937      1.22554      0.00000      0.00000      -999.25      1.00000      -999.25      0.62458      -999.25
       2211.78120   2131.53348     59.91833     16.53020     38.89742    252.19604     66.38414     15.88399    159.98240      -999.25      -999.25   2255.99964   1102.64140   2929.68800     64.00000   3710.99937      1.22541      0.00000      1.00000      0.00000      -999.25      0.00000      -999.25      -999.25
       2211.93360   2131.67834     63.69393     18.08469     38.72507    252.33493     66.09668     18.79034    159.98370      -999.25     52.50000   2291.99946   1102.12865   2929.68800     64.00000   3710.99937      1.22537      0.00000      0.00000      -999.25      -999.25      -999.25      -999.25      0.99932
       2212.08600   2131.82319     66.44647     16.19595     38.62698    252.73265     65.90711     18.46971    159.95660    160.00000      -999.25   2318.99969      -999.25      -999.25     64.00000   3712.00013      1.22559      0.00000      0.00000      -999.25      -999.25      -999.25      -999.25      -999.25
       2212.23840   2131.96805     68.27336     22.94361     38.40795    253.67182     64.39310     15.77237    159.95480      -999.25     51.00000   2282.99987   1105.97420      -999.25     64.00000   3712.00013      1.22553      0.00000      0.00000      0.00000      1.00000      0.00000      0.49966      -999.25
       2212.39080   2132.11291     70.80668     16.50424     38.27092    255.78958     63.38837     17.25775    159.94780      -999.25      -999.25   2318.99969   1102.12865      -999.25     64.00000   3710.51495      1.22495      0.00000      0.00000      -999.25      -999.25      -999.25      -999.25      1.24915
       2212.54320   2132.25777     65.74004     17.27414     38.10283    250.40126     68.04920     17.60804    159.98320      -999.25      -999.25   2255.99964   1099.30861      -999.25     64.00000   3712.99944      1.22573      0.00000      0.00000      -999.25      -999.25      -999.25      -999.25      -999.25
       2212.69560   2132.40263     57.16578     15.94153     37.95530    252.62991     65.46823     16.43888    159.96090    157.00000     33.00000   2301.00050   1102.64140   2929.68800     64.00000   3712.00013      1.22531      0.00000      0.00000      0.00000      -999.25     23.98373      -999.25      -999.25
       2212.84800   2132.54748     58.79783     15.32842     37.79515    249.89927     69.57114     17.56753    159.96570      -999.25      -999.25   2306.99926   1099.30861      -999.25     64.00000   3712.00013      1.22519      0.00000      0.00000      0.00000      1.00000      0.00000      0.49966      1.24915
       2213.00040   2132.69234     65.13110     15.76853     37.65653    270.47038     49.58278     18.31669    159.93200    161.00000      -999.25   2289.00008   1104.94868      -999.25     64.00000   3710.99937      1.22479      0.00000      0.00000      -999.25      1.00000      -999.25      -999.25      -999.25
       2213.15280   2132.83720     64.01058     18.41534     37.49688    267.50935     50.81254     16.50770    159.91190      -999.25     63.00000   2268.00007   1102.89791   2929.68800     64.00000   3710.99937      1.22471      0.00000      0.00000      -999.25      -999.25      -999.25      0.62458      1.24915
       2213.30520   2132.98205     55.04658     17.70712     37.33998    258.25743     61.19746     14.36045    160.01260    157.00000      -999.25   2291.99946   1104.94868   2929.68800     64.00000   3710.99937      1.22464      0.00000      0.00000      -999.25      1.00000      -999.25      0.74949      1.49898
       2213.45760   2133.12691     46.27744     14.34214     37.19647    248.11418     71.62523     14.33171    159.99200      -999.25     48.00000   2324.99990   1104.94868      -999.25     64.00000   3712.00013      1.22488      0.00000      0.00000      0.00000      -999.25     23.98373      -999.25      -999.25
       2213.61000   2133.27176     40.72366     15.69079     37.05589    248.99824     69.30306     16.02481    159.99020    143.00000    105.00000   2312.99948   1102.12865      -999.25     64.00000   3714.00020      1.22542      0.00000      0.00000      -999.25      1.00000      -999.25      -999.25      -999.25
       2213.76240   2133.41661     35.13089     15.13327     36.94464    249.66271     68.50913     17.99161    159.89620      -999.25      -999.25   2324.99990   1102.38489   2890.62500     64.00000   3712.99944      1.22500      0.00000      0.00000      -999.25      -999.25      -999.25      0.49966      1.24915
       2213.91480   2133.56147     34.20108     21.36528     36.78687    248.79343     70.06670     18.55613    159.94940      -999.25      -999.25   2310.00009      -999.25      -999.25     64.00000   3712.99944      1.22494      0.00000      0.00000      0.00000      -999.25      0.00000      -999.25      -999.25
       2214.06720   2133.70632     38.22096     22.50543     36.57759    256.01312     63.03378     22.08264    160.00140      -999.25      -999.25   2322.00052   1104.94868      -999.25     64.00000   3712.99944      1.22487      0.00000      1.00000      -999.25      -999.25      -999.25      -999.25      -999.25
       2214.21960   2133.85117     38.51745     21.00729     36.41986    256.50299     62.16385     19.92528    160.01470    163.00000      -999.25   2270.99945   1102.38489   2890.62500     64.00000   3712.99944      1.22480      0.00000      0.00000      -999.25      1.00000      -999.25      0.37475      0.99932
       2214.37200   2133.99603     37.65445     23.88490     36.26945    255.75783     63.36004     19.70617    159.97840      -999.25     51.00000   2297.99967   1101.61589      -999.25     64.00000   3714.00020      1.22499      0.00000      0.00000      0.00000      -999.25      0.00000      -999.25      -999.25
       2214.52440   2134.14088     41.17834     24.52451     36.13677    256.44479     60.71652     18.74497    159.98830    155.00000     90.00000   2255.99964   1102.38489      -999.25     64.00000   3712.99944      1.22458      0.00000      1.00000      -999.25      1.00000      -999.25      0.49966      0.99932
       2214.67680   2134.28573     43.04585     23.46084     35.98191    254.37597     65.19499     20.51325    159.96950      -999.25     78.00000   2291.99946   1100.33386   2890.62500     64.00000   3714.00020      1.22485      0.00000      1.00000      -999.25      0.00000      -999.25      -999.25      -999.25
       2214.82920   2134.43058     36.98865     26.00932     35.78999    253.52300     65.78398     19.11268    160.06200    156.00000      -999.25   2282.99987      -999.25      -999.25     64.00000   3714.99951      1.22506      0.00000      3.00000      -999.25      -999.25      -999.25      0.49966      -999.25
       2214.98160   2134.57543     29.25069     30.21597     35.67574    252.09264     66.18495     17.89388    159.93390      -999.25      -999.25   2303.99988   1104.17941      -999.25     64.00000   3716.00028      1.22538      0.00000      0.00000      0.00000      -999.25     31.97830      -999.25      1.49898
