~VERSION INFORMATION 
VERS  .    2.0                                     :CWLS Log ASCII Standard - VERSION 2.0
WRAP  .    NO                                      :One Line per Depth step
PROD  .    Schlumberger Technology Corp.           :LAS Producer
PROG  .    Horizon LASWriter 6.2.68624.3100        :LAS Program name and version
SOURCE.    17.5in Section-Drilling                 :Run&Pass Information
CREA  .    12/12/2016                              :LAS Creation date {MM/DD/YYYY}
#--------------------------------------------------
~WELL INFORMATION 
#MNEM           .UNIT                      DATA            :DESCRIPTION
#----            ------          --------------            -----------------------------
STRT            .m                    344.88120            :START DEPTH
STOP            .m                   2348.02680            :STOP DEPTH
STEP            .m                       0.1524            :STEP
NULL            .                       -999.25            :NULL VALUE
COMP            .                Woodside Energy Ltd       :COMPANY
WELL            .                         KDA02            :WELL NAME
FLD             .                      Dockrell            :FIELD NAME
RIGN            .                 Atwood Osprey            :Rig Name
RIGTYP          .                Semi-Submersible          :Rig Type
SON             .                     16AWA0071            :Service Order Number
SRVC            .                  Schlumberger            :SERVICE COMPANY
DATE            .                    11/12/2016            :LOG DATE(Composite Date for Composite LAP) (MM/DD/YYYY)
CLAB            .                       County:            :County Label
CNTY            .                                          :COUNTY
SLAB            .                        State:            :State/Province Label
STAT            .                Western Australia         :STATE or PROVINCE
PROV            .                Western Australia         :STATE or PROVINCE
CTRY            .                     Australia            :COUNTRY
CONT_REGION     .                   Australasia            :Continent Region
SECT            .                                          :Section
TOWN            .                                          :Township
RANG            .                                          :Range
API             .                                          :API NUMBER
UWI             .                     16AWA0071            :UNIQUE WELL ID
LUL             .                 Below Helipad            :Logging Unit Location
LUN             .                   OLU-MB 8047            :Logging Unit Number
LOC             .                 Dampier Basin            :FIELD LOCATION
FL1             .                X: E 372778.040m          :Field Location Line 1
FL2             .                Y: N 7814860.760 m        :Field Location Line 2
LATI            .deg             19° 45' 28.198" S         :LATITUDE
LONG            .deg             115° 47' 8.544" E         :LONGITUDE
PDAT            .                         OTHER            :Local Permanent Datum
LMF             .                            DF            :Logging Measured From
APD             .m                     28.70000            :Elevation of Depth Reference (LMF) Above Permanent Datum
EPD             .m                     -1.60000            :Elevation of Permanent Datum (PDAT) above Mean Sea Level
EKB             .m                      -999.25            :Elevation of Kelly Bushing Above Permanent Datum
EDF             .m                     28.70000            :Elevation of Drill Floor Above Permanent Datum
EGL             .m                   -122.00000            :Elevation of Ground Level Above Permanent Datum
ECF             .m                      -999.25            :Elevation of Casing Flange above Permanent Datum
#--------------------------------------------------
~CURVE INFORMATION
#MNEM           .UNIT                  API CODE            :DESCRIPTION
#----            ------          --------------            -----------------------------
DEPT            .m                                         :                                                        Depth Index
TVD             .m                                         :(RT)    (DnMWorkflow)           (6in)                   True Vertical Depth
GR              .gAPI                                      :(RM)    (ARC9)                  (6in)                   Gamma Ray
ROP5            .m/h                                       :(RT)    (DRILLING_SURFACE)      (6in)                   Rate of penetration averaged over the last 5 ft (1.5 m)
BLKP            .m                                         :(RT)    (DRILLING_SURFACE)      (6in)                   Height of block above rig floor
HKLA            .1000 lbf                                  :(RT)    (DRILLING_SURFACE)      (6in)                   Average Hookload
SWOB            .1000 lbf                                  :(RT)    (DRILLING_SURFACE)      (6in)                   Surface Weight On Bit
STOR            .1000 ft.lbf                               :(RT)    (DRILLING_SURFACE)      (6in)                   Surface Torque
RPM             .c/min                                     :(RT)    (DRILLING_SURFACE)      (6in)                   Rotational Speed
CRPM            .c/min                                     :(RT)    (TELE900)               (6in)                   Collar Rotational Speed
STICK           .c/min                                     :(RT)    (TELE900)               (6in)                   Stick Slip Indicator
SPPA            .psi                                       :(RT)    (DRILLING_SURFACE)      (6in)                   Standpipe Pressure
TFLO            .gal/min                                   :(RT)    (DRILLING_SURFACE)      (6in)                   Total flow rate of all active pumps
TRPM            .c/min                                     :(RT)    (TELE900)               (6in)                   MWD Turbine Rotation Speed
DHAT            .degC                                      :(RM)    (ARC9)                  (6in)                   Downhole Annulus Temperature
DHAP            .psi                                       :(RM)    (ARC9)                  (6in)                   Downhole Annulus Pressure
ECD             .g/cm3                                     :(RM)    (ARC9)                  (6in)                   Equivalent Circulating Density
COBTM           .                                          :(RT)    (DRILLING_SURFACE)      (6in)                   Composite On Bottom Status
SHKL            .                                          :(RM)    (ARC9)                  (6in)                   Tool Shock Level
SHKRSK          .                                          :(RT)    (TELE900)               (6in)                   Shock Risk
SHKRSK          .                                          :(RT)    (PDORBIT_900)           (6in)                   Shock Risk
SHKPK           .gn                                        :(RT)    (TELE900)               (6in)                   Shock Peak
VIB_X           .gn                                        :(RT)    (TELE900)               (6in)                   RMS Vibration, X-Axis
VIB_LAT         .gn                                        :(RT)    (TELE900)               (6in)                   Transverse RMS Vibration
#-------------------------------------------------------------
#            DEPT          TVD           GR         ROP5         BLKP         HKLA         SWOB         STOR          RPM         CRPM        STICK         SPPA         TFLO         TRPM         DHAT         DHAP          ECD        COBTM         SHKL       SHKRSK       SHKRSK        SHKPK        VIB_X      VIB_LAT 
#                  (DnMWorkfl)       (ARC9)  (DRILLING_)  (DRILLING_)  (DRILLING_)  (DRILLING_)  (DRILLING_)  (DRILLING_)    (TELE900)    (TELE900)  (DRILLING_)  (DRILLING_)    (TELE900)       (ARC9)       (ARC9)       (ARC9)  (DRILLING_)       (ARC9)    (TELE900)  (PDORBIT_9)    (TELE900)    (TELE900)    (TELE900) 
#                         (RT)         (RM)         (RT)         (RT)         (RT)         (RT)         (RT)         (RT)         (RT)         (RT)         (RT)         (RT)         (RT)         (RM)         (RM)         (RM)         (RT)         (RM)         (RT)         (RT)         (RT)         (RT)         (RT) 
#                        (6in)        (6in)        (6in)        (6in)        (6in)        (6in)        (6in)        (6in)        (6in)        (6in)        (6in)        (6in)        (6in)        (6in)        (6in)        (6in)        (6in)        (6in)        (6in)        (6in)        (6in)        (6in)        (6in) 
~ASCII
        344.88120    344.87727     43.88326    232.59600     36.24694    208.26693      2.61848      0.02271      0.00862      -999.25      -999.25     93.00000    207.14585      -999.25     34.00000    518.99999      1.06565      0.00000      0.00000      -999.25      -999.25      -999.25      -999.25      -999.25
        345.03360    345.02966     40.72948    219.13630     36.03136    207.87149      3.18094      0.01076      0.00132      -999.25      -999.25     86.99999    207.14585      -999.25     34.00000    520.00003      1.06697      0.00000      0.00000      -999.25      -999.25      -999.25      -999.25      -999.25
        345.18600    345.18206     40.88352    207.65980     35.91145    207.81758      3.08905      0.04214      0.00296      -999.25      -999.25     89.99999    207.14585      -999.25     34.00000    521.99996      1.07087      0.00000      0.00000      -999.25      -999.25      -999.25      -999.25      -999.25
        345.33840    345.33446     43.43657    218.82450     35.74874    214.01169     -1.61592      0.04825      0.00855      -999.25      -999.25     86.99999    207.14585      -999.25     34.00000    522.99999      1.07242      0.00000      0.00000      -999.25      -999.25      -999.25      -999.25      -999.25
        345.49080    345.48685     44.68421    187.46590     35.56949    210.53908      0.96255      0.06342      0.00130      -999.25      -999.25     89.99999    207.14585      -999.25     34.00000    522.99999      1.07169      0.00000      0.00000      -999.25      -999.25      -999.25      -999.25      -999.25
        345.64320    345.63925     50.29862    179.24930     35.46143    208.77225      2.57834      0.02334      0.01161      -999.25      -999.25     93.00000    207.14585      -999.25     34.00000    524.00003      1.07333      0.00000      0.00000      -999.25      -999.25      -999.25      -999.25      -999.25
        345.79560    345.79165     55.67621    132.79140     35.31013    210.93997     -0.50254      0.05194      0.00547      -999.25      -999.25     89.99999    207.14585      -999.25     34.00000    524.00003      1.07319      0.00000      0.00000      -999.25      -999.25      -999.25      -999.25      -999.25
        345.94800    345.94404     54.09933    132.75100     35.11447    211.32966     -0.54279      0.05237      0.00469      -999.25      -999.25     89.99999      -999.25      -999.25     34.00000    524.62441      1.07377      0.00000      0.00000      -999.25      -999.25      -999.25      -999.25      -999.25
        346.10040    346.09644     51.71378    134.68150     34.96632    210.57043      1.03498      0.03659      0.00561      -999.25      -999.25     89.99999    207.14585      -999.25     34.00000    525.99995      1.07626      0.00000      0.00000      -999.25      -999.25      -999.25      -999.25      -999.25
        346.25280    346.24884     51.90439    122.51940      -999.25      -999.25      -999.25      -999.25      -999.25      -999.25      -999.25      -999.25      -999.25      -999.25     35.00000    525.00006      1.07372      -999.25      0.00000      -999.25      -999.25      -999.25      -999.25      -999.25
        346.40520    346.40123     53.30799    124.23680     34.68513    206.96131      4.64049      0.08316      0.00476      -999.25      -999.25     89.99999      -999.25      -999.25     35.00000    526.99999      1.07702      0.00000      0.00000      -999.25      -999.25      -999.25      -999.25      -999.25
        346.55760    346.55363     55.05816    107.57200     34.54261    208.20890      2.36914      0.00884      0.01383      -999.25      -999.25     86.99999    204.06941      -999.25     35.00000    526.99999      1.07673      0.00000      0.00000      -999.25      -999.25      -999.25      -999.25      -999.25
        346.71000    346.70603     58.02132     22.69821     34.64107    212.08798      0.05534      1.78619     60.01957      -999.25      -999.25    320.99999    799.10086      -999.25     35.00000    526.99999      1.07616      0.00000      0.00000      -999.25      -999.25      -999.25      -999.25      -999.25
        346.86240    346.85843     56.68704     20.79148     34.48753    212.95457     -0.01980      1.91229     59.94273      -999.25      -999.25    339.00004    799.10086      -999.25     35.00000    527.61060      1.07702      0.00000      0.00000      -999.25      -999.25      -999.25      -999.25      -999.25
        347.01480    347.01082     48.11525     18.18880     34.34052    211.59844      0.20280      1.74380     59.99323      -999.25      -999.25    339.00004    799.10086      -999.25     35.00000    528.00002      1.07746      0.00000      0.00000      -999.25      -999.25      -999.25      -999.25      -999.25
        347.16720    347.16322     43.02069     14.84684     34.18975    211.54756      0.75781      1.64462     59.98462      -999.25      -999.25    330.00001    802.17741      -999.25     35.00000    529.00006      1.07888      0.00000      0.00000      -999.25      -999.25      -999.25      -999.25      -999.25
        347.31960    347.31562     43.50588     12.48839     34.03841    212.28033      0.18941      1.63957     60.05265      -999.25      -999.25    332.99997    802.17741      -999.25     35.00000    529.00006      1.07826      0.00000      0.00000      -999.25      -999.25      -999.25      -999.25      -999.25
        347.47200    347.46801     47.63005     12.48839     33.88188    211.37540      0.91178      1.81070     59.95553      -999.25      -999.25    335.99993    802.17741      -999.25     35.00000    529.00006      1.07795      0.00000      0.00000      -999.25      -999.25      -999.25      -999.25      -999.25
        347.62440    347.62041     54.01846     12.46030     33.72663    211.40453      0.59967      1.64530     59.93004      -999.25      -999.25    323.99995    802.17741      -999.25     35.00000    529.00006      1.07767      0.00000      0.00000      -999.25      -999.25      -999.25      -999.25      -999.25
        347.77680    347.77281     56.36357     10.22109     33.59117    211.24608      0.37516      1.81099     59.96691      -999.25      -999.25    332.99997    400.19131      -999.25     35.00000    529.99995      1.07901      0.00000      0.00000      -999.25      -999.25      -999.25      -999.25      -999.25
        347.92920    347.92521     56.20184      9.35595     33.42023    210.07554      1.21599      2.10832     59.98861      -999.25      -999.25    344.99996    397.11503      -999.25     35.00000    530.57227      1.07972      0.00000      0.00000      -999.25      -999.25      -999.25      -999.25      -999.25
        348.08160    348.07760     57.49569      9.13866     33.26429    210.65950      1.44560      1.75269     59.97669      -999.25      -999.25    339.00004    399.93507      -999.25     35.00000    531.16750      1.08045      0.00000      0.00000      -999.25      -999.25      -999.25      -999.25      -999.25
        348.23400    348.23000     60.04297     12.87227     33.13024    211.13345      0.81262      1.89790     59.94803      -999.25      -999.25    326.99991    399.93507      -999.25     35.00000    532.00002      1.08148      0.00000      0.00000      -999.25      -999.25      -999.25      -999.25      -999.25
        348.38640    348.38240     57.68438     12.88162     32.96624    210.45991      1.89903      1.83903     59.99168      -999.25      -999.25    339.00004    400.19131      -999.25     35.00000    532.00002      1.08136      0.00000      0.00000      -999.25      -999.25      -999.25      -999.25      -999.25
        348.53880    348.53479     49.54388     10.61393     32.79501    206.90888      4.79546      2.47753     60.00288      -999.25      -999.25    335.99993    400.19131      -999.25     35.00000    533.00005      1.08275      0.00000      0.00000      -999.25      -999.25      -999.25      -999.25      -999.25
        348.69120    348.68719     46.68661     11.60124     32.71265    210.99929      1.78545      2.30424     59.99225      -999.25      -999.25    332.99997    400.19131      -999.25     35.00000    533.00005      1.08227      0.00000      0.00000      -999.25      -999.25      -999.25      -999.25      -999.25
