~VERSION INFORMATION 
VERS  .    2.0                                     :CWLS Log ASCII Standard - VERSION 2.0
WRAP  .    NO                                      :One Line per Depth step
PROD  .    Schlumberger Technology Corp.           :LAS Producer
PROG  .    Horizon LASWriter 6.2.68624.3100        :LAS Program name and version
SOURCE.    17.5in Section-Drilling                 :Run&Pass Information
CREA  .    12/12/2016                              :LAS Creation date {MM/DD/YYYY}
#--------------------------------------------------
~WELL INFORMATION 
#MNEM           .UNIT                      DATA            :DESCRIPTION
#----            ------          --------------            -----------------------------
STRT            .m                    344.88120            :START DEPTH
STOP            .m                   2348.02680            :STOP DEPTH
STEP            .m                       0.1524            :STEP
NULL            .                       -999.25            :NULL VALUE
COMP            .                Woodside Energy Ltd       :COMPANY
WELL            .                         KDA02            :WELL NAME
FLD             .                      Dockrell            :FIELD NAME
RIGN            .                 Atwood Osprey            :Rig Name
RIGTYP          .                Semi-Submersible          :Rig Type
SON             .                     16AWA0071            :Service Order Number
SRVC            .                  Schlumberger            :SERVICE COMPANY
DATE            .                    11/12/2016            :LOG DATE(Composite Date for Composite LAP) (MM/DD/YYYY)
CLAB            .                       County:            :County Label
CNTY            .                                          :COUNTY
SLAB            .                        State:            :State/Province Label
STAT            .                Western Australia         :STATE or PROVINCE
PROV            .                Western Australia         :STATE or PROVINCE
CTRY            .                     Australia            :COUNTRY
CONT_REGION     .                   Australasia            :Continent Region
SECT            .                                          :Section
TOWN            .                                          :Township
RANG            .                                          :Range
API             .                                          :API NUMBER
UWI             .                     16AWA0071            :UNIQUE WELL ID
LUL             .                 Below Helipad            :Logging Unit Location
LUN             .                   OLU-MB 8047            :Logging Unit Number
LOC             .                 Dampier Basin            :FIELD LOCATION
FL1             .                X: E 372778.040m          :Field Location Line 1
FL2             .                Y: N 7814860.760 m        :Field Location Line 2
LATI            .deg             19° 45' 28.198" S         :LATITUDE
LONG            .deg             115° 47' 8.544" E         :LONGITUDE
PDAT            .                         OTHER            :Local Permanent Datum
LMF             .                            DF            :Logging Measured From
APD             .m                     28.70000            :Elevation of Depth Reference (LMF) Above Permanent Datum
EPD             .m                     -1.60000            :Elevation of Permanent Datum (PDAT) above Mean Sea Level
EKB             .m                      -999.25            :Elevation of Kelly Bushing Above Permanent Datum
EDF             .m                     28.70000            :Elevation of Drill Floor Above Permanent Datum
EGL             .m                   -122.00000            :Elevation of Ground Level Above Permanent Datum
ECF             .m                      -999.25            :Elevation of Casing Flange above Permanent Datum
#--------------------------------------------------
~CURVE INFORMATION
#MNEM           .UNIT                  API CODE            :DESCRIPTION
#----            ------          --------------            -----------------------------
DEPT            .m                                         :                                                        Depth Index
TVD             .m                                         :(RT)    (DnMWorkflow)           (6in)                   True Vertical Depth
GR              .gAPI                                      :(RM)    (ARC9)                  (6in)                   Gamma Ray
ROP5            .m/h                                       :(RT)    (DRILLING_SURFACE)      (6in)                   Rate of penetration averaged over the last 5 ft (1.5 m)
BLKP            .m                                         :(RT)    (DRILLING_SURFACE)      (6in)                   Height of block above rig floor
HKLA            .1000 lbf                                  :(RT)    (DRILLING_SURFACE)      (6in)                   Average Hookload
SWOB            .1000 lbf                                  :(RT)    (DRILLING_SURFACE)      (6in)                   Surface Weight On Bit
STOR            .1000 ft.lbf                               :(RT)    (DRILLING_SURFACE)      (6in)                   Surface Torque
RPM             .c/min                                     :(RT)    (DRILLING_SURFACE)      (6in)                   Rotational Speed
CRPM            .c/min                                     :(RT)    (TELE900)               (6in)                   Collar Rotational Speed
STICK           .c/min                                     :(RT)    (TELE900)               (6in)                   Stick Slip Indicator
SPPA            .psi                                       :(RT)    (DRILLING_SURFACE)      (6in)                   Standpipe Pressure
TFLO            .gal/min                                   :(RT)    (DRILLING_SURFACE)      (6in)                   Total flow rate of all active pumps
TRPM            .c/min                                     :(RT)    (TELE900)               (6in)                   MWD Turbine Rotation Speed
DHAT            .degC                                      :(RM)    (ARC9)                  (6in)                   Downhole Annulus Temperature
DHAP            .psi                                       :(RM)    (ARC9)                  (6in)                   Downhole Annulus Pressure
ECD             .g/cm3                                     :(RM)    (ARC9)                  (6in)                   Equivalent Circulating Density
COBTM           .                                          :(RT)    (DRILLING_SURFACE)      (6in)                   Composite On Bottom Status
SHKL            .                                          :(RM)    (ARC9)                  (6in)                   Tool Shock Level
SHKRSK          .                                          :(RT)    (TELE900)               (6in)                   Shock Risk
SHKRSK          .                                          :(RT)    (PDORBIT_900)           (6in)                   Shock Risk
SHKPK           .gn                                        :(RT)    (TELE900)               (6in)                   Shock Peak
VIB_X           .gn                                        :(RT)    (TELE900)               (6in)                   RMS Vibration, X-Axis
VIB_LAT         .gn                                        :(RT)    (TELE900)               (6in)                   Transverse RMS Vibration
#-------------------------------------------------------------
#            DEPT          TVD           GR         ROP5         BLKP         HKLA         SWOB         STOR          RPM         CRPM        STICK         SPPA         TFLO         TRPM         DHAT         DHAP          ECD        COBTM         SHKL       SHKRSK       SHKRSK        SHKPK        VIB_X      VIB_LAT 
#                  (DnMWorkfl)       (ARC9)  (DRILLING_)  (DRILLING_)  (DRILLING_)  (DRILLING_)  (DRILLING_)  (DRILLING_)    (TELE900)    (TELE900)  (DRILLING_)  (DRILLING_)    (TELE900)       (ARC9)       (ARC9)       (ARC9)  (DRILLING_)       (ARC9)    (TELE900)  (PDORBIT_9)    (TELE900)    (TELE900)    (TELE900) 
#                         (RT)         (RM)         (RT)         (RT)         (RT)         (RT)         (RT)         (RT)         (RT)         (RT)         (RT)         (RT)         (RT)         (RM)         (RM)         (RM)         (RT)         (RM)         (RT)         (RT)         (RT)         (RT)         (RT) 
#                        (6in)        (6in)        (6in)        (6in)        (6in)        (6in)        (6in)        (6in)        (6in)        (6in)        (6in)        (6in)        (6in)        (6in)        (6in)        (6in)        (6in)        (6in)        (6in)        (6in)        (6in)        (6in)        (6in) 
~ASCII
# ...
        745.08360    743.68910     62.65261    142.53420      1.44377    206.61478     23.43741      8.20580    100.01990      -999.25      -999.25   2165.99938   1004.96485   2890.62500     40.00000   1300.99997      1.23389      0.00000      0.00000      -999.25      -999.25      -999.25      -999.25      -999.25
        745.23600    743.83847     67.54662    146.98010      1.33807    206.04392     23.20584      7.90271    100.00900      -999.25      -999.25   2150.99957   1008.81040      -999.25     40.00000   1300.99997      1.23362      0.00000      0.00000      -999.25      -999.25      -999.25      -999.25      -999.25
        745.38840    743.98783     71.24021    146.93060      1.05842    206.55142     22.14572      7.60374     99.95813      -999.25      -999.25   2154.00040      -999.25      -999.25     40.00000   1301.35168      1.23382      0.00000      0.00000      0.00000      -999.25      0.00000      -999.25      -999.25
        745.54080    744.13719     73.73339    146.66330      0.94248    206.76135     22.24987      7.56802     99.99709    100.00000      -999.25   2141.99998   1006.50312   2851.56300     40.00000   1302.00000      1.23421      0.00000      0.00000      -999.25      -999.25      -999.25      -999.25      -999.25
        745.69320    744.28655     74.51828    139.57950      0.78386    218.50758      8.43458      3.71756    100.00390      -999.25      -999.25   2144.99936   1005.22136      -999.25     40.00000   1302.00000      1.23394      0.00000      0.00000      -999.25      -999.25      -999.25      -999.25      0.00000
        745.84560    744.43590     75.07232    140.78510      0.67126    227.39448      2.21894      2.65495     99.96681     75.00000      9.00000   2141.99998   1008.81040      -999.25     40.00000   1302.00000      1.23369      0.00000      0.00000      -999.25      0.00000      -999.25      0.12492      -999.25
        745.99800    744.58525     77.65784     53.53355     41.09749    221.78063     10.89040      5.90533     82.67006      -999.25      -999.25   2181.00063   1005.47761      -999.25     40.00000   1302.00000      1.23348      0.00000      0.00000      0.00000      -999.25      0.00000      0.12492      0.24983
        746.15040    744.73459     79.31995     57.29475     40.93100    221.48168     10.73238      6.48128     95.61826      -999.25      -999.25   2184.00001      -999.25      -999.25     40.00000   1303.42920      1.23455      0.00000      0.00000      -999.25      0.00000      -999.25      -999.25      -999.25
        746.30280    744.88393     78.62740     51.32483     40.77624    223.51875      8.98839      4.14241    119.96140      -999.25      -999.25   2144.99936   1005.22136      -999.25     40.00000   1304.99996      1.23573      0.00000      0.00000      -999.25      -999.25      -999.25      -999.25      -999.25
        746.45520    745.03327     77.51933     46.14693     40.64753    223.34040      8.57091      4.04465    120.07350      -999.25      -999.25   2139.00060   1005.22136      -999.25     40.00000   1304.99996      1.23554      0.00000      0.00000      -999.25      -999.25      -999.25      -999.25      -999.25
        746.60760    745.18260     77.65784     46.02928     40.50438    220.84543     11.70130      4.19845    120.06900      -999.25      -999.25   2150.99957   1005.22136   2851.56300     40.00000   1304.99996      1.23526      0.00000      0.00000      -999.25      -999.25      -999.25      -999.25      -999.25
        746.76000    745.33193     78.11954     49.16465     40.27644    220.23389     11.83577      4.36458    120.08470      -999.25      -999.25   2150.99957   1005.47761      -999.25     40.00000   1306.00000      1.23596      0.00000      0.00000      -999.25      -999.25      -999.25      -999.25      -999.25
        746.91240    745.48125     78.11954     45.53460     40.21613    220.55596     11.32433      4.33610    119.88250      -999.25      -999.25   2159.99917   1005.22136      -999.25     40.00000   1306.00000      1.23574      0.00000      0.00000      -999.25      -999.25      -999.25      -999.25      -999.25
        747.06480    745.63057     77.17306     45.53316     39.95493    221.86815     10.45978      4.04073    119.99810    121.00000      -999.25   2150.99957      -999.25      -999.25     40.00000   1306.00000      1.23549      0.00000      0.00000      -999.25      -999.25      -999.25      -999.25      -999.25
        747.21720    745.77989     74.19508     49.55193     39.86439    221.07052     11.17436      3.97637    120.02460      -999.25      -999.25   2165.99938   1005.22136      -999.25     40.00000   1306.00000      1.23518      0.00000      0.00000      -999.25      -999.25      -999.25      -999.25      -999.25
        747.36960    745.92920     71.07861     45.26357     39.74264    221.00614     11.05662      4.87869    119.99690      -999.25      -999.25   2156.99979   1005.22136      -999.25     40.00000   1307.00003      1.23593      0.00000      0.00000      -999.25      -999.25      -999.25      -999.25      -999.25
        747.52200    746.07851     69.99362     87.53285     39.54980    222.06965     10.31423      4.06907    120.01690      -999.25      -999.25   2171.99959      -999.25      -999.25     40.00000   1307.26792      1.23595      0.00000      0.00000      -999.25      -999.25      -999.25      -999.25      0.24983
        747.67440    746.22781     71.37872     86.24216     39.41990    220.23184     12.18201      4.73677    119.96080      -999.25     27.00000   2141.99998   1008.81040      -999.25     40.00000   1307.55524      1.23597      0.00000      0.00000      0.00000      0.00000      0.00000      0.12492      -999.25
        747.82680    746.37711     74.14892     90.42599     39.26790    218.59951     13.57470      5.19161    119.99140      -999.25      -999.25   2181.00063   1008.81040      -999.25     40.00000   1307.84285      1.23600      0.00000      0.00000      -999.25      -999.25      -999.25      -999.25      -999.25
        747.97920    746.52641     75.53402     98.62529     39.14703    218.85750     13.04716      4.61768    119.92430      -999.25      -999.25   2165.99938      -999.25      -999.25     40.00000   1308.99996      1.23687      0.00000      0.00000      -999.25      -999.25      -999.25      -999.25      -999.25
        748.13160    746.67570     74.26434     99.42913     38.91241    219.18993     12.79320      4.50839    120.04170      -999.25      -999.25   2171.99959   1006.24688      -999.25     40.00000   1309.24609      1.23683      0.00000      0.00000      -999.25      -999.25      -999.25      -999.25      -999.25
        748.28400    746.82499     72.25595     98.45827     38.80512    218.39177     13.90427      5.78360    119.93040      -999.25      -999.25   2156.99979   1006.24688      -999.25     40.00000   1309.46973      1.23679      0.00000      0.00000      -999.25      -999.25      -999.25      -999.25      -999.25
        748.43640    746.97427     72.04819     94.28827     38.64198    217.17017     14.93183      4.92437    120.01550      -999.25      -999.25   2181.00063   1009.06691   2851.56300     40.00000   1309.69338      1.23675      0.00000      0.00000      -999.25      -999.25      -999.25      -999.25      -999.25
        748.58880    747.12355     72.57914     92.53671     38.50401    217.10008     15.03211      5.62799    120.00070      -999.25      -999.25   2190.00022   1009.06691      -999.25     40.00000   1309.99999      1.23670      0.00000      0.00000      -999.25      -999.25      -999.25      -999.25      -999.25
        748.74120    747.27283     72.44064     89.44099     38.35456    216.57911     15.43583      5.91089    119.98470      -999.25      -999.25   2159.99917   1009.32316      -999.25     40.00000   1309.99999      1.23655      0.00000      0.00000      -999.25      -999.25      -999.25      -999.25      -999.25
        748.89360    747.42210     72.16361     96.71071     38.14902    217.48640     14.21215      5.17296    120.00260      -999.25      -999.25   2165.99938      -999.25      -999.25     40.00000   1309.99999      1.23630      0.00000      0.00000      -999.25      -999.25      -999.25      -999.25      -999.25
