~VERSION INFORMATION 
VERS  .    2.0                                     :CWLS Log ASCII Standard - VERSION 2.0
WRAP  .    NO                                      :One Line per Depth step
PROD  .    Schlumberger Technology Corp.           :LAS Producer
PROG  .    Horizon LASWriter 6.2.68624.3100        :LAS Program name and version
SOURCE.    17.5in Section-Drilling                 :Run&Pass Information
CREA  .    12/12/2016                              :LAS Creation date {MM/DD/YYYY}
#--------------------------------------------------
~WELL INFORMATION 
#MNEM           .UNIT                      DATA            :DESCRIPTION
#----            ------          --------------            -----------------------------
STRT            .m                    344.88120            :START DEPTH
STOP            .m                   2348.02680            :STOP DEPTH
STEP            .m                       0.1524            :STEP
NULL            .                       -999.25            :NULL VALUE
COMP            .                Woodside Energy Ltd       :COMPANY
WELL            .                         KDA02            :WELL NAME
FLD             .                      Dockrell            :FIELD NAME
RIGN            .                 Atwood Osprey            :Rig Name
RIGTYP          .                Semi-Submersible          :Rig Type
SON             .                     16AWA0071            :Service Order Number
SRVC            .                  Schlumberger            :SERVICE COMPANY
DATE            .                    11/12/2016            :LOG DATE(Composite Date for Composite LAP) (MM/DD/YYYY)
CLAB            .                       County:            :County Label
CNTY            .                                          :COUNTY
SLAB            .                        State:            :State/Province Label
STAT            .                Western Australia         :STATE or PROVINCE
PROV            .                Western Australia         :STATE or PROVINCE
CTRY            .                     Australia            :COUNTRY
CONT_REGION     .                   Australasia            :Continent Region
SECT            .                                          :Section
TOWN            .                                          :Township
RANG            .                                          :Range
API             .                                          :API NUMBER
UWI             .                     16AWA0071            :UNIQUE WELL ID
LUL             .                 Below Helipad            :Logging Unit Location
LUN             .                   OLU-MB 8047            :Logging Unit Number
LOC             .                 Dampier Basin            :FIELD LOCATION
FL1             .                X: E 372778.040m          :Field Location Line 1
FL2             .                Y: N 7814860.760 m        :Field Location Line 2
LATI            .deg             19° 45' 28.198" S         :LATITUDE
LONG            .deg             115° 47' 8.544" E         :LONGITUDE
PDAT            .                         OTHER            :Local Permanent Datum
LMF             .                            DF            :Logging Measured From
APD             .m                     28.70000            :Elevation of Depth Reference (LMF) Above Permanent Datum
EPD             .m                     -1.60000            :Elevation of Permanent Datum (PDAT) above Mean Sea Level
EKB             .m                      -999.25            :Elevation of Kelly Bushing Above Permanent Datum
EDF             .m                     28.70000            :Elevation of Drill Floor Above Permanent Datum
EGL             .m                   -122.00000            :Elevation of Ground Level Above Permanent Datum
ECF             .m                      -999.25            :Elevation of Casing Flange above Permanent Datum
#--------------------------------------------------
~CURVE INFORMATION
#MNEM           .UNIT                  API CODE            :DESCRIPTION
#----            ------          --------------            -----------------------------
DEPT            .m                                         :                                                        Depth Index
TVD             .m                                         :(RT)    (DnMWorkflow)           (6in)                   True Vertical Depth
GR              .gAPI                                      :(RM)    (ARC9)                  (6in)                   Gamma Ray
ROP5            .m/h                                       :(RT)    (DRILLING_SURFACE)      (6in)                   Rate of penetration averaged over the last 5 ft (1.5 m)
BLKP            .m                                         :(RT)    (DRILLING_SURFACE)      (6in)                   Height of block above rig floor
HKLA            .1000 lbf                                  :(RT)    (DRILLING_SURFACE)      (6in)                   Average Hookload
SWOB            .1000 lbf                                  :(RT)    (DRILLING_SURFACE)      (6in)                   Surface Weight On Bit
STOR            .1000 ft.lbf                               :(RT)    (DRILLING_SURFACE)      (6in)                   Surface Torque
RPM             .c/min                                     :(RT)    (DRILLING_SURFACE)      (6in)                   Rotational Speed
CRPM            .c/min                                     :(RT)    (TELE900)               (6in)                   Collar Rotational Speed
STICK           .c/min                                     :(RT)    (TELE900)               (6in)                   Stick Slip Indicator
SPPA            .psi                                       :(RT)    (DRILLING_SURFACE)      (6in)                   Standpipe Pressure
TFLO            .gal/min                                   :(RT)    (DRILLING_SURFACE)      (6in)                   Total flow rate of all active pumps
TRPM            .c/min                                     :(RT)    (TELE900)               (6in)                   MWD Turbine Rotation Speed
DHAT            .degC                                      :(RM)    (ARC9)                  (6in)                   Downhole Annulus Temperature
DHAP            .psi                                       :(RM)    (ARC9)                  (6in)                   Downhole Annulus Pressure
ECD             .g/cm3                                     :(RM)    (ARC9)                  (6in)                   Equivalent Circulating Density
COBTM           .                                          :(RT)    (DRILLING_SURFACE)      (6in)                   Composite On Bottom Status
SHKL            .                                          :(RM)    (ARC9)                  (6in)                   Tool Shock Level
SHKRSK          .                                          :(RT)    (TELE900)               (6in)                   Shock Risk
SHKRSK          .                                          :(RT)    (PDORBIT_900)           (6in)                   Shock Risk
SHKPK           .gn                                        :(RT)    (TELE900)               (6in)                   Shock Peak
VIB_X           .gn                                        :(RT)    (TELE900)               (6in)                   RMS Vibration, X-Axis
VIB_LAT         .gn                                        :(RT)    (TELE900)               (6in)                   Transverse RMS Vibration
#-------------------------------------------------------------
#            DEPT          TVD           GR         ROP5         BLKP         HKLA         SWOB         STOR          RPM         CRPM        STICK         SPPA         TFLO         TRPM         DHAT         DHAP          ECD        COBTM         SHKL       SHKRSK       SHKRSK        SHKPK        VIB_X      VIB_LAT 
#                  (DnMWorkfl)       (ARC9)  (DRILLING_)  (DRILLING_)  (DRILLING_)  (DRILLING_)  (DRILLING_)  (DRILLING_)    (TELE900)    (TELE900)  (DRILLING_)  (DRILLING_)    (TELE900)       (ARC9)       (ARC9)       (ARC9)  (DRILLING_)       (ARC9)    (TELE900)  (PDORBIT_9)    (TELE900)    (TELE900)    (TELE900) 
#                         (RT)         (RM)         (RT)         (RT)         (RT)         (RT)         (RT)         (RT)         (RT)         (RT)         (RT)         (RT)         (RT)         (RM)         (RM)         (RM)         (RT)         (RM)         (RT)         (RT)         (RT)         (RT)         (RT) 
#                        (6in)        (6in)        (6in)        (6in)        (6in)        (6in)        (6in)        (6in)        (6in)        (6in)        (6in)        (6in)        (6in)        (6in)        (6in)        (6in)        (6in)        (6in)        (6in)        (6in)        (6in)        (6in)        (6in) 
~ASCII
# ...
       1145.28600   1121.09364     31.15701    116.68970      9.68910    225.97448     28.04946     11.97446    118.97390      -999.25    102.00000   2190.00022   1009.06691      -999.25     47.00000   1919.00011      1.20607      0.00000      0.00000      0.00000      0.00000     15.98915      0.12492      0.99932
       1145.43840   1121.23589     38.27488    103.63940      9.52279    221.15804     33.35138     13.12919    119.01130      -999.25      -999.25   2181.00063   1009.06691      -999.25     46.00000   1919.00011      1.20601      0.00000      0.00000      -999.25      -999.25      -999.25      -999.25      -999.25
       1145.59080   1121.37814     43.26123    102.12630      9.37646    217.58466     37.36621     13.85071    118.97380      -999.25      -999.25   2198.99981   1009.06691      -999.25     46.00000   1919.99942      1.20636      0.00000      0.00000      -999.25      -999.25      -999.25      -999.25      -999.25
       1145.74320   1121.52039     41.92230    109.43690      9.21981    215.32260     38.71663     13.68074    119.17370      -999.25      -999.25   2175.00042   1007.52864      -999.25     46.00000   1919.00011      1.20556      0.00000      0.00000      -999.25      -999.25      -999.25      -999.25      -999.25
       1145.89560   1121.66263     38.99051    108.09980      9.06790    214.59245     39.09576     16.00853    118.93870      -999.25      -999.25   2192.99960   1009.06691      -999.25     46.00000   1904.00031      1.19606      0.00000      0.00000      -999.25      -999.25      -999.25      -999.25      -999.25
       1146.04800   1121.80488     37.62850    128.59390      8.92518    218.79372     36.22605     13.55311    119.08110      -999.25      -999.25   2186.99939   1008.55415      -999.25     46.00000   1904.00031      1.19583      0.00000      0.00000      -999.25      -999.25      -999.25      -999.25      -999.25
       1146.20040   1121.94713     36.17414    114.40910      8.78154    213.93025     41.08363     15.85845    119.01670      -999.25      -999.25   2181.00063   1008.81040      -999.25     46.00000   1904.99962      1.19633      0.00000      0.00000      -999.25      -999.25      -999.25      -999.25      -999.25
       1146.35280   1122.08937     33.93491    122.89420      8.67062    212.93744     41.09835     14.23243    119.12720      -999.25      -999.25   2186.99939   1008.81040   2890.62500     46.00000   1904.99962      1.19621      0.00000      0.00000      -999.25      -999.25      -999.25      -999.25      -999.25
       1146.50520   1122.23162     33.40395    137.77300      8.48384    212.61592     41.23420     16.19111    119.03140      -999.25      -999.25   2186.99939   1006.24688      -999.25     46.00000   1904.99962      1.19614      0.00000      0.00000      -999.25      -999.25      -999.25      -999.25      -999.25
       1146.65760   1122.37386     33.19619    124.04000      8.30058    213.57350     40.72639     15.11356    118.93330      -999.25      -999.25   2169.00021   1009.32316      -999.25     46.00000   1905.87274      1.19646      0.00000      0.00000      -999.25      -999.25      -999.25      -999.25      -999.25
       1146.81000   1122.51611     30.42599    125.46380      8.16645    208.25408     47.09180     16.18144    118.96580      -999.25      -999.25   2201.99919   1009.06691      -999.25     46.00000   1906.99969      1.19700      0.00000      0.00000      -999.25      -999.25      -999.25      -999.25      -999.25
       1146.96240   1122.65835     27.14792    120.83750      8.00654    197.82143     55.28817     15.63515    118.97180    111.00000      -999.25   2175.00042   1008.81040      -999.25     46.00000   1906.99969      1.19687      0.00000      0.00000      -999.25      -999.25      -999.25      -999.25      -999.25
       1147.11480   1122.80060     26.50154    102.59560      7.86136    197.93243     55.32077     15.31051    119.02340      -999.25     99.00000   2198.99981   1008.81040      -999.25     46.00000   1906.99969      1.19669      0.00000      0.00000      0.00000      0.00000     23.98373      0.24983      0.99932
       1147.26720   1122.94284     26.96325     91.97630      7.70087    197.56309     57.16858     17.65422    106.57650      -999.25      -999.25   2169.00021   1005.22136      -999.25     46.00000   1907.58854      1.19693      0.00000      0.00000      -999.25      -999.25      -999.25      -999.25      -999.25
       1147.41960   1123.08508     27.03250     89.52003      7.55909    199.51639     53.19208     13.46638     98.88492      -999.25      -999.25   2169.00021   1009.06691      -999.25     46.00000   1908.41526      1.19730      0.00000      0.00000      -999.25      -999.25      -999.25      -999.25      -999.25
       1147.57200   1123.22733     27.56345     77.55532      7.43349    198.68661     56.00685     19.56221     99.54012      -999.25      -999.25   2175.00042   1007.52864   2929.68800     46.00000   1908.99976      1.19756      0.00000      0.00000      -999.25      -999.25      -999.25      -999.25      -999.25
       1147.72440   1123.36957     29.80270     84.88505      7.24546    203.87327     47.52503     14.41138     99.79534      -999.25      -999.25   2192.99960   1009.57967      -999.25     46.00000   1910.00052      1.19801      0.00000      0.00000      -999.25      -999.25      -999.25      -999.25      -999.25
       1147.87680   1123.51181     34.02724     76.36024      7.14517    199.47628     53.77641     21.81159     99.89268    104.00000      -999.25   2190.00022   1004.70860      -999.25     46.00000   1910.00052      1.19781      0.00000      0.00000      -999.25      -999.25      -999.25      -999.25      -999.25
       1148.02920   1123.65405     36.95903     76.82894      6.92859    202.42448     50.30023     12.41780     99.80513      -999.25      -999.25   2186.99939   1005.47761      -999.25     46.00000   1910.54006      1.19802      0.00000      0.00000      -999.25      -999.25      -999.25      -999.25      -999.25
       1148.18160   1123.79629     36.70510     73.93641      6.76844    201.59195     51.95511     19.58777     99.98011      -999.25    243.00000   2201.99919   1007.01588      -999.25     46.00000   1911.19273      1.19828      0.00000      0.00000      -999.25      0.00000      -999.25      0.24983      -999.25
       1148.33400   1123.93853     35.64319     68.86987      6.61387    200.87904     50.03226     17.25118     99.89330      -999.25      -999.25   2175.00042   1009.32316      -999.25     46.00000   1912.00059      1.19858      0.00000      0.00000      -999.25      -999.25      -999.25      -999.25      1.24915
       1148.48640   1124.08077     34.85830     75.55389      6.50666    202.48994     50.41449     17.13899    100.13500      -999.25      -999.25   2186.99939      -999.25      -999.25     46.00000   1912.37334      1.19872      0.00000      0.00000      -999.25      -999.25      -999.25      -999.25      -999.25
       1148.63880   1124.22301     34.09650     74.81088      6.33508    201.47466     51.45278     12.34271    100.01010      -999.25      -999.25   2175.00042   1008.81040      -999.25     46.00000   1912.99990      1.19895      0.00000      0.00000      0.00000      -999.25     23.98373      -999.25      -999.25
       1148.79120   1124.36525     33.79639     88.81261      6.18774    197.14090     55.09663     16.71409     98.81901      -999.25      -999.25   2181.00063   1008.81040      -999.25     46.00000   1914.00066      1.19951      0.00000      0.00000      -999.25      -999.25      -999.25      -999.25      -999.25
       1148.94360   1124.50749     34.39660     77.74810      6.02375    199.28408     54.68983     14.89301    100.06070      -999.25      -999.25   2165.99938   1003.93933      -999.25     46.00000   1914.00066      1.19925      0.00000      0.00000      -999.25      -999.25      -999.25      -999.25      -999.25
       1149.09600   1124.64973     34.67362     75.97785      5.84219    200.16849     51.23014     12.24442     99.71078     98.00000    273.00000   2163.00000   1007.52864   2929.68800     46.00000   1914.65333      1.19954      0.00000      0.00000      -999.25      0.00000      -999.25      0.37475      1.24915
