~VERSION INFORMATION 
VERS  .    2.0                                     :CWLS Log ASCII Standard - VERSION 2.0
WRAP  .    NO                                      :One Line per Depth step
PROD  .    Schlumberger Technology Corp.           :LAS Producer
PROG  .    Horizon LASWriter 6.2.68624.3100        :LAS Program name and version
SOURCE.    17.5in Section-Drilling                 :Run&Pass Information
CREA  .    12/12/2016                              :LAS Creation date {MM/DD/YYYY}
#--------------------------------------------------
~WELL INFORMATION 
#MNEM           .UNIT                      DATA            :DESCRIPTION
#----            ------          --------------            -----------------------------
STRT            .m                    344.88120            :START DEPTH
STOP            .m                   2348.02680            :STOP DEPTH
STEP            .m                       0.1524            :STEP
NULL            .                       -999.25            :NULL VALUE
COMP            .                Woodside Energy Ltd       :COMPANY
WELL            .                         KDA02            :WELL NAME
FLD             .                      Dockrell            :FIELD NAME
RIGN            .                 Atwood Osprey            :Rig Name
RIGTYP          .                Semi-Submersible          :Rig Type
SON             .                     16AWA0071            :Service Order Number
SRVC            .                  Schlumberger            :SERVICE COMPANY
DATE            .                    11/12/2016            :LOG DATE(Composite Date for Composite LAP) (MM/DD/YYYY)
CLAB            .                       County:            :County Label
CNTY            .                                          :COUNTY
SLAB            .                        State:            :State/Province Label
STAT            .                Western Australia         :STATE or PROVINCE
PROV            .                Western Australia         :STATE or PROVINCE
CTRY            .                     Australia            :COUNTRY
CONT_REGION     .                   Australasia            :Continent Region
SECT            .                                          :Section
TOWN            .                                          :Township
RANG            .                                          :Range
API             .                                          :API NUMBER
UWI             .                     16AWA0071            :UNIQUE WELL ID
LUL             .                 Below Helipad            :Logging Unit Location
LUN             .                   OLU-MB 8047            :Logging Unit Number
LOC             .                 Dampier Basin            :FIELD LOCATION
FL1             .                X: E 372778.040m          :Field Location Line 1
FL2             .                Y: N 7814860.760 m        :Field Location Line 2
LATI            .deg             19° 45' 28.198" S         :LATITUDE
LONG            .deg             115° 47' 8.544" E         :LONGITUDE
PDAT            .                         OTHER            :Local Permanent Datum
LMF             .                            DF            :Logging Measured From
APD             .m                     28.70000            :Elevation of Depth Reference (LMF) Above Permanent Datum
EPD             .m                     -1.60000            :Elevation of Permanent Datum (PDAT) above Mean Sea Level
EKB             .m                      -999.25            :Elevation of Kelly Bushing Above Permanent Datum
EDF             .m                     28.70000            :Elevation of Drill Floor Above Permanent Datum
EGL             .m                   -122.00000            :Elevation of Ground Level Above Permanent Datum
ECF             .m                      -999.25            :Elevation of Casing Flange above Permanent Datum
#--------------------------------------------------
~CURVE INFORMATION
#MNEM           .UNIT                  API CODE            :DESCRIPTION
#----            ------          --------------            -----------------------------
DEPT            .m                                         :                                                        Depth Index
TVD             .m                                         :(RT)    (DnMWorkflow)           (6in)                   True Vertical Depth
GR              .gAPI                                      :(RM)    (ARC9)                  (6in)                   Gamma Ray
ROP5            .m/h                                       :(RT)    (DRILLING_SURFACE)      (6in)                   Rate of penetration averaged over the last 5 ft (1.5 m)
BLKP            .m                                         :(RT)    (DRILLING_SURFACE)      (6in)                   Height of block above rig floor
HKLA            .1000 lbf                                  :(RT)    (DRILLING_SURFACE)      (6in)                   Average Hookload
SWOB            .1000 lbf                                  :(RT)    (DRILLING_SURFACE)      (6in)                   Surface Weight On Bit
STOR            .1000 ft.lbf                               :(RT)    (DRILLING_SURFACE)      (6in)                   Surface Torque
RPM             .c/min                                     :(RT)    (DRILLING_SURFACE)      (6in)                   Rotational Speed
CRPM            .c/min                                     :(RT)    (TELE900)               (6in)                   Collar Rotational Speed
STICK           .c/min                                     :(RT)    (TELE900)               (6in)                   Stick Slip Indicator
SPPA            .psi                                       :(RT)    (DRILLING_SURFACE)      (6in)                   Standpipe Pressure
TFLO            .gal/min                                   :(RT)    (DRILLING_SURFACE)      (6in)                   Total flow rate of all active pumps
TRPM            .c/min                                     :(RT)    (TELE900)               (6in)                   MWD Turbine Rotation Speed
DHAT            .degC                                      :(RM)    (ARC9)                  (6in)                   Downhole Annulus Temperature
DHAP            .psi                                       :(RM)    (ARC9)                  (6in)                   Downhole Annulus Pressure
ECD             .g/cm3                                     :(RM)    (ARC9)                  (6in)                   Equivalent Circulating Density
COBTM           .                                          :(RT)    (DRILLING_SURFACE)      (6in)                   Composite On Bottom Status
SHKL            .                                          :(RM)    (ARC9)                  (6in)                   Tool Shock Level
SHKRSK          .                                          :(RT)    (TELE900)               (6in)                   Shock Risk
SHKRSK          .                                          :(RT)    (PDORBIT_900)           (6in)                   Shock Risk
SHKPK           .gn                                        :(RT)    (TELE900)               (6in)                   Shock Peak
VIB_X           .gn                                        :(RT)    (TELE900)               (6in)                   RMS Vibration, X-Axis
VIB_LAT         .gn                                        :(RT)    (TELE900)               (6in)                   Transverse RMS Vibration
#-------------------------------------------------------------
#            DEPT          TVD           GR         ROP5         BLKP         HKLA         SWOB         STOR          RPM         CRPM        STICK         SPPA         TFLO         TRPM         DHAT         DHAP          ECD        COBTM         SHKL       SHKRSK       SHKRSK        SHKPK        VIB_X      VIB_LAT 
#                  (DnMWorkfl)       (ARC9)  (DRILLING_)  (DRILLING_)  (DRILLING_)  (DRILLING_)  (DRILLING_)  (DRILLING_)    (TELE900)    (TELE900)  (DRILLING_)  (DRILLING_)    (TELE900)       (ARC9)       (ARC9)       (ARC9)  (DRILLING_)       (ARC9)    (TELE900)  (PDORBIT_9)    (TELE900)    (TELE900)    (TELE900) 
#                         (RT)         (RM)         (RT)         (RT)         (RT)         (RT)         (RT)         (RT)         (RT)         (RT)         (RT)         (RT)         (RT)         (RM)         (RM)         (RM)         (RT)         (RM)         (RT)         (RT)         (RT)         (RT)         (RT) 
#                        (6in)        (6in)        (6in)        (6in)        (6in)        (6in)        (6in)        (6in)        (6in)        (6in)        (6in)        (6in)        (6in)        (6in)        (6in)        (6in)        (6in)        (6in)        (6in)        (6in)        (6in)        (6in)        (6in) 
~ASCII
# ...
       1810.96920   1750.54758     73.31562     39.54558     33.70304    235.56216     55.12031     18.85589    120.02450    125.00000     66.00000   2375.99952   1200.31769   3085.93800     55.00000   3111.99932      1.25161      0.00000      0.00000      -999.25      -999.25      -999.25      -999.25      -999.25
       1811.12160   1750.69262     77.99250     35.59192     33.54972    238.41142     53.31560     19.17591    119.88520      -999.25      -999.25   2349.00074   1200.57420      -999.25     55.00000   3113.99939      1.25232      0.00000      0.00000      0.00000      0.00000      0.00000      -999.25      -999.25
       1811.27400   1750.83766     85.59244     33.14526     33.36813    246.68228     45.31165     15.93213    119.98680      -999.25      -999.25   2270.99945   1200.06145      -999.25     55.00000   3113.99939      1.25224      0.00000      0.00000      -999.25      -999.25      -999.25      0.24983      0.74949
       1811.42640   1750.98271     88.39368     33.13105     33.27718    245.15646     46.28360     16.14054    119.95430    123.00000      -999.25   2322.00052   1197.75417   3046.87500     55.00000   3117.00022      1.25330      0.00000      0.00000      -999.25      -999.25      -999.25      -999.25      -999.25
       1811.57880   1751.12775     87.83342     33.33894     33.13559    244.65976     47.17469     18.05258    119.90080      -999.25      -999.25   2358.00033   1194.67788      -999.25     55.00000   3117.99953      1.25357      0.00000      0.00000      -999.25      -999.25      -999.25      -999.25      -999.25
       1811.73120   1751.27279     88.32060     31.18022     32.93290    241.57571     49.45081     16.05393    119.95300      -999.25     72.00000   2384.99911   1198.01041      -999.25     55.00000   3115.99946      1.25269      0.00000      0.00000      -999.25      0.00000      -999.25      -999.25      -999.25
       1811.88360   1751.41782     84.93473     31.09906     32.78985    237.67838     52.66685     17.79907    119.94170      -999.25      -999.25   2390.99932   1196.98516      -999.25     55.00000   3115.00015      1.25223      0.00000      0.00000      0.00000      -999.25      0.00000      0.24983      0.49966
       1812.03600   1751.56286     74.24126     31.07532     32.65915    236.76875     55.02623     17.86562    119.95040      -999.25      -999.25   2331.00011   1197.24141      -999.25     55.00000   3115.00015      1.25212      0.00000      0.00000      -999.25      -999.25      -999.25      -999.25      -999.25
       1812.18840   1751.70790     64.81444     31.06748     32.48919    235.34986     55.93597     17.90236    119.99300    121.00000      -999.25   2331.00011   1199.54869   3046.87500     55.00000   3113.95733      1.25157      0.00000      0.00000      -999.25      -999.25      -999.25      -999.25      -999.25
       1812.34080   1751.85294     65.08237     33.32703     32.32889    236.36906     53.79493     17.61332    120.01940      -999.25     45.00000   2339.99970   1198.01041      -999.25     55.00000   3113.00008      1.25111      0.00000      0.00000      -999.25      0.00000      -999.25      0.24983      0.74949
       1812.49320   1751.99797     72.95025     37.13840     32.17472    236.55072     54.68099     17.10025    119.94980      -999.25      -999.25   2360.99971   1198.77968      -999.25     55.00000   3115.00015      1.25183      0.00000      0.00000      0.00000      -999.25      0.00000      -999.25      -999.25
       1812.64560   1752.14301     75.78073     42.15343     32.03743    236.66095     53.48591     18.69373    119.96940      -999.25      -999.25   2345.99991   1196.72865      -999.25     55.00000   3114.38954      1.25143      0.00000      0.00000      -999.25      -999.25      -999.25      -999.25      -999.25
       1812.79800   1752.28804     75.49329     40.48392     31.87510    238.25467     52.66579     18.75328    119.90940    116.00000     87.00000   2297.99967   1194.93413   3046.87500     55.00000   3115.00015      1.25156      0.00000      0.00000      -999.25      -999.25      -999.25      -999.25      -999.25
       1812.95040   1752.43308     77.91455     37.97821     31.70594    238.59043     53.59166     17.50778    119.94880      -999.25      -999.25   2354.99950      -999.25      -999.25     56.00000   3116.03427      1.25188      0.00000      0.00000      0.00000      0.00000      0.00000      0.24983      0.74949
       1813.10280   1752.57811     70.86027     34.91305     31.55794    234.03811     57.34955     18.44017    119.91490      -999.25      -999.25   2306.99926   1198.77968      -999.25     56.00000   3115.00015      1.25140      0.00000      0.00000      -999.25      -999.25      -999.25      -999.25      -999.25
       1813.25520   1752.72314     56.88810     34.89769     31.40485    240.47649     51.12447     19.60583    120.01790      -999.25      -999.25   2352.00012   1195.70314   3046.87500     56.00000   3115.99946      1.25171      0.00000      0.00000      -999.25      -999.25      -999.25      -999.25      -999.25
       1813.40760   1752.86817     50.17483     35.14835     31.26050    238.44250     52.49506     18.45463    120.06660    116.00000      -999.25   2358.00033   1195.44689      -999.25     56.00000   3117.00022      1.25194      0.00000      0.00000      -999.25      0.00000      -999.25      0.24983      0.74949
       1813.56000   1753.01320     52.93956     34.36613     31.10207    237.23613     54.14119     19.28530    119.91090      -999.25    102.00000   2339.99970      -999.25      -999.25     56.00000   3117.00022      1.25183      0.00000      0.00000      -999.25      -999.25      -999.25      -999.25      -999.25
       1813.71240   1753.15823     57.99398     36.74689     30.98157    236.45305     54.58445     19.50893    119.96840      -999.25      -999.25   2295.00029   1197.24141      -999.25     56.00000   3117.00022      1.25178      0.00000      0.00000      -999.25      -999.25      -999.25      -999.25      -999.25
       1813.86480   1753.30326     58.39590     34.40150     30.79767    237.78773     50.70506     16.54435    120.12270    119.00000      -999.25   2339.99970   1197.75417      -999.25     56.00000   3117.99953      1.25200      0.00000      0.00000      0.00000      0.00000      0.00000      0.24983      -999.25
       1814.01720   1753.44829     57.04401     38.06979     30.63721    234.59059     55.62309     19.66275    120.02140      -999.25      -999.25   2339.99970      -999.25   3046.87500     56.00000   3117.00022      1.25155      0.00000      0.00000      -999.25      -999.25      -999.25      -999.25      0.74949
       1814.16960   1753.59332     57.84784     35.01294     30.49356    237.41537     53.26132     19.10863    120.07910      -999.25     69.00000   2345.99991   1201.08670      -999.25     56.00000   3119.00029      1.25229      0.00000      0.00000      -999.25      -999.25      -999.25      -999.25      -999.25
       1814.32200   1753.73834     61.44075     37.10392     30.35140    236.73833     53.62947     18.66694    119.99250      -999.25      -999.25   2358.00033   1199.80494      -999.25     56.00000   3119.99960      1.25255      0.00000      0.00000      0.00000      -999.25      0.00000      -999.25      -999.25
       1814.47440   1753.88337     62.42728     33.44308     30.18217    239.68326     49.94621     17.48247    120.00060      -999.25      -999.25   2333.99949   1201.08696   3027.34400     56.00000   3117.99953      1.25166      0.00000      0.00000      -999.25      -999.25      -999.25      -999.25      0.74949
       1814.62680   1754.02839     54.71774     35.88431     30.06099    236.25045     55.18931     17.48712    119.98880    111.00000      -999.25   2345.99991   1201.08696      -999.25     56.00000   3119.99960      1.25229      0.00000      0.00000      -999.25      0.00000      -999.25      0.24983      -999.25
       1814.77920   1754.17342     43.96336     30.54298     29.89329    235.34920     56.06181     20.37296    119.88080      -999.25     69.00000   2322.00052   1200.06145      -999.25     56.00000   3119.04525      1.25185      0.00000      0.00000      -999.25      -999.25      -999.25      -999.25      -999.25
