~VERSION INFORMATION 
VERS  .    2.0                                     :CWLS Log ASCII Standard - VERSION 2.0
WRAP  .    NO                                      :One Line per Depth step
PROD  .    Schlumberger Technology Corp.           :LAS Producer
PROG  .    Horizon LASWriter 6.2.68624.3100        :LAS Program name and version
SOURCE.    17.5in Section-Drilling                 :Run&Pass Information
CREA  .    12/12/2016                              :LAS Creation date {MM/DD/YYYY}
#--------------------------------------------------
~WELL INFORMATION 
#MNEM           .UNIT                      DATA            :DESCRIPTION
#----            ------          --------------            -----------------------------
STRT            .m                    344.88120            :START DEPTH
STOP            .m                   2348.02680            :STOP DEPTH
STEP            .m                       0.1524            :STEP
NULL            .                       -999.25            :NULL VALUE
COMP            .                Woodside Energy Ltd       :COMPANY
WELL            .                         KDA02            :WELL NAME
FLD             .                      Dockrell            :FIELD NAME
RIGN            .                 Atwood Osprey            :Rig Name
RIGTYP          .                Semi-Submersible          :Rig Type
SON             .                     16AWA0071            :Service Order Number
SRVC            .                  Schlumberger            :SERVICE COMPANY
DATE            .                    11/12/2016            :LOG DATE(Composite Date for Composite LAP) (MM/DD/YYYY)
CLAB            .                       County:            :County Label
CNTY            .                                          :COUNTY
SLAB            .                        State:            :State/Province Label
STAT            .                Western Australia         :STATE or PROVINCE
PROV            .                Western Australia         :STATE or PROVINCE
CTRY            .                     Australia            :COUNTRY
CONT_REGION     .                   Australasia            :Continent Region
SECT            .                                          :Section
TOWN            .                                          :Township
RANG            .                                          :Range
API             .                                          :API NUMBER
UWI             .                     16AWA0071            :UNIQUE WELL ID
LUL             .                 Below Helipad            :Logging Unit Location
LUN             .                   OLU-MB 8047            :Logging Unit Number
LOC             .                 Dampier Basin            :FIELD LOCATION
FL1             .                X: E 372778.040m          :Field Location Line 1
FL2             .                Y: N 7814860.760 m        :Field Location Line 2
LATI            .deg             19° 45' 28.198" S         :LATITUDE
LONG            .deg             115° 47' 8.544" E         :LONGITUDE
PDAT            .                         OTHER            :Local Permanent Datum
LMF             .                            DF            :Logging Measured From
APD             .m                     28.70000            :Elevation of Depth Reference (LMF) Above Permanent Datum
EPD             .m                     -1.60000            :Elevation of Permanent Datum (PDAT) above Mean Sea Level
EKB             .m                      -999.25            :Elevation of Kelly Bushing Above Permanent Datum
EDF             .m                     28.70000            :Elevation of Drill Floor Above Permanent Datum
EGL             .m                   -122.00000            :Elevation of Ground Level Above Permanent Datum
ECF             .m                      -999.25            :Elevation of Casing Flange above Permanent Datum
#--------------------------------------------------
~CURVE INFORMATION
#MNEM           .UNIT                  API CODE            :DESCRIPTION
#----            ------          --------------            -----------------------------
DEPT            .m                                         :                                                        Depth Index
TVD             .m                                         :(RT)    (DnMWorkflow)           (6in)                   True Vertical Depth
GR              .gAPI                                      :(RM)    (ARC9)                  (6in)                   Gamma Ray
ROP5            .m/h                                       :(RT)    (DRILLING_SURFACE)      (6in)                   Rate of penetration averaged over the last 5 ft (1.5 m)
BLKP            .m                                         :(RT)    (DRILLING_SURFACE)      (6in)                   Height of block above rig floor
HKLA            .1000 lbf                                  :(RT)    (DRILLING_SURFACE)      (6in)                   Average Hookload
SWOB            .1000 lbf                                  :(RT)    (DRILLING_SURFACE)      (6in)                   Surface Weight On Bit
STOR            .1000 ft.lbf                               :(RT)    (DRILLING_SURFACE)      (6in)                   Surface Torque
RPM             .c/min                                     :(RT)    (DRILLING_SURFACE)      (6in)                   Rotational Speed
CRPM            .c/min                                     :(RT)    (TELE900)               (6in)                   Collar Rotational Speed
STICK           .c/min                                     :(RT)    (TELE900)               (6in)                   Stick Slip Indicator
SPPA            .psi                                       :(RT)    (DRILLING_SURFACE)      (6in)                   Standpipe Pressure
TFLO            .gal/min                                   :(RT)    (DRILLING_SURFACE)      (6in)                   Total flow rate of all active pumps
TRPM            .c/min                                     :(RT)    (TELE900)               (6in)                   MWD Turbine Rotation Speed
DHAT            .degC                                      :(RM)    (ARC9)                  (6in)                   Downhole Annulus Temperature
DHAP            .psi                                       :(RM)    (ARC9)                  (6in)                   Downhole Annulus Pressure
ECD             .g/cm3                                     :(RM)    (ARC9)                  (6in)                   Equivalent Circulating Density
COBTM           .                                          :(RT)    (DRILLING_SURFACE)      (6in)                   Composite On Bottom Status
SHKL            .                                          :(RM)    (ARC9)                  (6in)                   Tool Shock Level
SHKRSK          .                                          :(RT)    (TELE900)               (6in)                   Shock Risk
SHKRSK          .                                          :(RT)    (PDORBIT_900)           (6in)                   Shock Risk
SHKPK           .gn                                        :(RT)    (TELE900)               (6in)                   Shock Peak
VIB_X           .gn                                        :(RT)    (TELE900)               (6in)                   RMS Vibration, X-Axis
VIB_LAT         .gn                                        :(RT)    (TELE900)               (6in)                   Transverse RMS Vibration
#-------------------------------------------------------------
#            DEPT          TVD           GR         ROP5         BLKP         HKLA         SWOB         STOR          RPM         CRPM        STICK         SPPA         TFLO         TRPM         DHAT         DHAP          ECD        COBTM         SHKL       SHKRSK       SHKRSK        SHKPK        VIB_X      VIB_LAT 
#                  (DnMWorkfl)       (ARC9)  (DRILLING_)  (DRILLING_)  (DRILLING_)  (DRILLING_)  (DRILLING_)  (DRILLING_)    (TELE900)    (TELE900)  (DRILLING_)  (DRILLING_)    (TELE900)       (ARC9)       (ARC9)       (ARC9)  (DRILLING_)       (ARC9)    (TELE900)  (PDORBIT_9)    (TELE900)    (TELE900)    (TELE900) 
#                         (RT)         (RM)         (RT)         (RT)         (RT)         (RT)         (RT)         (RT)         (RT)         (RT)         (RT)         (RT)         (RT)         (RM)         (RM)         (RM)         (RT)         (RM)         (RT)         (RT)         (RT)         (RT)         (RT) 
#                        (6in)        (6in)        (6in)        (6in)        (6in)        (6in)        (6in)        (6in)        (6in)        (6in)        (6in)        (6in)        (6in)        (6in)        (6in)        (6in)        (6in)        (6in)        (6in)        (6in)        (6in)        (6in)        (6in) 
~ASCII
# ...
       1410.76680   1369.91549     51.56429     96.46406     27.58686    251.26635     15.06235      9.65256    139.97750      -999.25      -999.25   1559.99980    919.59422   2695.31300     44.00000   2392.59619      1.23012      0.00000      0.00000      -999.25      -999.25      -999.25      -999.25      -999.25
       1410.91920   1370.05931     51.92534     97.18346     27.40954    251.23174     16.54677      9.96064    139.97660      -999.25      -999.25   1934.99922   1098.79585      -999.25     44.00000   2394.00015      1.23072      0.00000      0.00000      -999.25      -999.25      -999.25      -999.25      -999.25
       1411.07160   1370.20313     55.84871     94.60809     27.30326    249.41998     17.43167     11.09232    139.97160    135.00000      -999.25   2039.99929   1097.77034      -999.25     44.00000   2394.09878      1.23063      0.00000      0.00000      -999.25      -999.25      -999.25      -999.25      -999.25
       1411.22400   1370.34695     59.17033     99.14867     27.15197    247.63181     19.62131     13.58632    140.00890      -999.25      -999.25   2049.00033   1098.79585      -999.25     44.00000   2390.00001      1.22834      0.00000      0.00000      -999.25      -999.25      -999.25      -999.25      -999.25
       1411.37640   1370.49077     57.75023     99.14292     26.96116    247.13401     19.29360     14.06808    139.96540      -999.25      -999.25   1809.00059    839.60716      -999.25     44.00000   2396.00022      1.23133      0.00000      0.00000      -999.25      -999.25      -999.25      -999.25      -999.25
       1411.52880   1370.63458     55.03033     99.22060     26.84853    245.59716     21.21237     14.38127    139.97230      -999.25     39.00000   1616.99963    940.61650      -999.25     44.00000   2394.99946      1.23070      0.00000      0.00000      -999.25      -999.25      -999.25      -999.25      -999.25
       1411.68120   1370.77839     53.56208     97.79356     26.66328    245.09892     21.57308     14.54423    140.00270      -999.25      -999.25   1601.99983    940.35999      -999.25     44.00000   2394.00015      1.23004      0.00000      0.00000      -999.25      0.00000      -999.25      0.12492      2.74814
       1411.83360   1370.92220     51.41988     88.04930     26.53360    243.93775     22.49910     14.40514    139.95600      -999.25      -999.25   1757.99952   1003.68309      -999.25     44.00000   2395.09083      1.23050      0.00000      0.00000      0.00000      -999.25      0.00000      -999.25      -999.25
       1411.98600   1371.06601     49.15732     95.88644     26.36119    243.33191     23.23820     14.45409    140.01060      -999.25      -999.25   2009.99969   1098.02658      -999.25     44.00000   2396.00022      1.23087      0.00000      0.00000      -999.25      -999.25      -999.25      -999.25      -999.25
       1412.13840   1371.20982     47.76127     95.00641     26.19865    244.25565     21.76999     14.34687    140.00320      -999.25      -999.25   1883.99960   1097.25758      -999.25     44.00000   2388.99925      1.22716      0.00000      0.00000      -999.25      -999.25      -999.25      -999.25      -999.25
       1412.29080   1371.35363     46.02826     96.56802     26.07045    245.52177     21.45558     10.83770    140.08880      -999.25      -999.25   1652.99945    951.38389      -999.25     44.00000   2398.00029      1.23165      0.00000      0.00000      -999.25      -999.25      -999.25      -999.25      -999.25
       1412.44320   1371.49743     45.61906    109.19410     25.95012    245.43557     21.08189      9.05045    140.03980      -999.25      -999.25   1698.00031      -999.25      -999.25     44.00000   2393.05596      1.22894      0.00000      0.00000      -999.25      -999.25      -999.25      -999.25      -999.25
       1412.59560   1371.64123     46.65408    111.97010     25.76180    244.12161     22.48190     11.66171    139.97910      -999.25      -999.25   1973.99987   1099.56486   2812.50000     44.00000   2398.00029      1.23135      0.00000      0.00000      -999.25      -999.25      -999.25      -999.25      -999.25
       1412.74800   1371.78504     47.06328    107.25530     25.55375    244.36676     22.64974     11.00316    139.95590      -999.25      -999.25   1551.00021    877.54966      -999.25     44.00000   2400.00036      1.23228      0.00000      0.00000      -999.25      -999.25      -999.25      -999.25      -999.25
       1412.90040   1371.92884     47.61686    108.08780     25.42722    243.81054     23.07488     11.52601    139.95000    132.00000      -999.25   1566.00001      -999.25      -999.25     44.00000   2398.00029      1.23109      0.00000      0.00000      -999.25      -999.25      -999.25      -999.25      -999.25
       1413.05280   1372.07263     48.86850    107.85900     25.34735    242.18794     25.01788     11.22637    139.91540      -999.25      -999.25   1604.99921    931.89988      -999.25     44.00000   2398.00029      1.23095      0.00000      0.00000      -999.25      -999.25      -999.25      -999.25      -999.25
       1413.20520   1372.21643     49.01291    110.15500     25.13052    231.73913     35.96676     14.55424    139.99470      -999.25    111.00000   1982.99946      -999.25      -999.25     44.00000   2398.00029      1.23083      0.00000      0.00000      -999.25      -999.25      -999.25      -999.25      -999.25
       1413.35760   1372.36022     49.83129    127.99950     24.98519    229.97014     37.16198     15.70827    139.96210      -999.25      -999.25   1698.00031    842.68370      -999.25     44.00000   2394.99946      1.22920      0.00000      0.00000      -999.25      0.00000      -999.25      -999.25      -999.25
       1413.51000   1372.50402     52.76779    113.04880     24.80626    222.01277     45.47116     17.20988    139.98740      -999.25      -999.25   1709.99928   1015.73250      -999.25     44.00000   2397.70151      1.23042      0.00000      0.00000      -999.25      -999.25      -999.25      0.12492      -999.25
       1413.66240   1372.64781     54.26011    114.26640     24.70296    221.01187     46.18151     17.86069    139.95860      -999.25      -999.25   1778.99953   1099.05236      -999.25     44.00000   2397.38098      1.23012      0.00000      0.00000      0.00000      -999.25      0.00000      -999.25      0.74949
       1413.81480   1372.79160     54.74151    111.38130     24.57913    216.37599     50.98701     17.50835    139.97730      -999.25      -999.25   2066.99952      -999.25      -999.25     44.00000   2396.99953      1.22977      0.00000      0.00000      -999.25      -999.25      -999.25      -999.25      -999.25
       1413.96720   1372.93539     54.35640    109.56970     24.35486    215.44276     51.32891     17.26137    139.96550      -999.25      -999.25   2075.99911   1100.33386      -999.25     44.00000   2398.58914      1.23048      0.00000      0.00000      -999.25      -999.25      -999.25      -999.25      -999.25
       1414.11960   1373.07917     50.28860     93.02229     24.27902    216.92713     51.17436     17.52868    140.02640      -999.25      -999.25   2085.00015   1100.33386      -999.25     44.00000   2400.00036      1.23112      0.00000      1.00000      -999.25      -999.25      -999.25      -999.25      -999.25
       1414.27200   1373.22296     44.53595    111.44240     24.10854    215.55823     51.64066     16.67969    140.00200      -999.25      -999.25   2085.00015   1100.33386      -999.25     44.00000   2392.99939      1.22742      0.00000      0.00000      -999.25      -999.25      -999.25      -999.25      -999.25
       1414.42440   1373.36674     41.86420    111.92890     23.94611    215.04244     51.75715     17.47867    139.91070      -999.25      -999.25   2114.99976      -999.25      -999.25     44.00000   2401.58707      1.23164      0.00000      0.00000      -999.25      -999.25      -999.25      -999.25      -999.25
       1414.57680   1373.51052     43.18803    109.02760     23.78935    214.25874     52.58885     18.09543    140.02010      -999.25      -999.25   2070.00035   1100.84688   3085.93800     44.00000   2403.05341      1.23226      0.00000      0.00000      -999.25      -999.25      -999.25      -999.25      -999.25
