~VERSION INFORMATION 
VERS  .    2.0                                     :CWLS Log ASCII Standard - VERSION 2.0
WRAP  .    NO                                      :One Line per Depth step
PROD  .    Schlumberger Technology Corp.           :LAS Producer
PROG  .    Horizon LASWriter 6.2.68624.3100        :LAS Program name and version
SOURCE.    17.5in Section-Drilling                 :Run&Pass Information
CREA  .    12/12/2016                              :LAS Creation date {MM/DD/YYYY}
#--------------------------------------------------
~WELL INFORMATION 
#MNEM           .UNIT                      DATA            :DESCRIPTION
#----            ------          --------------            -----------------------------
STRT            .m                    344.88120            :START DEPTH
STOP            .m                   2348.02680            :STOP DEPTH
STEP            .m                       0.1524            :STEP
NULL            .                       -999.25            :NULL VALUE
COMP            .                Woodside Energy Ltd       :COMPANY
WELL            .                         KDA02            :WELL NAME
FLD             .                      Dockrell            :FIELD NAME
RIGN            .                 Atwood Osprey            :Rig Name
RIGTYP          .                Semi-Submersible          :Rig Type
SON             .                     16AWA0071            :Service Order Number
SRVC            .                  Schlumberger            :SERVICE COMPANY
DATE            .                    11/12/2016            :LOG DATE(Composite Date for Composite LAP) (MM/DD/YYYY)
CLAB            .                       County:            :County Label
CNTY            .                                          :COUNTY
SLAB            .                        State:            :State/Province Label
STAT            .                Western Australia         :STATE or PROVINCE
PROV            .                Western Australia         :STATE or PROVINCE
CTRY            .                     Australia            :COUNTRY
CONT_REGION     .                   Australasia            :Continent Region
SECT            .                                          :Section
TOWN            .                                          :Township
RANG            .                                          :Range
API             .                                          :API NUMBER
UWI             .                     16AWA0071            :UNIQUE WELL ID
LUL             .                 Below Helipad            :Logging Unit Location
LUN             .                   OLU-MB 8047            :Logging Unit Number
LOC             .                 Dampier Basin            :FIELD LOCATION
FL1             .                X: E 372778.040m          :Field Location Line 1
FL2             .                Y: N 7814860.760 m        :Field Location Line 2
LATI            .deg             19° 45' 28.198" S         :LATITUDE
LONG            .deg             115° 47' 8.544" E         :LONGITUDE
PDAT            .                         OTHER            :Local Permanent Datum
LMF             .                            DF            :Logging Measured From
APD             .m                     28.70000            :Elevation of Depth Reference (LMF) Above Permanent Datum
EPD             .m                     -1.60000            :Elevation of Permanent Datum (PDAT) above Mean Sea Level
EKB             .m                      -999.25            :Elevation of Kelly Bushing Above Permanent Datum
EDF             .m                     28.70000            :Elevation of Drill Floor Above Permanent Datum
EGL             .m                   -122.00000            :Elevation of Ground Level Above Permanent Datum
ECF             .m                      -999.25            :Elevation of Casing Flange above Permanent Datum
#--------------------------------------------------
~CURVE INFORMATION
#MNEM           .UNIT                  API CODE            :DESCRIPTION
#----            ------          --------------            -----------------------------
DEPT            .m                                         :                                                        Depth Index
TVD             .m                                         :(RT)    (DnMWorkflow)           (6in)                   True Vertical Depth
GR              .gAPI                                      :(RM)    (ARC9)                  (6in)                   Gamma Ray
ROP5            .m/h                                       :(RT)    (DRILLING_SURFACE)      (6in)                   Rate of penetration averaged over the last 5 ft (1.5 m)
BLKP            .m                                         :(RT)    (DRILLING_SURFACE)      (6in)                   Height of block above rig floor
HKLA            .1000 lbf                                  :(RT)    (DRILLING_SURFACE)      (6in)                   Average Hookload
SWOB            .1000 lbf                                  :(RT)    (DRILLING_SURFACE)      (6in)                   Surface Weight On Bit
STOR            .1000 ft.lbf                               :(RT)    (DRILLING_SURFACE)      (6in)                   Surface Torque
RPM             .c/min                                     :(RT)    (DRILLING_SURFACE)      (6in)                   Rotational Speed
CRPM            .c/min                                     :(RT)    (TELE900)               (6in)                   Collar Rotational Speed
STICK           .c/min                                     :(RT)    (TELE900)               (6in)                   Stick Slip Indicator
SPPA            .psi                                       :(RT)    (DRILLING_SURFACE)      (6in)                   Standpipe Pressure
TFLO            .gal/min                                   :(RT)    (DRILLING_SURFACE)      (6in)                   Total flow rate of all active pumps
TRPM            .c/min                                     :(RT)    (TELE900)               (6in)                   MWD Turbine Rotation Speed
DHAT            .degC                                      :(RM)    (ARC9)                  (6in)                   Downhole Annulus Temperature
DHAP            .psi                                       :(RM)    (ARC9)                  (6in)                   Downhole Annulus Pressure
ECD             .g/cm3                                     :(RM)    (ARC9)                  (6in)                   Equivalent Circulating Density
COBTM           .                                          :(RT)    (DRILLING_SURFACE)      (6in)                   Composite On Bottom Status
SHKL            .                                          :(RM)    (ARC9)                  (6in)                   Tool Shock Level
SHKRSK          .                                          :(RT)    (TELE900)               (6in)                   Shock Risk
SHKRSK          .                                          :(RT)    (PDORBIT_900)           (6in)                   Shock Risk
SHKPK           .gn                                        :(RT)    (TELE900)               (6in)                   Shock Peak
VIB_X           .gn                                        :(RT)    (TELE900)               (6in)                   RMS Vibration, X-Axis
VIB_LAT         .gn                                        :(RT)    (TELE900)               (6in)                   Transverse RMS Vibration
#-------------------------------------------------------------
#            DEPT          TVD           GR         ROP5         BLKP         HKLA         SWOB         STOR          RPM         CRPM        STICK         SPPA         TFLO         TRPM         DHAT         DHAP          ECD        COBTM         SHKL       SHKRSK       SHKRSK        SHKPK        VIB_X      VIB_LAT 
#                  (DnMWorkfl)       (ARC9)  (DRILLING_)  (DRILLING_)  (DRILLING_)  (DRILLING_)  (DRILLING_)  (DRILLING_)    (TELE900)    (TELE900)  (DRILLING_)  (DRILLING_)    (TELE900)       (ARC9)       (ARC9)       (ARC9)  (DRILLING_)       (ARC9)    (TELE900)  (PDORBIT_9)    (TELE900)    (TELE900)    (TELE900) 
#                         (RT)         (RM)         (RT)         (RT)         (RT)         (RT)         (RT)         (RT)         (RT)         (RT)         (RT)         (RT)         (RT)         (RM)         (RM)         (RM)         (RT)         (RM)         (RT)         (RT)         (RT)         (RT)         (RT) 
#                        (6in)        (6in)        (6in)        (6in)        (6in)        (6in)        (6in)        (6in)        (6in)        (6in)        (6in)        (6in)        (6in)        (6in)        (6in)        (6in)        (6in)        (6in)        (6in)        (6in)        (6in)        (6in)        (6in) 
~ASCII
# ...
       1280.00760   1246.81643     22.48476    114.78260     36.94081    240.45907     14.28346     11.75617    119.99930      -999.25      -999.25   2211.00024   1008.81040   2890.62500     48.00000   2148.00019      1.21362      0.00000      0.00000      -999.25      -999.25      -999.25      -999.25      -999.25
       1280.16000   1246.95876     21.42285    115.36900     36.74633    237.66383     16.80528     12.73469    119.99010      -999.25      -999.25   2240.99984      -999.25      -999.25     48.00000   2148.00019      1.21347      0.00000      0.00000      -999.25      -999.25      -999.25      -999.25      -999.25
       1280.31240   1247.10109     22.48476    115.44020     36.59554    239.18348     15.60572     12.77860    120.01370    117.00000      -999.25   2223.00066   1006.50312      -999.25     48.00000   2148.00019      1.21339      0.00000      0.00000      -999.25      -999.25      -999.25      -999.25      -999.25
       1280.46480   1247.24342     25.55506    119.23090     36.43195    238.33668     15.89604     12.75454    120.01640      -999.25      -999.25   2228.99942   1009.06691      -999.25     48.00000   2150.00026      1.21435      0.00000      0.00000      -999.25      -999.25      -999.25      -999.25      -999.25
       1280.61720   1247.38576     29.96429    120.33630     36.32261    239.02915     15.15208     12.90418    120.03820      -999.25      -999.25   2207.99940   1009.06691      -999.25     48.00000   2150.00026      1.21419      0.00000      0.00000      -999.25      -999.25      -999.25      -999.25      -999.25
       1280.76960   1247.52809     34.05033    125.05940     36.12471    237.34129     17.37324     12.55995    119.99420      -999.25     36.00000   2219.99983   1008.81040      -999.25     48.00000   2150.00026      1.21405      0.00000      0.00000      -999.25      -999.25      -999.25      -999.25      -999.25
       1280.92200   1247.67042     35.96638    121.80960     36.00053    237.81793     16.61642     12.80457    119.98000      -999.25      -999.25   2205.00002   1004.45209      -999.25     48.00000   2150.31790      1.21409      0.00000      0.00000      -999.25      0.00000      -999.25      0.12492      -999.25
       1281.07440   1247.81276     36.19723    123.18660     35.82988    237.73019     17.02142     12.71744    119.97620      -999.25      -999.25   2219.99983   1005.22136      -999.25     48.00000   2150.62683      1.21413      0.00000      0.00000      0.00000      -999.25      0.00000      -999.25      1.49898
       1281.22680   1247.95509     36.45886    123.18700     35.65183    235.99493     19.18232     12.47471    120.00380      -999.25      -999.25   2213.99962   1008.55415      -999.25     48.00000   2150.99957      1.21417      0.00000      0.00000      -999.25      -999.25      -999.25      -999.25      -999.25
       1281.37920   1248.09743     37.32070    122.99060     35.53283    235.23191     19.76742     12.31835    119.98340      -999.25      -999.25   2234.99963      -999.25      -999.25     48.00000   2150.99957      1.21407      0.00000      0.00000      -999.25      -999.25      -999.25      -999.25      -999.25
       1281.53160   1248.23976     37.33609    147.99470     35.38197    234.97375     19.75510     12.70251    119.94410      -999.25      -999.25   2240.99984   1008.81040      -999.25     48.00000   2150.99957      1.21393      0.00000      0.00000      -999.25      -999.25      -999.25      -999.25      -999.25
       1281.68400   1248.38210     35.82787    148.65130     35.25506    234.94333     19.68459     12.65935    119.98250      -999.25      -999.25   2226.00004   1007.52864      -999.25     48.00000   2152.53842      1.21465      0.00000      0.00000      -999.25      -999.25      -999.25      -999.25      -999.25
       1281.83640   1248.52444     34.07342    123.16900     35.04542    238.85278     16.51606     11.95172    120.00830      -999.25      -999.25   2213.99962      -999.25      -999.25     48.00000   2153.45071      1.21503      0.00000      0.00000      -999.25      -999.25      -999.25      -999.25      -999.25
       1281.98880   1248.66678     32.18045    146.43450     34.89595    238.38849     16.40209     11.41211    119.95880      -999.25      -999.25   2207.99940   1004.19584      -999.25     48.00000   2154.36445      1.21540      0.00000      0.00000      -999.25      -999.25      -999.25      -999.25      -999.25
       1282.14120   1248.80911     30.35674    146.51680     34.76897    237.58909     16.87459     11.64993    120.00510      -999.25      -999.25   2226.00004   1009.06691   2890.62500     48.00000   2150.99957      1.21334      0.00000      0.00000      -999.25      -999.25      -999.25      -999.25      -999.25
       1282.29360   1248.95145     28.67153    141.07910     34.61582    239.53820     15.38105     11.41820    119.83960      -999.25      -999.25   2216.99900   1008.81040      -999.25     48.00000   2153.18819      1.21446      0.00000      0.00000      -999.25      -999.25      -999.25      -999.25      -999.25
       1282.44600   1249.09379     28.00207    135.87260     34.46403    238.37041     16.06421     11.50274    119.90910      -999.25      -999.25   2205.00002   1004.70860      -999.25     48.00000   2156.99979      1.21643      0.00000      0.00000      -999.25      -999.25      -999.25      -999.25      -999.25
       1282.59840   1249.23613     28.09441    127.48240     34.33004    237.64399     16.92872     11.49895    119.99010      -999.25      -999.25   2228.99942   1008.81040      -999.25     48.00000   2156.99979      1.21633      0.00000      0.00000      -999.25      -999.25      -999.25      -999.25      -999.25
       1282.75080   1249.37847     26.96325    150.03320     34.14257    237.63870     17.22501     12.41943    119.96570    117.00000      -999.25   2219.99983   1008.81040      -999.25     48.00000   2156.99979      1.21619      0.00000      1.00000      -999.25      -999.25      -999.25      -999.25      -999.25
       1282.90320   1249.52081     26.15527    133.99690     34.03625    237.47578     17.11647     11.89094    119.98950      -999.25      -999.25   2207.99940   1008.81040      -999.25     48.00000   2154.83582      1.21484      0.00000      1.00000      -999.25      -999.25      -999.25      -999.25      -999.25
       1283.05560   1249.66315     26.82474    130.54350     33.88142    237.07387     17.76827     12.72433    119.94990      -999.25      -999.25   2226.00004   1003.42684      -999.25     48.00000   2158.00055      1.21645      0.00000      0.00000      -999.25      -999.25      -999.25      -999.25      -999.25
       1283.20800   1249.80549     27.79430    110.70060     33.70573    236.28330     18.63781     12.51430    119.97450      -999.25     72.00000   2223.00066   1008.55415      -999.25     48.00000   2158.00055      1.21634      0.00000      0.00000      -999.25      0.00000      -999.25      0.12492      0.99932
       1283.36040   1249.94784     28.53302    129.85720     33.59150    236.94556     16.98351     10.97585    120.05870      -999.25      -999.25   2243.99922   1008.81040      -999.25     48.00000   2158.00055      1.21625      0.00000      0.00000      0.00000      -999.25      0.00000      -999.25      -999.25
       1283.51280   1250.09018     29.13323    127.59390     33.40707    238.92554     15.25524     12.62716    119.89780      -999.25      -999.25   2216.99900   1008.81040      -999.25     48.00000   2160.99993      1.21774      0.00000      0.00000      -999.25      -999.25      -999.25      -999.25      -999.25
       1283.66520   1250.23252     29.31791    111.01120     33.24861    243.71354     10.26557     10.71375    119.95970      -999.25      -999.25   2223.00066   1009.06691      -999.25     48.00000   2160.62573      1.21741      0.00000      0.00000      -999.25      -999.25      -999.25      -999.25      -999.25
       1283.81760   1250.37486     28.71770    119.71770     33.09684    243.30899     11.69880     11.48073    119.94620      -999.25      -999.25   2196.00043   1008.81040      -999.25     48.00000   2160.00062      1.21685      0.00000      0.00000      -999.25      -999.25      -999.25      -999.25      -999.25
