~VERSION INFORMATION 
VERS  .    2.0                                     :CWLS Log ASCII Standard - VERSION 2.0
WRAP  .    NO                                      :One Line per Depth step
PROD  .    Schlumberger Technology Corp.           :LAS Producer
PROG  .    Horizon LASWriter 6.2.68624.3100        :LAS Program name and version
SOURCE.    17.5in Section-Drilling                 :Run&Pass Information
CREA  .    12/12/2016                              :LAS Creation date {MM/DD/YYYY}
#--------------------------------------------------
~WELL INFORMATION 
#MNEM           .UNIT                      DATA            :DESCRIPTION
#----            ------          --------------            -----------------------------
STRT            .m                    344.88120            :START DEPTH
STOP            .m                   2348.02680            :STOP DEPTH
STEP            .m                       0.1524            :STEP
NULL            .                       -999.25            :NULL VALUE
COMP            .                Woodside Energy Ltd       :COMPANY
WELL            .                         KDA02            :WELL NAME
FLD             .                      Dockrell            :FIELD NAME
RIGN            .                 Atwood Osprey            :Rig Name
RIGTYP          .                Semi-Submersible          :Rig Type
SON             .                     16AWA0071            :Service Order Number
SRVC            .                  Schlumberger            :SERVICE COMPANY
DATE            .                    11/12/2016            :LOG DATE(Composite Date for Composite LAP) (MM/DD/YYYY)
CLAB            .                       County:            :County Label
CNTY            .                                          :COUNTY
SLAB            .                        State:            :State/Province Label
STAT            .                Western Australia         :STATE or PROVINCE
PROV            .                Western Australia         :STATE or PROVINCE
CTRY            .                     Australia            :COUNTRY
CONT_REGION     .                   Australasia            :Continent Region
SECT            .                                          :Section
TOWN            .                                          :Township
RANG            .                                          :Range
API             .                                          :API NUMBER
UWI             .                     16AWA0071            :UNIQUE WELL ID
LUL             .                 Below Helipad            :Logging Unit Location
LUN             .                   OLU-MB 8047            :Logging Unit Number
LOC             .                 Dampier Basin            :FIELD LOCATION
FL1             .                X: E 372778.040m          :Field Location Line 1
FL2             .                Y: N 7814860.760 m        :Field Location Line 2
LATI            .deg             19° 45' 28.198" S         :LATITUDE
LONG            .deg             115° 47' 8.544" E         :LONGITUDE
PDAT            .                         OTHER            :Local Permanent Datum
LMF             .                            DF            :Logging Measured From
APD             .m                     28.70000            :Elevation of Depth Reference (LMF) Above Permanent Datum
EPD             .m                     -1.60000            :Elevation of Permanent Datum (PDAT) above Mean Sea Level
EKB             .m                      -999.25            :Elevation of Kelly Bushing Above Permanent Datum
EDF             .m                     28.70000            :Elevation of Drill Floor Above Permanent Datum
EGL             .m                   -122.00000            :Elevation of Ground Level Above Permanent Datum
ECF             .m                      -999.25            :Elevation of Casing Flange above Permanent Datum
#--------------------------------------------------
~CURVE INFORMATION
#MNEM           .UNIT                  API CODE            :DESCRIPTION
#----            ------          --------------            -----------------------------
DEPT            .m                                         :                                                        Depth Index
TVD             .m                                         :(RT)    (DnMWorkflow)           (6in)                   True Vertical Depth
GR              .gAPI                                      :(RM)    (ARC9)                  (6in)                   Gamma Ray
ROP5            .m/h                                       :(RT)    (DRILLING_SURFACE)      (6in)                   Rate of penetration averaged over the last 5 ft (1.5 m)
BLKP            .m                                         :(RT)    (DRILLING_SURFACE)      (6in)                   Height of block above rig floor
HKLA            .1000 lbf                                  :(RT)    (DRILLING_SURFACE)      (6in)                   Average Hookload
SWOB            .1000 lbf                                  :(RT)    (DRILLING_SURFACE)      (6in)                   Surface Weight On Bit
STOR            .1000 ft.lbf                               :(RT)    (DRILLING_SURFACE)      (6in)                   Surface Torque
RPM             .c/min                                     :(RT)    (DRILLING_SURFACE)      (6in)                   Rotational Speed
CRPM            .c/min                                     :(RT)    (TELE900)               (6in)                   Collar Rotational Speed
STICK           .c/min                                     :(RT)    (TELE900)               (6in)                   Stick Slip Indicator
SPPA            .psi                                       :(RT)    (DRILLING_SURFACE)      (6in)                   Standpipe Pressure
TFLO            .gal/min                                   :(RT)    (DRILLING_SURFACE)      (6in)                   Total flow rate of all active pumps
TRPM            .c/min                                     :(RT)    (TELE900)               (6in)                   MWD Turbine Rotation Speed
DHAT            .degC                                      :(RM)    (ARC9)                  (6in)                   Downhole Annulus Temperature
DHAP            .psi                                       :(RM)    (ARC9)                  (6in)                   Downhole Annulus Pressure
ECD             .g/cm3                                     :(RM)    (ARC9)                  (6in)                   Equivalent Circulating Density
COBTM           .                                          :(RT)    (DRILLING_SURFACE)      (6in)                   Composite On Bottom Status
SHKL            .                                          :(RM)    (ARC9)                  (6in)                   Tool Shock Level
SHKRSK          .                                          :(RT)    (TELE900)               (6in)                   Shock Risk
SHKRSK          .                                          :(RT)    (PDORBIT_900)           (6in)                   Shock Risk
SHKPK           .gn                                        :(RT)    (TELE900)               (6in)                   Shock Peak
VIB_X           .gn                                        :(RT)    (TELE900)               (6in)                   RMS Vibration, X-Axis
VIB_LAT         .gn                                        :(RT)    (TELE900)               (6in)                   Transverse RMS Vibration
#-------------------------------------------------------------
#            DEPT          TVD           GR         ROP5         BLKP         HKLA         SWOB         STOR          RPM         CRPM        STICK         SPPA         TFLO         TRPM         DHAT         DHAP          ECD        COBTM         SHKL       SHKRSK       SHKRSK        SHKPK        VIB_X      VIB_LAT 
#                  (DnMWorkfl)       (ARC9)  (DRILLING_)  (DRILLING_)  (DRILLING_)  (DRILLING_)  (DRILLING_)  (DRILLING_)    (TELE900)    (TELE900)  (DRILLING_)  (DRILLING_)    (TELE900)       (ARC9)       (ARC9)       (ARC9)  (DRILLING_)       (ARC9)    (TELE900)  (PDORBIT_9)    (TELE900)    (TELE900)    (TELE900) 
#                         (RT)         (RM)         (RT)         (RT)         (RT)         (RT)         (RT)         (RT)         (RT)         (RT)         (RT)         (RT)         (RT)         (RM)         (RM)         (RM)         (RT)         (RM)         (RT)         (RT)         (RT)         (RT)         (RT) 
#                        (6in)        (6in)        (6in)        (6in)        (6in)        (6in)        (6in)        (6in)        (6in)        (6in)        (6in)        (6in)        (6in)        (6in)        (6in)        (6in)        (6in)        (6in)        (6in)        (6in)        (6in)        (6in)        (6in) 
~ASCII
# ...
        610.36200    610.15884     63.64526    168.20720     14.93039    206.96761     16.77444      5.54103     79.96676      -999.25      -999.25   1973.99987      -999.25      -999.25     38.00000   1061.99996      1.22861      0.00000      0.00000      -999.25      -999.25      -999.25      -999.25      -999.25
        610.51440    610.31086     66.25386    175.60900     14.82631    206.81746     16.69606      5.22641     80.02462      -999.25      -999.25   1952.99986    961.89503      -999.25     38.00000   1061.99996      1.22832      0.00000      0.00000      -999.25      -999.25      -999.25      -999.25      -999.25
        610.66680    610.46287     70.57075    141.23300     14.69920    208.63124     14.70802      5.06051     79.94376      -999.25      -999.25   1931.99984    961.89503      -999.25     38.00000   1061.99996      1.22804      0.00000      0.00000      -999.25      -999.25      -999.25      -999.25      -999.25
        610.81920    610.61489     72.44064    140.56940     14.56942    208.90292     14.53013      5.20727     80.03634      -999.25      -999.25   1950.00048    959.07500      -999.25     38.00000   1063.00000      1.22896      0.00000      0.00000      -999.25      -999.25      -999.25      -999.25      -999.25
        610.97160    610.76690     72.16361    138.21260     14.38477    207.39154     16.27665      5.41225     79.98650      -999.25      -999.25   1946.99964    961.89503   2695.31300     38.00000   1063.00000      1.22860      0.00000      0.00000      -999.25      -999.25      -999.25      -999.25      -999.25
        611.12400    610.91892     72.02511    133.10670     14.21280    206.29057     17.57341      5.81185     79.97610      -999.25      -999.25   1944.00026      -999.25      -999.25     38.00000   1063.66630      1.22901      0.00000      0.00000      -999.25      -999.25      -999.25      -999.25      -999.25
        611.27640    611.07093     70.77852    131.52370     14.09354    205.83649     18.02303      5.88036     79.94696      -999.25      -999.25   1977.00070    961.89503      -999.25     38.00000   1065.00007      1.23022      0.00000      0.00000      -999.25      -999.25      -999.25      -999.25      -999.25
        611.42880    611.22294     68.28534    129.72380     13.88714    205.47623     18.13564      5.77838     79.90742     80.00000      -999.25   1925.99963    958.04948      -999.25     38.00000   1065.99996      1.23116      0.00000      0.00000      -999.25      -999.25      -999.25      -999.25      -999.25
        611.58120    611.37496     65.05344    105.88040     13.77307    204.89073     18.89563      6.04072     80.00060      -999.25      -999.25   1934.99922    961.89503      -999.25     38.00000   1065.99996      1.23079      0.00000      0.00000      -999.25      -999.25      -999.25      -999.25      -999.25
        611.73360    611.52697     61.08283    128.80840     13.67112    204.96282     18.52124      5.88152     80.00960      -999.25      -999.25   1961.99945    961.89503      -999.25     38.00000   1065.99996      1.23037      0.00000      0.00000      -999.25      -999.25      -999.25      -999.25      -999.25
        611.88600    611.67898     59.09752    128.59630     13.42838    205.50366     17.96052      5.87136     80.02431      -999.25      -999.25   1923.00025    961.89503      -999.25     38.00000   1066.57939      1.23084      0.00000      0.00000      -999.25      -999.25      -999.25      -999.25      0.24983
        612.03840    611.83099     58.31263    129.28760     13.31736    206.00757     17.66076      5.64114     79.95628      -999.25      6.00000   1950.00048    959.07500      -999.25     38.00000   1067.46919      1.23156      0.00000      0.00000      0.00000      0.00000      0.00000      0.12492      -999.25
        612.19080    611.98300     56.74285    128.91430     13.17471    205.87800     17.96923      6.03282     79.96188      -999.25      -999.25   1961.99945      -999.25      -999.25     38.00000   1068.00003      1.23199      0.00000      0.00000      -999.25      -999.25      -999.25      -999.25      -999.25
        612.34320    612.13501     55.95796    129.93640     13.01320    205.50405     18.32343      6.16493     79.93333      -999.25      -999.25   1946.99964    961.63852      -999.25     38.00000   1069.28216      1.23304      0.00000      0.00000      -999.25      -999.25      -999.25      -999.25      -999.25
        612.49560    612.28701     57.73550    134.24950     12.84169    205.38249     18.24002      6.02939     79.98618      -999.25      -999.25   1934.99922      -999.25      -999.25     38.00000   1069.99996      1.23365      0.00000      0.00000      -999.25      -999.25      -999.25      -999.25      -999.25
        612.64800    612.43902     61.68304    171.81420     12.68145    205.14490     18.56663      6.07116     79.95786      -999.25      -999.25   1944.00026    958.56224      -999.25     38.00000   1070.35037      1.23366      0.00000      0.00000      -999.25      -999.25      -999.25      -999.25      -999.25
        612.80040    612.59103     64.24547    135.81800     12.54947    205.83490     18.15657      6.00508     79.95863      -999.25      -999.25   1965.00028    961.89503      -999.25     38.00000   1070.63899      1.23368      0.00000      0.00000      -999.25      -999.25      -999.25      -999.25      -999.25
        612.95280    612.74303     64.63791    134.76310     12.37618    205.63715     18.02695      5.88597     79.98553      -999.25      -999.25   1959.00007    961.89503      -999.25     38.00000   1070.99999      1.23371      0.00000      0.00000      -999.25      -999.25      -999.25      -999.25      -999.25
        613.10520    612.89504     64.63791    181.86200     12.23478    205.98254     17.61351      5.73669     79.99799      -999.25      -999.25   1959.00007    960.86952   2695.31300     38.00000   1070.99999      1.23348      0.00000      0.00000      -999.25      -999.25      -999.25      -999.25      -999.25
        613.25760    613.04704     64.63791    143.33070     12.11815    207.67020     15.83505      5.14214     79.97614      -999.25      -999.25   1944.00026    961.89503      -999.25     38.00000   1070.99999      1.23318      0.00000      0.00000      -999.25      -999.25      -999.25      -999.25      -999.25
        613.41000    613.19904     64.63791    142.59650     11.91144    208.39052     15.02894      5.22364     80.01358      -999.25      -999.25   1931.99984    958.30599      -999.25     38.00000   1073.00006      1.23522      0.00000      0.00000      -999.25      -999.25      -999.25      -999.25      -999.25
        613.56240    613.35105     64.86877    122.98680     11.76411    207.57891     16.03941      5.43687     79.97079      -999.25      -999.25   1955.99924    961.12603      -999.25     38.00000   1071.50168      1.23314      0.00000      0.00000      -999.25      -999.25      -999.25      -999.25      -999.25
        613.71480    613.50305     64.63791    147.94700     11.60541    207.42807     16.22637      5.42475     79.97351      -999.25      -999.25   1946.99964    958.04948      -999.25     38.00000   1072.04296      1.23345      0.00000      0.00000      -999.25      -999.25      -999.25      -999.25      -999.25
        613.86720    613.65505     63.48367    144.77220     11.51434    207.32882     16.31970      5.46560     79.97371     80.00000      -999.25   1961.99945    961.89503      -999.25     38.00000   1072.58409      1.23377      0.00000      0.00000      -999.25      -999.25      -999.25      -999.25      -999.25
        614.01960    613.80705     62.79112    122.27900     11.33794    207.09295     16.68154      5.36269     80.02704      -999.25      -999.25   1944.00026    961.89503      -999.25     38.00000   1073.12523      1.23409      0.00000      0.00000      -999.25      -999.25      -999.25      -999.25      -999.25
        614.17200    613.95905     62.79112    119.46060     11.15192    206.23863     17.38005      5.26887     79.94479      -999.25      -999.25   1938.00005    961.89503      -999.25     38.00000   1073.66651      1.23440      0.00000      0.00000      -999.25      -999.25      -999.25      -999.25      -999.25
