~VERSION INFORMATION
VERS.    2.0:   CWLS LOG ASCII STANDARD - VERSION 2.0
WRAP.     NO:   ONE LINE PER STEP
~WELL INFORMATION BLOCK
#MNEM.UNIT      DATA                  DESCRIPTION OF MNEMONIC
#----   --------             ---------------
STRT.m  260.00                   :START DEPTH
STOP.m  5363.00                   :STOP DEPTH
STEP.m  0.50                   :STEP VALUE
NULL.   0                   :NULL VALUE
COMP.   SHELL                   :COMPANY NAME
WELL.   PRELUDE P7                   :WELL NAME
FLD .   PRELUDE                   :FIELD NAME
LOC .                      :LOCATION
PROV.   PRELUDE                   :PROVINCE
SRVC.   Geoservices                   :SERVICE COMPANY NAME
DATE.   06-20-2015 21:16:03                   :DATE
UWI .                      :UNIQUE WELL IDENTIFIER
~CURVE INFORMATION
#MNEM.UNIT       API CODE        CURVE DESCRIPTION
#----   -------- ------------------
Tot Depth .m        :Tot Depth
ROP m/hr .m/h        :ROP m/hr
WOH .klbs        :WOH
WOB .klbs        :WOB
RPM .rpm        :RPM
SPP .psi        :SPP
TORQUE .lb*ft        :TORQUE
FLWpmps .gpm        :FLWpmps
D Exp .....        :D Exp
TVD Depth .m        :TVD Depth
#
#-----------------------------------------------------------
# Tot Depth (m)   ROP m/hr (m/h)   WOH (klbs)   WOB (klbs)   RPM (rpm)   SPP (psi)   TORQUE (lb*ft)   FLWpmps (gpm)   D Exp (....)   TVD Depth (m)
#-----------------------------------------------------------
~A
# ...
   2961.00          0          0       22.0        120          0          0          0       0.40    2921.48 
   2961.50          0          0       22.0        120          0          0          0       0.39    2921.90 
   2962.00          0          0       22.0        120          0          0          0       0.40    2922.32 
   2962.50          0          0       22.0        120          0          0          0       0.40    2922.74 
   2963.00          0          0       22.0        120          0          0          0       0.39    2923.16 
   2963.50          0          0       22.0        120          0          0          0       0.40    2923.58 
   2964.00          0          0       22.0        120          0          0          0       0.39    2923.99 
   2964.50          0          0       22.0        120          0          0          0       0.39    2924.41 
   2965.00          0          0       22.0        120          0          0          0       0.39    2924.83 
   2965.50          0          0       22.0        120          0          0          0       0.39    2925.25 
   2966.00          0          0       22.0        120          0          0          0       0.39    2925.67 
   2966.50          0          0       22.0        120          0          0          0       0.39    2926.09 
   2967.00          0          0       22.0        120          0          0          0       0.39    2926.51 
   2967.50          0          0       22.0        120          0          0          0       0.39    2926.93 
   2968.00          0          0       22.0        120          0          0          0       0.39    2927.35 
   2968.50          0          0       22.0        120          0          0          0       0.39    2927.77 
   2969.00          0          0       22.0        120          0          0          0       0.39    2928.18 
   2969.50          0          0       22.0        120          0          0          0       0.39    2928.60 
   2970.00          0          0       22.0        120          0          0          0       0.39    2929.02 
   2970.50          0          0       22.0        120          0          0          0       0.39    2929.44 
   2971.00          0          0       22.0        120          0          0          0       0.39    2929.86 
   2971.50          0          0       22.0        120          0          0          0       0.39    2930.28 
   2972.00          0          0       22.0        120          0          0          0       0.39    2930.70 
   2972.50          0          0       22.0        120          0          0          0       0.39    2931.11 
   2973.00          0          0       22.0        120          0          0          0       0.39    2931.52 
   2973.50          0          0       22.0        120          0          0          0       0.39    2931.93 
   2974.00          0          0       22.0        120          0          0          0       0.39    2932.34 
   2974.50          0          0       22.0        120          0          0          0       0.39    2932.75 
   2975.00          0          0       22.0        120          0          0          0       0.39    2933.16 
   2975.50          0          0       22.0        120          0          0          0       0.39    2933.57 
   2976.00          0          0       22.0        120          0          0          0       0.39    2933.98 
   2976.50          0          0       22.0        120          0          0          0       0.39    2934.39 
   2977.00          0          0       22.0        120          0          0          0       0.39    2934.80 
   2977.50          0          0       22.0        120          0          0          0       0.39    2935.21 
   2978.00          0          0       22.0        120          0          0          0       0.39    2935.62 
   2978.50          0          0       22.0        120          0          0          0       0.39    2936.03 
   2979.00          0          0       22.0        120          0          0          0       0.39    2936.44 
   2979.50          0          0       22.0        120          0          0          0       0.39    2936.85 
   2980.00          0          0       22.0        120          0          0          0       0.39    2937.26 
   2980.50          0          0       22.0        120          0          0          0       0.39    2937.67 
   2981.00          0          0       22.0        120          0          0          0       0.39    2938.08 
   2981.50          0          0       22.0        120          0          0          0       0.39    2938.49 
   2982.00          0          0       22.0        120          0          0          0       0.39    2938.90 
   2982.50          0          0       22.0        120          0          0          0       0.39    2939.31 
   2983.00          0          0       22.0        120          0          0          0       0.39    2939.72 
   2983.50          0          0       22.0        120          0          0          0       0.39    2940.13 
   2984.00          0          0       22.0        120          0          0          0       0.39    2940.54 
   2984.50          0          0       22.0        120          0          0          0       0.39    2940.95 
   2985.00          0          0       22.0        120          0          0          0       0.39    2941.37 
   2985.50          0          0       22.0        120          0          0          0       0.39    2941.78 
   2986.00          0          0       22.0        120          0          0          0       0.39    2942.19 
   2986.50          0          0       22.0        120          0          0          0       0.39    2942.60 
   2987.00          0          0       22.0        120          0          0          0       0.39    2943.01 
   2987.50          0          0       22.0        120          0          0          0       0.39    2943.42 
   2988.00          0          0       22.0        120          0          0          0       0.39    2943.83 
   2988.50          0          0       22.0        120          0          0          0       0.39    2944.24 
   2989.00          0          0       22.0        120          0          0          0       0.39    2944.65 
   2989.50          0          0       22.0        120          0          0          0       0.39    2945.06 
   2990.00          0          0       22.0        120          0          0          0       0.39    2945.47 
   2990.50          0          0       22.0        120          0          0          0       0.39    2945.88 
   2991.00          0          0       22.0        120          0          0          0       0.39    2946.29 
   2991.50      30.61      389.2        8.2        150       3456    9469.02    1085.19       0.65    2946.70 
   2992.00      30.39      388.7       10.2        150       3461    9742.82    1085.21       0.68    2947.11 
   2992.50      36.46      388.7       10.1        150       3453    9460.56    1085.17       0.65    2947.52 
   2993.00      16.81      388.8       10.1        150       3451    9491.80    1085.37       0.77    2947.93 
   2993.50      31.42      388.6       10.2        151       3454    9231.47    1085.21       0.67    2948.34 
   2994.00      33.14      388.4       10.4        151       3452    9787.02    1085.54       0.67    2948.75 
   2994.50      30.98      388.0       10.8        152       3453   10189.13    1085.46       0.69    2949.16 
   2995.00      35.68      387.9       11.0        152       3448   10444.69    1085.61       0.66    2949.57 
   2995.50      31.06      388.3       10.5        151       3452   10621.25    1085.59       0.68    2949.98 
   2996.00      28.22      388.1       10.7        151       3452   10734.37    1085.67       0.70    2950.39 
   2996.50      31.50      387.8       11.0        156       3452   10641.04    1085.73       0.69    2950.80 
   2997.00      37.94      388.0       10.9        163       3449   10803.08    1085.70       0.67    2951.21 
