~VERSION INFORMATION
VERS.    2.0:   CWLS LOG ASCII STANDARD - VERSION 2.0
WRAP.     NO:   ONE LINE PER STEP
~WELL INFORMATION BLOCK
#MNEM.UNIT      DATA                  DESCRIPTION OF MNEMONIC
#----   --------             ---------------
STRT.m  260.00                   :START DEPTH
STOP.m  5363.00                   :STOP DEPTH
STEP.m  0.50                   :STEP VALUE
NULL.   0                   :NULL VALUE
COMP.   SHELL                   :COMPANY NAME
WELL.   PRELUDE P7                   :WELL NAME
FLD .   PRELUDE                   :FIELD NAME
LOC .                      :LOCATION
PROV.   PRELUDE                   :PROVINCE
SRVC.   Geoservices                   :SERVICE COMPANY NAME
DATE.   06-20-2015 21:16:03                   :DATE
UWI .                      :UNIQUE WELL IDENTIFIER
~CURVE INFORMATION
#MNEM.UNIT       API CODE        CURVE DESCRIPTION
#----   -------- ------------------
Tot Depth .m        :Tot Depth
ROP m/hr .m/h        :ROP m/hr
WOH .klbs        :WOH
WOB .klbs        :WOB
RPM .rpm        :RPM
SPP .psi        :SPP
TORQUE .lb*ft        :TORQUE
FLWpmps .gpm        :FLWpmps
D Exp .....        :D Exp
TVD Depth .m        :TVD Depth
#
#-----------------------------------------------------------
# Tot Depth (m)   ROP m/hr (m/h)   WOH (klbs)   WOB (klbs)   RPM (rpm)   SPP (psi)   TORQUE (lb*ft)   FLWpmps (gpm)   D Exp (....)   TVD Depth (m)
#-----------------------------------------------------------
~A
    260.00      59.61      200.2        0.1         65         19          0      23.00       0.25     260.00 
    260.50      95.07      200.1        0.1         65         20          0      42.00       0.25     260.50 
    261.00       1.53      200.4        0.2         23         21    3435.00     408.00       0.18     261.00 
    261.50      97.14      200.4        0.2         25         36    3169.00     502.00       0.19     261.50 
    262.00     122.88      200.4        0.2         35         61    2071.00     496.00       0.22     262.00 
    262.50     100.66      200.5        0.3         37         64    1919.00     493.00       0.23     262.50 
    263.00     122.83      200.6        0.2         40         69    1896.00     495.00       0.23     263.00 
    263.50      99.09      200.5        0.3         37         75    1720.00     496.00       0.23     263.50 
    264.00     101.19      200.4        0.2         40        111    2257.00     519.00       0.23     264.00 
    264.50      52.33      200.6        0.2         38        114    1161.00     562.00       0.22     264.50 
    265.00      38.55      200.5        0.3         40        127    1633.00     562.00       0.23     265.00 
    265.50     104.69      200.4        0.2         51        124    2563.00     562.00       0.24     265.50 
    266.00      96.49      200.6        0.3         50        126    1332.00     560.00       0.25     266.00 
    266.50     100.66      200.4        0.3         51        125    3257.00     562.00       0.26     266.50 
    267.00      87.72      200.5        0.2         51        123    2878.00     560.00       0.24     267.00 
    267.50      59.61      200.4        0.1         51        128    2978.00     561.00       0.22     267.50 
    268.00      86.47      200.1        0.8         52        219    2250.24     607.00       0.24     268.00 
    268.50      86.47      200.1        0.8         53        219    2250.24     629.00       0.24     268.50 
    269.00      86.47      200.1        0.8         51        219    2250.24     643.00       0.24     269.00 
    269.50      86.47      200.1        0.8         52        219    2250.24     662.00       0.24     269.50 
    270.00      86.47      200.1        0.8         53        219    2250.24     675.00       0.24     270.00 
    270.50      91.04      200.2        0.7         51        243    2743.83     682.79       0.22     270.50 
    271.00     116.54      200.0        0.6         50        241    2553.42     683.41       0.19     271.00 
    271.50      89.21      200.0        0.8         50        249    2262.30     683.51       0.23     271.50 
    272.00     111.53      199.9        0.8         50        244    3277.53     683.29       0.20     272.00 
    272.50      87.36      200.2        0.7         50        241    2544.83     683.39       0.22     272.50 
    273.00      72.84      200.2        0.6         54        254    2363.10     687.25       0.25     273.00 
    273.50     103.15      200.3        0.6         59        304    2059.81     747.47       0.22     273.50 
    274.00     113.77      200.5        0.4         59        311    2049.92     750.05       0.20     274.00 
    274.50      91.05      200.1        0.7         60        312    1772.53     750.21       0.24     274.50 
    275.00      45.74      200.0        0.8         60        313    1540.89     750.38       0.31     275.00 
    275.50      27.70      200.1        0.7         60        314    1288.02     750.41       0.36     275.50 
    276.00     136.60      199.6        0.6         56        317    1956.10     748.03       0.18     276.00 
    276.50     122.87      199.0        0.5         56        306    2181.84     748.35       0.19     276.50 
    277.00     132.66      199.8        0.4         55        298    2887.86     749.00       0.17     277.00 
    277.50     136.45      199.6        0.5         56        312    3005.40     749.24       0.17     277.50 
    278.00     135.92      200.8        0.6         57        303    2716.30     749.17       0.18     278.00 
    278.50      87.40      200.8        0.5         57        307    2050.53     749.35       0.22     278.50 
    279.00     119.65      201.1        0.4         57        309    1812.89     749.23       0.18     279.00 
    279.50     130.05      200.2        0.5         58        304    1944.88     749.37       0.18     279.50 
    280.00     116.04      200.8        0.5         57        308    1828.16     749.50       0.19     280.00 
    280.50     122.87      200.9        0.4         56        314    1730.25     749.49       0.18     280.50 
    281.00     128.67      200.5        0.5         60        337    1556.40     776.48       0.18     281.00 
    281.50     104.68      200.8        0.5         69        350    2242.22     805.64       0.22     281.50 
    282.00     120.59      200.7        0.4         70        351    2185.15     798.93       0.20     282.00 
    282.50     142.66      200.8        0.5         69        354    1904.75     792.77       0.18     282.50 
    283.00     107.17      200.7        0.4         69        338    1751.73     792.91       0.21     283.00 
    283.50     111.41      200.7        0.5         69        347    1784.27     793.22       0.21     283.50 
    284.00     124.77      200.8        0.5         68        335    1871.51     793.29       0.19     284.00 
    284.50     119.65      200.7        0.6         69        334    2206.30     793.54       0.20     284.50 
    285.00     137.85      200.5        0.6         69        343    2495.48     793.85       0.19     285.00 
    285.50     113.78      201.8        0.5         69        334    3973.20     793.85       0.20     285.50 
    286.00     167.11      203.8        0.6         68        332    3298.53     793.68       0.12     286.00 
    286.50     132.66      204.4        0.5         68        341    2748.29     793.78       0.19     286.50 
    287.00      61.52      205.0        0.5         69        339    1845.65     793.92       0.26     287.00 
    287.50      43.35      205.0        0.4         69        376    1797.22     834.75       0.29     287.50 
    288.00      38.61      205.0        0.3         69        393    1702.04     850.49       0.29     288.00 
    288.50      68.26      204.7        0.4         68        377    3097.32     850.29       0.25     288.50 
    289.00     112.28      205.1        0.5         67        404    3847.84     850.21       0.20     289.00 
    289.50     112.28      205.1        0.5         67        404    3847.84     850.21       0.20     289.50 
    290.00      88.23      207.0        0.6         68        392    3234.87     850.34       0.23     290.00 
    290.50     109.25      207.0        0.5         68        367    2671.51     850.31       0.20     290.50 
    291.00     101.11      207.0        0.4         68        399    3504.26     850.15       0.20     291.00 
    291.50     148.26      207.3        0.2         68        386    3415.71     850.24       0.15     291.50 
    292.00     109.24      207.4        0.3         75        386    2538.60     850.49       0.20     292.00 
    292.50     118.96      207.4        0.4         74        396    1803.69     850.55       0.19     292.50 
    293.00     160.73      207.3        0.3         75        400    1962.41     850.83       0.16     293.00 
    293.50     118.41      207.4        0.4         74        375    2156.45     851.17       0.19     293.50 
    294.00     139.50      207.7        0.5         74        393    2039.64     851.34       0.18     294.00 
    294.50     127.42      207.7        0.5         75        380    2089.40     851.47       0.19     294.50 
    295.00     117.06      207.6        0.4         74        389    2105.61     851.72       0.19     295.00 
    295.50     116.05      207.6        0.3         74        371    2602.58     852.03       0.19     295.50 
    296.00     118.95      207.6        0.2         74        401    2363.83     852.26       0.18     296.00 
