~VERSION INFORMATION
VERS.    2.0:   CWLS LOG ASCII STANDARD - VERSION 2.0
WRAP.     NO:   ONE LINE PER STEP
~WELL INFORMATION BLOCK
#MNEM.UNIT      DATA                  DESCRIPTION OF MNEMONIC
#----   --------             ---------------
STRT.m  260.00                   :START DEPTH
STOP.m  5363.00                   :STOP DEPTH
STEP.m  0.50                   :STEP VALUE
NULL.   0                   :NULL VALUE
COMP.   SHELL                   :COMPANY NAME
WELL.   PRELUDE P7                   :WELL NAME
FLD .   PRELUDE                   :FIELD NAME
LOC .                      :LOCATION
PROV.   PRELUDE                   :PROVINCE
SRVC.   Geoservices                   :SERVICE COMPANY NAME
DATE.   06-20-2015 21:16:03                   :DATE
UWI .                      :UNIQUE WELL IDENTIFIER
~CURVE INFORMATION
#MNEM.UNIT       API CODE        CURVE DESCRIPTION
#----   -------- ------------------
Tot Depth .m        :Tot Depth
ROP m/hr .m/h        :ROP m/hr
WOH .klbs        :WOH
WOB .klbs        :WOB
RPM .rpm        :RPM
SPP .psi        :SPP
TORQUE .lb*ft        :TORQUE
FLWpmps .gpm        :FLWpmps
D Exp .....        :D Exp
TVD Depth .m        :TVD Depth
#
#-----------------------------------------------------------
# Tot Depth (m)   ROP m/hr (m/h)   WOH (klbs)   WOB (klbs)   RPM (rpm)   SPP (psi)   TORQUE (lb*ft)   FLWpmps (gpm)   D Exp (....)   TVD Depth (m)
#-----------------------------------------------------------
~A
# ...
   4311.50       5.56      480.9       12.8        164       2471   13546.07     793.65       0.97    3912.07 
   4312.00       7.14      480.8       12.9        165       2435   12912.13     789.13       0.93    3912.31 
   4312.50       8.23      481.6       12.1        163       2532   13508.89     807.46       0.89    3912.56 
   4313.00      10.18      481.6       12.1        163       2533   13668.78    4248.00       0.86    3912.81 
   4313.50       9.11      483.3       10.4        133       1995   10709.79     802.55       0.82    3913.05 
   4314.00       6.48      483.7       10.0        154       2616   12455.74     819.02       0.88    3913.30 
   4314.50       9.49      483.1       10.6        151       2605   13453.52     816.57       0.83    3913.54 
   4315.00       3.58      483.2       10.5        156       2517   11624.20     803.50       0.98    3913.79 
   4315.50       7.44      483.6       10.2        155       2595   12559.63     817.93       0.87    3914.04 
   4316.00       9.07      483.3       10.4        156       2592   13581.83     817.96       0.84    3914.28 
   4316.50      10.32      483.0       10.7        156       2593   13916.44     817.91       0.83    3914.53 
   4317.00       9.42      482.7       11.0        156       2589   13671.88     817.97       0.84    3914.78 
   4317.50       9.07      482.4       11.3        156       2587   14013.30     817.94       0.86    3915.02 
   4318.00      11.31      482.2       11.5        156       2588   13812.84     817.79       0.83    3915.27 
   4318.50       7.38      482.0       11.7        155       2584   14002.18     817.85       0.89    3915.52 
   4319.00       9.29      481.5       12.2        156       2583   14890.55     817.88       0.87    3915.76 
   4319.50       8.15      481.4       12.3        160       2576   15032.87     817.88       0.89    3916.01 
   4320.00      12.56      481.3       12.4        157       2582   16372.56     817.89       0.82    3916.25 
   4320.50      12.52      481.6       12.1        160       2581   15267.54     817.93       0.82    3916.50 
   4321.00       9.15      481.8       11.9        161       2579   14732.97     817.79       0.87    3916.75 
   4321.50      10.74      481.9       11.8        162       2576   14491.21     817.84       0.84    3916.99 
   4322.00       9.25      482.2       11.5        163       2575   14072.58     817.85       0.86    3917.24 
   4322.50      12.14      482.3       11.4        163       2574   13653.79     817.77       0.82    3917.49 
   4323.00      10.03      483.5       10.2        163       2572   13893.52     817.87       0.83    3917.73 
   4323.50       8.93      484.7        9.0        163       2571   13923.38     817.78       0.82    3917.98 
   4324.00       8.76      484.1        9.6        162       2570   14435.41     817.73       0.84    3918.23 
   4324.50      12.08      482.2       11.5        163       2572   14212.94     817.82       0.82    3918.47 
   4325.00       9.09      482.4       11.4        163       2571   13722.80     817.89       0.86    3918.72 
   4325.50      10.90      482.5       11.2        164       2570   13635.28     817.78       0.83    3918.97 
   4326.00       8.82      482.4       11.3        164       2571   13480.54     817.84       0.87    3919.21 
   4326.50       8.18      482.7       11.3        156       2587   13119.80     817.79       0.87    3919.46 
   4327.00       6.52      484.9       10.6        121       2632   10735.48     817.99       0.85    3919.70 
   4327.50       7.48      483.4       12.0        153       2609   13196.25     818.24       0.89    3919.95 
   4328.00       9.79      482.2       13.3        152       2610   14088.43     818.38       0.87    3920.20 
   4328.50      10.35      482.4       13.1        153       2609   13640.80     818.40       0.86    3920.44 
   4329.00      10.84      482.2       13.3        154       2609   13336.58     818.50       0.86    3920.69 
   4329.50       9.45      482.2       13.3        155       2611   13191.93     818.46       0.88    3920.94 
   4330.00       9.53      482.1       13.4        155       2612   13276.83     818.53       0.88    3921.18 
   4330.50       8.42      481.9       13.6        154       2612   13529.87     818.59       0.90    3921.43 
   4331.00       9.17      481.6       13.9        154       2611   13545.61     818.42       0.89    3921.68 
   4331.50       8.58      480.6       14.9        157       2443   12580.76     786.56       0.92    3921.92 
   4332.00       6.90      482.8       12.6        156       2573   12776.06     813.02       0.92    3922.17 
   4332.50       8.80      482.1       13.4        160       2601   13302.67     817.62       0.90    3922.41 
   4333.00       9.67      481.9       13.6        163       2601   13205.66     817.63       0.89    3922.65 
   4333.50       9.36      482.5       13.1        163       2603   13353.97     817.59       0.89    3922.89 
   4334.00       8.10      481.7       13.8        162       2602   13895.61     817.80       0.92    3923.12 
   4334.50       8.96      481.4       14.1        159       2602   15087.48     817.63       0.90    3923.36 
   4335.00      12.15      481.5       14.0        161       2601   14154.44     817.59       0.86    3923.60 
   4335.50       9.94      481.7       13.8        162       2603   13683.03     817.53       0.89    3923.84 
   4336.00       9.67      481.6       13.9        162       2602   13749.29     817.61       0.89    3924.08 
   4336.50      10.35      481.6       13.9        162       2601   13572.56     817.74       0.88    3924.32 
   4337.00       8.28      481.7       13.8        162       2601   13939.19     817.59       0.91    3924.56 
   4337.50      11.22      481.8       13.7        162       2598   13841.98     817.65       0.86    3924.80 
   4338.00       8.60      481.5       14.0        163       2597   13575.79     817.52       0.91    3925.04 
   4338.50      11.20      481.7       13.8        163       2596   13455.79     817.63       0.87    3925.28 
   4339.00       9.15      481.6       13.9        163       2598   13479.39     817.78       0.90    3925.52 
   4339.50       9.79      482.0       13.5        162       2597   13944.93     817.75       0.88    3925.76 
   4340.00       9.66      481.7       13.8        162       2596   13759.78     817.78       0.89    3925.99 
   4340.50       9.11      481.6       13.8        163       2591   13450.82     817.69       0.90    3926.23 
   4341.00       8.26      481.4       14.1        162       2594   13866.50     817.67       0.92    3926.47 
   4341.50       9.06      481.0       14.5        161       2592   14361.66     817.73       0.91    3926.71 
   4342.00      10.82      480.7       14.8        160       2593   14922.66     817.59       0.88    3926.95 
   4342.50       9.19      480.9       14.6        161       2593   14276.77     817.69       0.91    3927.19 
   4343.00      11.86      481.0       14.5        162       2593   13732.72     817.77       0.87    3927.43 
   4343.50       9.84      481.1       14.4        162       2591   13782.42     817.66       0.90    3927.67 
   4344.00       4.52      481.1       14.4        162       2588   13931.75     817.65       1.02    3927.91 
   4344.50      10.48      481.0       14.5        160       2591   14534.90     817.58       0.89    3928.15 
   4345.00       5.41      480.7       14.8        161       2588   14451.80     817.62       1.00    3928.39 
   4345.50       8.78      480.7       14.8        161       2590   14528.42     817.58       0.92    3928.63 
   4346.00      10.06      480.8       14.7        160       2591   14814.19     817.55       0.90    3928.87 
   4346.50       9.25      481.2       14.3        159       2589   14953.96     817.42       0.90    3929.10 
   4347.00       8.92      480.8       14.7        160       2589   14768.54     817.56       0.91    3929.34 
   4347.50       9.87      480.6       14.8        160       2590   14778.01     817.59       0.90    3929.58 
