~VERSION INFORMATION
VERS.    2.0:   CWLS LOG ASCII STANDARD - VERSION 2.0
WRAP.     NO:   ONE LINE PER STEP
~WELL INFORMATION BLOCK
#MNEM.UNIT      DATA                  DESCRIPTION OF MNEMONIC
#----   --------             ---------------
STRT.m  260.00                   :START DEPTH
STOP.m  5363.00                   :STOP DEPTH
STEP.m  0.50                   :STEP VALUE
NULL.   0                   :NULL VALUE
COMP.   SHELL                   :COMPANY NAME
WELL.   PRELUDE P7                   :WELL NAME
FLD .   PRELUDE                   :FIELD NAME
LOC .                      :LOCATION
PROV.   PRELUDE                   :PROVINCE
SRVC.   Geoservices                   :SERVICE COMPANY NAME
DATE.   06-20-2015 21:16:03                   :DATE
UWI .                      :UNIQUE WELL IDENTIFIER
~CURVE INFORMATION
#MNEM.UNIT       API CODE        CURVE DESCRIPTION
#----   -------- ------------------
Tot Depth .m        :Tot Depth
ROP m/hr .m/h        :ROP m/hr
WOH .klbs        :WOH
WOB .klbs        :WOB
RPM .rpm        :RPM
SPP .psi        :SPP
TORQUE .lb*ft        :TORQUE
FLWpmps .gpm        :FLWpmps
D Exp .....        :D Exp
TVD Depth .m        :TVD Depth
#
#-----------------------------------------------------------
# Tot Depth (m)   ROP m/hr (m/h)   WOH (klbs)   WOB (klbs)   RPM (rpm)   SPP (psi)   TORQUE (lb*ft)   FLWpmps (gpm)   D Exp (....)   TVD Depth (m)
#-----------------------------------------------------------
~A
# ...
   1939.00      47.08      404.0        3.1        100       1386          0     909.54       0.56    1938.80 
   1939.50      72.86      407.7        0.5        100       1381          0     909.99       0.38    1939.30 
   1940.00      50.13      405.7        2.4        100       1387          0     909.51       0.53    1939.80 
   1940.50      22.47      403.3        4.0        100       1440          0     906.97       0.70    1940.30 
   1941.00       4.84      405.7        2.2         99       1480      49.03     904.30       0.86    1940.79 
   1941.50       6.40      412.3        0.8         99       1511     103.24     897.45       0.71    1941.29 
   1942.00      10.56      411.6        1.6         99       1613          0     897.75       0.71    1941.79 
   1942.50       5.77      416.7        1.1         99       1589      19.90     898.22       0.75    1942.29 
   1943.00       9.60      417.5        0.3         93       1170    1424.78     632.30       0.57    1942.79 
   1943.50      14.75      415.6        1.9        158       1897    7725.85    1030.64       0.75    1943.29 
   1944.00      24.95      415.2        2.1        158       1948    8541.85    1026.73       0.68    1943.79 
   1944.50      18.79      417.2        0.6        158       1921    7995.25    1028.43       0.61    1944.28 
   1945.00      16.20      418.7        0.3        158       1908    7435.99    1029.77       0.58    1944.78 
   1945.50      19.65      419.8        0.2        158       1932    8297.08    1028.31       0.53    1945.28 
   1946.00      26.18      419.7        0.4        158       1949    8366.32    1026.26       0.54    1945.78 
   1946.50      30.61      420.5        0.2        158       1966    8620.69    1025.59       0.46    1946.28 
   1947.00      21.05      413.7        5.2        158       1963    8574.29    1025.46       0.82    1946.78 
   1947.50      16.15      409.3        7.9        158       1964    7900.34    1024.31       0.93    1947.28 
   1948.00      30.66      410.0        7.1        158       2000    8456.31    1022.61       0.80    1947.77 
   1948.50      26.80      408.4        8.8        157       1996    8027.30    1022.03       0.86    1948.27 
   1949.00      13.24      414.7        2.7        151       1666    2839.67     963.94       0.80    1948.77 
   1949.50      10.72      416.9        1.2         99       1483       0.00     903.13       0.68    1949.27 
   1950.00      10.68      413.8        3.5         99       1436          0     904.69       0.80    1949.77 
   1950.50      11.45      415.0        2.2         99       1481          0     902.84       0.73    1950.27 
   1951.00      10.01      415.4        2.1        100       1417          0     905.57       0.75    1950.77 
   1951.50      14.52      415.3        2.2         99       1446          0     904.37       0.70    1951.26 
   1952.00      10.26      415.3        1.9        100       1405      39.03     906.07       0.73    1951.76 
   1952.50      17.69      417.1        0.8         99       1466          0     903.49       0.57    1952.26 
   1953.00      21.36      418.1        0.3         99       1460          0     903.92       0.48    1952.76 
   1953.50      21.59      419.0        0.3         99       1471          0     903.35       0.48    1953.26 
   1954.00      21.44      417.3        0.6         99       1486          0     902.48       0.53    1953.76 
   1954.50      21.70      420.7        0.4         99       1517          0     900.67       0.50    1954.26 
   1955.00      16.63      422.6        0.5         99       1453          0     903.86       0.55    1954.75 
   1955.50      21.54      420.8        0.3         99       1471          0     902.84       0.49    1955.25 
   1956.00      32.10      420.4        0.2         99       1412          0     905.91       0.42    1955.75 
   1956.50      25.73      420.3        0.3        100       1370          0     907.73       0.47    1956.25 
   1957.00      23.97      420.1        0.4        100       1383          0     907.26       0.49    1956.75 
   1957.50      24.29      421.7        0.2        100       1390          0     907.01       0.45    1957.25 
   1958.00      30.89      419.3        0.5        100       1410          0     905.82       0.48    1957.75 
   1958.50      46.46      423.8        0.4        100       1392          0     906.67       0.42    1958.24 
   1959.00      35.02      422.7        0.3        100       1438          0     904.99       0.43    1958.74 
   1959.50      27.20      421.3        0.2        100       1401          0     906.16       0.43    1959.24 
   1960.00      29.05      417.9        0.8        100       1410          0     906.31       0.52    1959.74 
   1960.50      35.01      418.9        0.4        100       1393          0     906.54       0.45    1960.24 
   1961.00      21.87      416.5        2.3        141       1381    2463.53     906.88       0.69    1960.74 
   1961.50      14.69      416.0        2.8        145       1467    8538.25     903.40       0.50    1961.23 
   1962.00      15.43      417.8        2.7        144       1379    3272.75     905.29       0.77    1961.73 
   1962.50      42.40      419.9        3.0         99       1394          0     901.69       0.57    1962.23 
   1963.00      61.05      405.1       16.6         99       1413          0     900.87       0.70    1962.73 
   1963.50      59.22      404.9       16.7         99       1453          0     898.91       0.62    1963.22 
   1964.00      62.88      408.3       13.3         99       1454      14.61     898.19       0.66    1963.72 
   1964.50      62.90      405.3       16.3         99       1448     170.05     898.29       0.69    1964.22 
   1965.00      24.96      407.2       14.4         99       1400       0.00     900.46       0.87    1964.71 
   1965.50      49.61      407.7       13.9         99       1448          0     898.63       0.72    1965.21 
   1966.00      39.55      415.6        6.0         99       1418          0     899.63       0.65    1965.71 
   1966.50      28.79      411.0       10.6         99       1416          0     899.80       0.78    1966.20 
   1967.00      17.87      412.4        9.2         99       1371          0     902.04       0.85    1966.70 
   1967.50      20.34      410.3       11.4         99       1362       0.00     902.32       0.86    1967.20 
   1968.00      31.13      410.9       10.7         99       1412          0     900.28       0.77    1967.69 
   1968.50      20.40      409.0       12.7         99       1394      35.06     900.97       0.88    1968.19 
   1969.00      23.53      413.1        8.6         99       1363          0     902.39       0.79    1968.69 
   1969.50       6.78      414.1        7.5         99       1330      64.04     903.72       0.99    1969.18 
   1970.00      25.96      413.6        8.1         99       1368          0     902.22       0.76    1969.68 
   1970.50      17.68      417.3        4.3         99       1402       0.00     900.71       0.74    1970.18 
   1971.00      22.84      412.5        9.1         99       1461       0.00     897.72       0.80    1970.68 
   1971.50      22.84      413.8        7.9         99       1411          0     900.34       0.78    1971.17 
   1972.00      30.35      414.0        7.7         99       1508          0     895.41       0.72    1971.67 
   1972.50      16.85      415.0        6.6         99       1420          0     899.08       0.81    1972.17 
   1973.00      18.81      414.9        6.8         99       1470          0     896.84       0.80    1972.66 
   1973.50      18.40      417.2        4.5         99       1445          0     898.00       0.74    1973.16 
   1974.00      15.85      412.8        8.8         99       1466          0     897.14       0.87    1973.66 
   1974.50      17.69      413.6        8.0         99       1437       1.22     898.15       0.83    1974.15 
   1975.00      16.23      418.2        5.7         99       1419      81.12     899.34       0.80    1974.65 
