~VERSION INFORMATION
VERS.    2.0:   CWLS LOG ASCII STANDARD - VERSION 2.0
WRAP.     NO:   ONE LINE PER STEP
~WELL INFORMATION BLOCK
#MNEM.UNIT      DATA                  DESCRIPTION OF MNEMONIC
#----   --------             ---------------
STRT.m  260.00                   :START DEPTH
STOP.m  5363.00                   :STOP DEPTH
STEP.m  0.50                   :STEP VALUE
NULL.   0                   :NULL VALUE
COMP.   SHELL                   :COMPANY NAME
WELL.   PRELUDE P7                   :WELL NAME
FLD .   PRELUDE                   :FIELD NAME
LOC .                      :LOCATION
PROV.   PRELUDE                   :PROVINCE
SRVC.   Geoservices                   :SERVICE COMPANY NAME
DATE.   06-20-2015 21:16:03                   :DATE
UWI .                      :UNIQUE WELL IDENTIFIER
~CURVE INFORMATION
#MNEM.UNIT       API CODE        CURVE DESCRIPTION
#----   -------- ------------------
Tot Depth .m        :Tot Depth
ROP m/hr .m/h        :ROP m/hr
WOH .klbs        :WOH
WOB .klbs        :WOB
RPM .rpm        :RPM
SPP .psi        :SPP
TORQUE .lb*ft        :TORQUE
FLWpmps .gpm        :FLWpmps
D Exp .....        :D Exp
TVD Depth .m        :TVD Depth
#
#-----------------------------------------------------------
# Tot Depth (m)   ROP m/hr (m/h)   WOH (klbs)   WOB (klbs)   RPM (rpm)   SPP (psi)   TORQUE (lb*ft)   FLWpmps (gpm)   D Exp (....)   TVD Depth (m)
#-----------------------------------------------------------
~A
# ...
    588.50      38.67      281.7        2.0         88       1702    4240.90    1284.42       0.28     588.50 
    589.00      32.47      282.1        2.2         88       1708    4820.43    1285.54       0.31     589.00 
    589.50      31.79      281.4        3.2         87       1713    5409.43    1287.83       0.33     589.50 
    590.00      27.45      281.1        3.6         87       1725    5712.95    1293.60       0.35     590.00 
    590.50      28.89      281.3        3.3         86       1731    5967.46    1294.47       0.34     590.50 
    591.00      35.00      281.2        3.5         86       1721    6184.75    1292.74       0.32     591.00 
    591.50      28.15      280.7        3.9         85       1721    6965.16    1291.18       0.35     591.50 
    592.00      46.35      280.8        3.8         85       1712    6524.38    1288.27       0.28     592.00 
    592.50      52.43      281.3        3.4         87       1712    5821.92    1287.94       0.26     592.50 
    593.00      49.19      281.8        2.8         88       1711    4684.47    1287.28       0.26     593.00 
    593.50      30.68      282.2        2.4         89       1708    4231.05    1286.75       0.32     593.50 
    594.00      45.96      282.1        2.6         89       1708    4437.18    1286.73       0.27     594.00 
    594.50      25.23      282.2        2.5         88       1716    4269.63    1286.82       0.35     594.50 
    595.00      28.59      281.9        2.7         87       1713    4695.48    1286.04       0.33     595.00 
    595.50      37.88      281.7        2.9         88       1705    4853.05    1285.72       0.30     595.50 
    596.00      28.03      281.3        3.4         87       1719    5652.28    1286.18       0.34     596.00 
    596.50      37.18      281.6        3.1         87       1724    5529.95    1289.22       0.30     596.50 
    597.00      30.68      281.8        2.8         88       1728    4580.09    1290.06       0.33     597.00 
    597.50      33.23      281.7        3.0         87       1724    5135.92    1291.90       0.31     597.50 
    598.00      29.04      281.4        3.3         88       1739    4480.35    1292.02       0.34     598.00 
    598.50      29.65      281.5        3.1         87       1735    5646.45    1292.58       0.33     598.50 
    599.00      29.26      279.9        5.3         89       1743    3426.99    1292.55       0.37     599.00 
    599.50      28.92      277.3        6.2         86       1752    2099.68    1288.80       0.37     599.50 
    600.00      35.02      279.8        7.7         85       1741    3822.70    1290.87       0.36     600.00 
    600.50      37.95      280.5        7.0         84       1749    5077.00    1291.80       0.33     600.50 
    601.00      34.36      279.1        8.5         83       1754    4507.02    1293.37       0.36     601.00 
    601.50      36.42      279.2        8.3         83       1738    5585.07    1293.81       0.25     601.50 
    602.00      31.56      278.1        9.4         83       1748    5428.20    1296.09       0.38     602.00 
    602.50      43.36      278.8        8.7         83       1751    4333.04    1296.80       0.32     602.50 
    603.00      47.08      278.8        8.7         83       1751    5022.39    1297.45       0.31     603.00 
    603.50      27.03      278.6        9.0         84       1746    5019.18    1299.24       0.40     603.50 
    604.00      37.18      278.1        9.4         82       1767    5420.45    1301.62       0.35     604.00 
    604.50      42.21      278.0        9.5         82       1759    5815.07    1298.60       0.33     604.50 
    605.00      34.99      278.0        9.5         83       1745    5133.75    1297.27       0.36     605.00 
    605.50      37.16      278.4        9.1         83       1745    5406.27    1296.96       0.35     605.50 
    606.00      37.98      278.4        9.1         84       1752    5178.77    1297.93       0.34     606.00 
    606.50      41.92      278.5        9.1         83       1766    4761.64    1300.32       0.33     606.50 
    607.00      25.50      277.5        8.1         83       1762    5344.44    1304.33       0.40     607.00 
    607.50      39.18      276.9        8.2         82       1785    6513.47    1305.21       0.33     607.50 
    608.00      55.84      277.3        8.5         81       1775    6211.36    1305.33       0.27     608.00 
    608.50      44.17      278.5        9.0         82       1776    5884.56    1305.40       0.32     608.50 
    609.00      31.66      280.2        7.3         83       1768    5585.33    1304.79       0.36     609.00 
    609.50      48.92      280.5        7.0         83       1762    5819.99    1303.94       0.29     609.50 
    610.00      30.18      279.8        7.7         82       1766    5691.21    1301.66       0.37     610.00 
    610.50      46.17      279.6        7.9         83       1750    5452.96    1295.23       0.30     610.50 
    611.00      36.44      280.0        7.5         83       1740    5412.51    1293.24       0.34     611.00 
    611.50      31.31      279.4        8.1         82       1740    5668.28    1293.94       0.36     611.50 
    612.00      68.31      277.5        7.9         82       1753    6286.29    1295.32       0.23     612.00 
    612.50      27.08      277.8        7.7         84       1754    4487.75    1296.96       0.39     612.50 
    613.00      25.58      281.8        5.7         88       1770    2107.17    1299.33      -0.03     613.00 
    613.50      29.60      282.1        7.2         87       1762    1959.09    1301.95       0.37     613.50 
    614.00      45.70      284.2        7.9         84       1774    3871.81    1304.61       0.30     614.00 
    614.50      25.23      282.7        6.8         84       1776    4507.52    1303.87       0.39     614.50 
    615.00      38.67      280.9        6.6         84       1771    4350.19    1302.65       0.32     615.00 
    615.50      43.06      280.8        7.8         84       1759    4357.30    1301.92       0.31     615.50 
    616.00      44.52      282.6        4.9         84       1765    4540.91    1300.59       0.28     616.00 
    616.50      31.22      283.3        4.2         83       1760    5099.93    1298.69       0.33     616.50 
    617.00      51.91      283.2        4.3         83       1743    5162.36    1295.31       0.25     617.00 
    617.50      38.08      284.0        3.5         85       1761    4164.52    1296.46       0.29     617.50 
    618.00      26.16      283.6        3.9         84       1761    4745.99    1297.61       0.35     618.00 
    618.50      61.07      283.2        4.3         83       1749    4997.30    1296.27       0.23     618.50 
    619.00      36.42      283.7        3.8         85       1746    4113.66    1295.40       0.30     619.00 
    619.50      42.88      283.9        3.6         83       1747    4771.74    1295.89       0.27     619.50 
    620.00      22.49      283.5        4.1         85       1764    4231.18    1296.14       0.37     620.00 
    620.50      16.87      278.2        0.7        143       1000     778.00     897.03       0.40     620.50 
    621.00      20.05      282.0        1.0        136        998     884.87     890.98       0.39     621.00 
    621.50      39.73      282.3        0.7        136        996    1132.66     889.46       0.29     621.50 
    622.00      12.87      281.9        1.1        136        992    1035.96     891.02       0.45     622.00 
    622.50      34.15      282.1        0.9        136        999    1176.79     891.25       0.32     622.50 
    623.00      23.72      281.9        1.1        135       1008    1367.28     890.30       0.37     623.00 
    623.50      24.29      282.4        0.6        136       1000    1696.05     889.60       0.34     623.50 
    624.00      27.75      281.9        1.1        135       1015    1667.54     889.49       0.35     624.00 
    624.50      28.88      282.0        1.0        135        995    1667.95     890.01       0.34     624.50 
