~VERSION INFORMATION
VERS.    2.0:   CWLS LOG ASCII STANDARD - VERSION 2.0
WRAP.     NO:   ONE LINE PER STEP
~WELL INFORMATION BLOCK
#MNEM.UNIT      DATA                  DESCRIPTION OF MNEMONIC
#----   --------             ---------------
STRT.m  260.00                   :START DEPTH
STOP.m  5363.00                   :STOP DEPTH
STEP.m  0.50                   :STEP VALUE
NULL.   0                   :NULL VALUE
COMP.   SHELL                   :COMPANY NAME
WELL.   PRELUDE P7                   :WELL NAME
FLD .   PRELUDE                   :FIELD NAME
LOC .                      :LOCATION
PROV.   PRELUDE                   :PROVINCE
SRVC.   Geoservices                   :SERVICE COMPANY NAME
DATE.   06-20-2015 21:16:03                   :DATE
UWI .                      :UNIQUE WELL IDENTIFIER
~CURVE INFORMATION
#MNEM.UNIT       API CODE        CURVE DESCRIPTION
#----   -------- ------------------
Tot Depth .m        :Tot Depth
ROP m/hr .m/h        :ROP m/hr
WOH .klbs        :WOH
WOB .klbs        :WOB
RPM .rpm        :RPM
SPP .psi        :SPP
TORQUE .lb*ft        :TORQUE
FLWpmps .gpm        :FLWpmps
D Exp .....        :D Exp
TVD Depth .m        :TVD Depth
#
#-----------------------------------------------------------
# Tot Depth (m)   ROP m/hr (m/h)   WOH (klbs)   WOB (klbs)   RPM (rpm)   SPP (psi)   TORQUE (lb*ft)   FLWpmps (gpm)   D Exp (....)   TVD Depth (m)
#-----------------------------------------------------------
~A
# ...
   3654.50      27.74      435.2       13.6        153       3879   16412.39    1122.51       0.73    3457.48 
   3655.00      27.48      435.2       13.5        153       3876   16369.05    1122.44       0.73    3457.86 
   3655.50      30.37      435.3       13.4        153       3880   16289.39    1122.75       0.71    3458.23 
   3656.00      27.20      435.3       13.4        153       3880   16556.00    1122.46       0.73    3458.61 
   3656.50      28.03      435.4       13.3        153       3877   16394.02    1122.50       0.72    3458.98 
   3657.00      12.63      435.4       13.3        159       3875   13993.77    1122.67       0.86    3459.73 
   3657.50      12.63      435.4       13.3        159       3875   13993.77    1122.67       0.86    3459.73 
   3658.00      14.04      437.1       11.6        162       3871   12654.80    1122.74       0.82    3460.11 
   3658.50       8.51      437.3       11.4        166       3870   11869.87    1122.72       0.90    3460.48 
   3659.00      30.39      435.8       12.9        163       3883   16490.49    1122.71       0.72    3460.86 
   3659.50      22.78      436.1       12.6        162       3888   16343.84    1122.39       0.76    3461.23 
   3660.00      29.88      436.0       12.8        162       3887   16976.38    1122.60       0.72    3461.61 
   3660.50      30.37      436.0       12.7        162       3890   16461.67    1122.69       0.71    3461.98 
   3661.00      31.89      436.0       12.7        163       3892   16526.63    1122.79       0.71    3462.36 
   3661.50      31.89      436.0       12.7        163       3892   16526.63    1122.79       0.71    3462.36 
   3662.00      23.02      436.0       12.7        162       3889   16499.55    1122.51       0.76    3463.11 
   3662.50      31.89      435.6       13.1        162       3888   17524.63    1122.08       0.71    3463.49 
   3663.00      27.87      435.7       13.0        162       3889   16715.17    1122.69       0.73    3463.86 
   3663.50      18.23      435.8       12.9        163       3889   16548.61    1122.78       0.80    3464.24 
   3664.00      24.31      435.7       13.0        164       3878   15871.77    1122.77       0.75    3464.61 
   3664.50      36.43      435.5       13.2        162       3882   16265.62    1123.24       0.69    3464.99 
   3665.00      27.87      435.5       13.2        162       3891   16380.37    1122.82       0.73    3465.36 
   3665.50      31.42      435.7       13.0        163       3889   16324.86    1122.70       0.71    3465.74 
   3666.00      29.30      435.6       13.1        161       3886   16921.59    1122.88       0.72    3466.11 
   3666.50      24.31      435.3       13.4        161       3887   16955.26    1122.87       0.76    3466.49 
   3667.00      25.06      435.5       13.2        161       3888   16991.25    1122.97       0.75    3466.87 
   3667.50      38.11      435.6       13.1        160       3890   17258.61    1122.83       0.68    3467.24 
   3668.00      31.42      435.8       12.9        162       3882   17188.60    1122.50       0.71    3467.62 
   3668.50      27.65      436.2       12.5        161       3889   17069.96    1122.66       0.72    3468.00 
   3669.00      24.30      436.7       12.0        163       3884   16588.21    1122.66       0.74    3468.37 
   3669.50      30.37      436.1       12.6        162       3882   16932.88    1122.64       0.71    3468.75 
   3670.00      26.66      436.4       12.3        163       3884   16668.15    1123.07       0.73    3469.13 
   3670.50      28.04      436.5       12.2        164       3882   16117.42    1122.81       0.72    3469.50 
   3671.00      27.20      436.4       12.4        165       3882   15721.94    1123.10       0.73    3469.88 
   3671.50      28.47      436.6       12.2        165       3878   15665.49    1122.77       0.72    3470.26 
   3672.00      34.39      436.8       12.0        164       3884   16051.61    1122.93       0.69    3470.63 
   3672.50      21.36      437.3       11.4        164       3880   15904.82    1123.05       0.75    3471.01 
   3673.00      19.94      438.1       10.6        168       3877   14513.14    1123.12       0.75    3471.39 
   3673.50      22.72      438.8        9.9        169       3872   14013.01    1123.30       0.72    3471.76 
   3674.00      27.47      438.3       10.4        166       3878   15134.86    1123.26       0.70    3472.14 
   3674.50      23.79      438.2       10.5        168       3874   14718.30    1123.18       0.73    3472.52 
   3675.00      23.67      437.7       11.0        166       3873   15056.00    1123.09       0.73    3472.89 
   3675.50      26.41      437.8       10.9        161       3876   17357.84    1122.88       0.71    3473.27 
   3676.00      28.93      438.2       10.5        163       3879   16364.23    1123.00       0.69    3473.64 
   3676.50      37.10      438.0       10.7        164       3878   16284.52    1123.05       0.66    3474.02 
   3677.00      26.02      437.8       10.9        165       3877   15771.46    1123.25       0.72    3474.40 
   3677.50      24.14      437.1       11.6        166       3877   15518.00    1123.12       0.74    3474.77 
   3678.00      28.35      437.0       11.7        165       3882   15661.49    1123.04       0.71    3475.15 
   3678.50      29.39      437.3       11.5        164       3881   16425.96    1123.03       0.70    3475.53 
   3679.00      28.03      437.1       11.6        165       3876   15718.45    1122.91       0.71    3475.90 
   3679.50      28.03      437.1       11.6        165       3876   15718.45    1122.91       0.71    3475.90 
   3680.00      27.47      436.6       12.1        165       3881   16354.00    1122.84       0.72    3477.03 
   3680.50      27.47      436.6       12.1        165       3881   16354.00    1122.84       0.72    3477.03 
   3681.00      35.79      436.4       12.3        164       3882   15897.00    1123.04       0.68    3477.41 
   3681.50      23.43      436.4       12.3        163       3880   15789.00    1122.94       0.75    3477.79 
   3682.00      27.75      436.1       12.6        163       3882   15478.00    1122.89       0.73    3478.16 
   3682.50      27.48      436.4       12.3        164       3878   15819.74    1122.96       0.73    3478.54 
   3683.00      28.77      436.4       12.3        164       3883   16334.71    1122.80       0.72    3478.92 
   3683.50      27.20      436.4       12.3        162       3881   16732.74    1122.72       0.73    3479.29 
   3684.00      29.88      436.3       12.4        163       3879   16956.07    1122.77       0.71    3479.67 
   3684.50      11.64      436.6       12.1        170       3621   14218.58    1074.30       0.87    3480.05 
   3685.00      14.40      438.4       10.3        174       3676   12032.69    1094.07       0.81    3480.42 
   3685.50      23.67      438.7       10.0        170       3864   13540.35    1122.56       0.72    3480.80 
   3686.00      20.03      437.9       10.8        168       3866   14361.16    1122.24       0.76    3481.18 
   3686.50      14.13      437.7       11.0        173       3860   12542.02    1122.52       0.82    3481.55 
   3687.00      21.96      437.8       10.9        171       3868   13468.11    1122.56       0.75    3481.93 
   3687.50      18.21      438.5       10.2        174       3865   11718.48    1122.38       0.77    3482.31 
   3688.00      38.56      444.8        7.3        140       3927    7630.56    1121.09       0.51    3482.68 
   3688.50      24.49      442.4       10.8        135       3928    9839.33    1121.51       0.69    3483.06 
   3689.00       9.94      441.9       11.3        158       3909   11145.45    1121.97       0.87    3483.44 
   3689.50      21.44      441.8       11.4        155       3906   13077.21    1122.09       0.74    3483.81 
   3690.00      25.67      441.2       12.0        157       3908   13930.35    1122.21       0.73    3484.19 
   3690.50      24.00      440.4       12.8        156       3904   14447.57    1122.08       0.75    3484.57 
