~VERSION INFORMATION
VERS.    2.0:   CWLS LOG ASCII STANDARD - VERSION 2.0
WRAP.     NO:   ONE LINE PER STEP
~WELL INFORMATION BLOCK
#MNEM.UNIT      DATA                  DESCRIPTION OF MNEMONIC
#----   --------             ---------------
STRT.m  260.00                   :START DEPTH
STOP.m  5363.00                   :STOP DEPTH
STEP.m  0.50                   :STEP VALUE
NULL.   0                   :NULL VALUE
COMP.   SHELL                   :COMPANY NAME
WELL.   PRELUDE P7                   :WELL NAME
FLD .   PRELUDE                   :FIELD NAME
LOC .                      :LOCATION
PROV.   PRELUDE                   :PROVINCE
SRVC.   Geoservices                   :SERVICE COMPANY NAME
DATE.   06-20-2015 21:16:03                   :DATE
UWI .                      :UNIQUE WELL IDENTIFIER
~CURVE INFORMATION
#MNEM.UNIT       API CODE        CURVE DESCRIPTION
#----   -------- ------------------
Tot Depth .m        :Tot Depth
ROP m/hr .m/h        :ROP m/hr
WOH .klbs        :WOH
WOB .klbs        :WOB
RPM .rpm        :RPM
SPP .psi        :SPP
TORQUE .lb*ft        :TORQUE
FLWpmps .gpm        :FLWpmps
D Exp .....        :D Exp
TVD Depth .m        :TVD Depth
#
#-----------------------------------------------------------
# Tot Depth (m)   ROP m/hr (m/h)   WOH (klbs)   WOB (klbs)   RPM (rpm)   SPP (psi)   TORQUE (lb*ft)   FLWpmps (gpm)   D Exp (....)   TVD Depth (m)
#-----------------------------------------------------------
~A
# ...
   3983.00      17.03      480.5       17.1        146       4290   15261.02    1148.83       0.85    3707.04 
   3983.50      15.71      480.4       17.1        146       4296   14894.96    1148.51       0.86    3707.42 
   3984.00      16.42      480.5       17.1        149       4305   14027.08    1148.37       0.85    3707.80 
   3984.50      15.85      480.4       17.1        148       4305   14266.98    1148.34       0.86    3708.17 
   3985.00      16.27      480.4       17.2        155       4303   14040.46    1148.32       0.86    3708.55 
   3985.50      18.04      480.4       17.2        157       4312   13902.56    1148.25       0.85    3708.93 
   3986.00      16.16      480.2       17.3        157       4315   14233.98    1148.14       0.87    3709.30 
   3986.50      16.72      480.3       17.3        158       4323   13856.07    1147.98       0.86    3709.68 
   3987.00      15.40      480.3       17.3        157       4326   13905.03    1147.97       0.88    3710.06 
   3987.50      16.42      480.3       17.3        157       4330   14120.20    1147.82       0.87    3710.43 
   3988.00      17.70      480.2       17.3        158       4331   13702.82    1147.69       0.86    3710.80 
   3988.50      15.21      480.4       17.2        158       4338   13852.08    1147.53       0.88    3711.17 
   3989.00      14.70      480.4       17.1        158       4342   13681.70    1147.46       0.88    3711.54 
   3989.50      17.01      480.5       17.1        158       4338   13515.23    1147.35       0.86    3711.91 
   3990.00      17.23      480.4       17.1        158       4339   13533.85    1147.50       0.86    3712.27 
   3990.50       6.69      479.6       18.0        159       4344   13060.48    1147.42       1.03    3712.64 
   3991.00      12.75      481.2       16.4        149       4355   12024.24    1146.92       0.89    3713.01 
   3991.50      13.81      481.0       16.6        147       4342   12969.52    1147.24       0.88    3713.38 
   3992.00      15.06      480.9       16.7        148       4328   13289.37    1147.65       0.87    3713.75 
   3992.50      15.99      480.8       16.7        148       4321   13277.92    1147.76       0.86    3714.12 
   3993.00      14.58      480.7       16.8        148       4315   13375.26    1147.73       0.87    3714.49 
   3993.50      13.91      480.7       16.8        149       4221   13152.20    1124.98       0.88    3714.86 
   3994.00       6.56      480.9       16.6        153       4129   11481.49    1114.76       1.01    3715.23 
   3994.50      13.50      481.0       16.6        148       4370   13480.78    1151.35       0.88    3715.60 
   3995.00      17.03      480.7       16.8        148       4374   13607.02    1151.33       0.85    3715.97 
   3995.50      13.09      480.6       17.0        154       4374   13755.96    1151.28       0.90    3716.34 
   3996.00      16.13      480.5       17.0        156       4377   13417.13    1151.31       0.87    3716.71 
   3996.50      15.71      480.5       17.1        156       4374   13321.35    1151.37       0.87    3717.08 
   3997.00      15.53      480.4       17.1        156       4374   13361.76    1151.36       0.88    3717.44 
   3997.50      15.11      480.4       17.2        156       4373   13623.82    1151.42       0.88    3717.81 
   3998.00      15.40      480.4       17.1        155       4368   13884.75    1151.39       0.88    3718.18 
   3998.50      16.13      480.4       17.2        155       4370   14129.28    1151.49       0.87    3718.55 
   3999.00      15.27      480.5       17.0        154       4366   14333.75    1151.62       0.88    3718.92 
   3999.50      16.42      480.4       17.1        156       4359   13711.30    1151.65       0.87    3719.29 
   4000.00      15.19      480.6       17.0        156       4362   13773.28    1151.75       0.88    3719.66 
   4000.50      16.42      480.4       17.1        156       4359   13725.71    1151.76       0.87    3720.03 
   4001.00      15.31      480.4       17.1        156       4357   13574.54    1151.86       0.88    3720.40 
   4001.50      15.44      480.5       17.1        157       4355   13439.70    1151.94       0.88    3720.77 
   4002.00      10.25      479.7       17.9        154       4346   14369.98    1151.98       0.95    3721.14 
   4002.50      10.61      479.7       17.9        157       4345   13383.73    1152.01       0.95    3721.51 
   4003.00      15.41      480.4       17.2        155       4347   13996.87    1152.06       0.88    3721.88 
   4003.50      12.68      480.5       17.1        156       4343   13778.32    1152.07       0.91    3722.25 
   4004.00      17.36      480.5       17.1        154       4345   14630.96    1152.08       0.85    3722.61 
   4004.50      15.06      480.4       17.1        155       4342   13863.27    1152.18       0.88    3722.98 
   4005.00      15.71      480.3       17.2        155       4339   14098.92    1152.13       0.87    3723.35 
   4005.50      15.85      480.4       17.1        156       4339   13506.48    1152.18       0.87    3723.72 
   4006.00      16.13      480.7       16.9        155       4333   14012.88    1152.14       0.87    3724.09 
   4006.50      10.68      480.3       17.3        154       4331   14163.14    1152.37       0.94    3724.46 
   4007.00       7.06      480.4       17.1        159       4323   12263.87    1152.58       1.01    3724.83 
   4007.50      10.72      480.7       16.9        160       4317   11865.80    1152.78       0.94    3725.20 
   4008.00       6.57      481.6       16.7        157       4318   10624.43    1149.72       1.02    3725.57 
   4008.50      12.31      481.6       17.0        150       4314   11698.52    1147.93       0.91    3725.94 
   4009.00      13.40      481.4       17.2        150       4315   12309.62    1147.79       0.89    3726.31 
   4009.50      14.35      481.3       17.3        156       4334   12585.08    1150.43       0.89    3726.68 
   4010.00      13.02      481.2       17.4        159       4348   12798.21    1152.52       0.91    3727.05 
   4010.50      15.89      481.2       16.1        159       4350   13112.13    1152.66       0.86    3727.42 
   4011.00      15.06      481.2       15.4        161       4348   13770.30    1152.61       0.86    3727.78 
   4011.50      15.40      481.2       15.5        167       4340   13699.09    1152.77       0.87    3728.15 
   4012.00      14.35      481.1       15.5        165       4340   13465.64    1152.75       0.88    3728.52 
   4012.50      13.67      481.1       15.5        160       4336   13167.23    1152.78       0.88    3728.89 
   4013.00      15.26      480.9       15.7        157       4339   14229.73    1152.83       0.86    3729.26 
   4013.50      13.77      480.7       15.9        160       4214   13367.43    1131.42       0.88    3729.63 
   4014.00       5.05      481.3       15.3        165       4216   10735.91    1135.73       1.05    3730.00 
   4014.50      14.08      481.5       15.1        162       4357   11906.83    1157.67       0.87    3730.36 
   4015.00      13.23      481.4       15.2        162       4358   12299.98    1157.64       0.88    3730.73 
   4015.50      15.49      481.3       15.3        161       4357   12536.95    1157.71       0.86    3731.09 
   4016.00      14.76      481.2       15.4        161       4357   12787.37    1157.71       0.87    3731.45 
   4016.50      15.75      481.2       15.4        161       4361   12882.71    1157.66       0.86    3731.81 
   4017.00      14.00      481.2       15.4        160       4358   13115.67    1157.68       0.87    3732.17 
   4017.50      15.85      481.2       15.4        159       4364   13474.17    1157.54       0.85    3732.53 
   4018.00      17.56      481.2       15.4        159       4361   13646.02    1157.76       0.84    3732.89 
   4018.50      13.49      481.1       15.5        160       4360   13156.96    1157.57       0.88    3733.25 
   4019.00      15.85      481.2       15.4        161       4360   12926.91    1157.65       0.85    3733.62 
