~VERSION INFORMATION
VERS.    2.0:   CWLS LOG ASCII STANDARD - VERSION 2.0
WRAP.     NO:   ONE LINE PER STEP
~WELL INFORMATION BLOCK
#MNEM.UNIT      DATA                  DESCRIPTION OF MNEMONIC
#----   --------             ---------------
STRT.m  260.00                   :START DEPTH
STOP.m  5363.00                   :STOP DEPTH
STEP.m  0.50                   :STEP VALUE
NULL.   0                   :NULL VALUE
COMP.   SHELL                   :COMPANY NAME
WELL.   PRELUDE P7                   :WELL NAME
FLD .   PRELUDE                   :FIELD NAME
LOC .                      :LOCATION
PROV.   PRELUDE                   :PROVINCE
SRVC.   Geoservices                   :SERVICE COMPANY NAME
DATE.   06-20-2015 21:16:03                   :DATE
UWI .                      :UNIQUE WELL IDENTIFIER
~CURVE INFORMATION
#MNEM.UNIT       API CODE        CURVE DESCRIPTION
#----   -------- ------------------
Tot Depth .m        :Tot Depth
ROP m/hr .m/h        :ROP m/hr
WOH .klbs        :WOH
WOB .klbs        :WOB
RPM .rpm        :RPM
SPP .psi        :SPP
TORQUE .lb*ft        :TORQUE
FLWpmps .gpm        :FLWpmps
D Exp .....        :D Exp
TVD Depth .m        :TVD Depth
#
#-----------------------------------------------------------
# Tot Depth (m)   ROP m/hr (m/h)   WOH (klbs)   WOB (klbs)   RPM (rpm)   SPP (psi)   TORQUE (lb*ft)   FLWpmps (gpm)   D Exp (....)   TVD Depth (m)
#-----------------------------------------------------------
~A
# ...
   2632.50      37.91      366.9       11.9        153       3223    7922.50    1074.20       0.65    2622.02 
   2633.00      32.88      366.6       12.3        153       3223    7869.38    1074.13       0.67    2622.51 
   2633.50      32.54      366.6       12.2        153       3227    7803.48    1073.88       0.68    2622.99 
   2634.00      23.53      366.1       12.7        151       3233    8506.70    1073.81       0.73    2623.48 
   2634.50      27.77      365.8       13.0        153       3237    7866.75    1073.62       0.71    2623.96 
   2635.00       5.30      366.9       12.0        159       3097    5474.66    1042.92       0.97    2624.44 
   2635.50      25.67      367.4       11.4        155       3269    6730.29    1074.20       0.70    2624.93 
   2636.00      17.37      366.4       12.5        149       3276    9162.09    1074.02       0.77    2625.41 
   2636.50      37.20      366.1       12.7        149       3277    9575.53    1073.86       0.66    2625.90 
   2637.00      34.35      366.1       12.7        151       3280    8556.67    1073.71       0.67    2626.38 
   2637.50      37.20      366.3       12.6        153       3277    8087.89    1081.65       0.66    2626.87 
   2638.00      28.47      366.6       12.3        153       3276    7944.59    1074.02       0.70    2627.35 
   2638.50      29.87      366.6       12.2        153       3273    7639.25    1074.23       0.69    2627.83 
   2639.00      32.61      366.7       12.1        154       3261    7339.37    1074.47       0.67    2628.32 
   2639.50      28.80      366.4       12.4        154       3253    7386.11    1074.73       0.70    2628.80 
   2640.00      31.51      366.5       12.4        153       3248    7799.52    1074.92       0.68    2629.29 
   2640.50      31.33      366.7       12.2        153       3241    8025.59    1074.98       0.68    2629.77 
   2641.00      29.39      366.5       12.4        153       3237    7980.66    1075.08       0.69    2630.25 
   2641.50      33.14      366.7       12.2        152       3242    8089.96    1074.96       0.67    2630.74 
   2642.00      28.60      366.6       12.3        153       3243    7958.45    1074.84       0.70    2631.22 
   2642.50      31.90      366.5       12.3        153       3251    7982.34    1074.91       0.68    2631.71 
   2643.00      28.04      366.6       12.2        154       3253    7410.46    1074.74       0.70    2632.19 
   2643.50      14.77      366.4        9.6        153       3268    6422.91    1073.95       0.76    2632.67 
   2644.00      24.97      366.7        9.8        148       3304    7071.18    1072.01       0.68    2633.16 
   2644.50      17.05      365.8       10.3        142       3307    9632.91    1071.97       0.74    2633.64 
   2645.00      15.85      361.6        8.9        137       3303   11917.66    1071.86       0.72    2634.13 
   2645.50      33.14      363.9       10.7        141       3305   10039.04    1071.97       0.64    2634.61 
   2646.00      35.07      364.9       11.5        143       3301    9361.62    1071.93       0.64    2635.09 
   2646.50      18.83      365.3       10.9        146       3308    8260.57    1071.75       0.74    2635.58 
   2647.00      35.77      365.7       11.3        147       3314    7877.39    1071.67       0.64    2636.06 
   2647.50      32.13      365.8       12.1        147       3315    7841.56    1071.53       0.67    2636.55 
   2648.00      31.15      365.9       11.1        146       3316    7934.75    1071.65       0.66    2637.03 
   2648.50      33.07      365.9       10.2        145       3319    8371.15    1071.35       0.64    2637.51 
   2649.00      34.39      365.9       10.2        145       3327    8529.74    1071.32       0.63    2638.00 
   2649.50      34.50      365.9       10.2        146       3324    8217.08    1071.30       0.63    2638.48 
   2650.00      34.21      365.9       10.2        146       3322    8172.02    1071.30       0.64    2638.97 
   2650.50      37.78      366.0       10.1        147       3325    7668.61    1071.37       0.62    2639.45 
   2651.00      23.95      365.7       10.4        145       3325    8591.23    1071.26       0.69    2639.93 
   2651.50      38.77      365.5       10.5        145       3327    8648.37    1071.19       0.62    2640.41 
   2652.00      42.83      365.6       10.5        146       3330    8526.08    1071.15       0.60    2640.89 
   2652.50      35.78      365.7       10.4        146       3327    8241.81    1071.19       0.63    2641.38 
   2653.00      36.45      365.8       10.3        147       3329    8126.20    1071.26       0.63    2641.86 
   2653.50      31.24      365.9       10.2        147       3331    8055.12    1070.96       0.65    2642.34 
   2654.00      36.45      365.9       10.2        146       3324    8019.75    1071.09       0.63    2642.82 
   2654.50      34.26      365.8       10.3        146       3327    8272.06    1071.22       0.64    2643.30 
   2655.00      23.53      365.5       10.6        144       3323    9197.85    1071.28       0.69    2643.78 
   2655.50      37.20      365.2       10.8        144       3322    9005.68    1071.40       0.63    2644.26 
   2656.00      51.95      365.3       10.8        144       3319    9212.51    1071.38       0.58    2644.74 
   2656.50      41.66      365.4       10.7        145       3320    8678.18    1071.40       0.61    2645.22 
   2657.00      38.72      365.5       10.6        145       3319    8574.54    1071.65       0.62    2645.70 
   2657.50      35.74      365.6       10.4        146       3322    8401.09    1071.40       0.63    2646.18 
   2658.00      34.35      365.8       10.3        146       3316    8351.75    1071.58       0.63    2646.66 
   2658.50      31.07      365.8       10.3        145       3317    8563.95    1071.50       0.65    2647.14 
   2659.00      36.45      365.8       10.2        146       3313    8460.63    1071.66       0.62    2647.63 
   2659.50      26.03      365.8       10.3        148       3304    7689.67    1070.82       0.68    2648.11 
   2660.00       1.81      366.8        9.3        155       3100    5022.72    1037.44       1.07    2648.59 
   2660.50      21.37      367.2        8.9        150       3276    6592.06    1073.08       0.69    2649.07 
   2661.00      28.47      367.0        9.1        148       3283    7646.63    1073.07       0.65    2649.55 
   2661.50      29.28      367.1        9.0        148       3282    7775.28    1073.08       0.64    2650.03 
   2662.00      32.61      366.7        9.4        147       3285    7951.61    1072.90       0.63    2650.51 
   2662.50      32.55      366.7        9.4        148       3279    7656.97    1072.86       0.63    2650.99 
   2663.00      30.27      366.7        9.4        148       3289    7621.14    1072.89       0.64    2651.47 
   2663.50      24.46      366.4        9.7        147       3288    8137.29    1072.78       0.68    2651.95 
   2664.00      35.75      366.1       10.0        146       3287    8355.18    1072.85       0.62    2652.43 
   2664.50      35.74      366.1       10.0        146       3294    8484.16    1072.79       0.62    2652.91 
   2665.00      34.35      366.2        9.9        145       3297    8556.42    1072.73       0.63    2653.40 
   2665.50      28.93      366.2        9.9        146       3297    8265.58    1072.51       0.65    2653.88 
   2666.00      34.46      366.3        9.8        146       3300    8350.48    1072.47       0.63    2654.36 
   2666.50      33.07      366.3        9.8        146       3298    8312.88    1072.38       0.63    2654.84 
   2667.00      33.70      366.3        9.8        146       3298    8235.34    1072.26       0.63    2655.32 
   2667.50      37.09      366.3        9.8        147       3303    8258.67    1072.28       0.62    2655.80 
   2668.00      32.40      366.3        9.7        147       3307    7764.00    1072.31       0.64    2656.28 
   2668.50      32.16      366.3        9.8        147       3301    7820.09    1072.32       0.64    2656.76 
