~VERSION INFORMATION
VERS.    2.0:   CWLS LOG ASCII STANDARD - VERSION 2.0
WRAP.     NO:   ONE LINE PER STEP
~WELL INFORMATION BLOCK
#MNEM.UNIT      DATA                  DESCRIPTION OF MNEMONIC
#----   --------             ---------------
STRT.m  260.00                   :START DEPTH
STOP.m  5363.00                   :STOP DEPTH
STEP.m  0.50                   :STEP VALUE
NULL.   0                   :NULL VALUE
COMP.   SHELL                   :COMPANY NAME
WELL.   PRELUDE P7                   :WELL NAME
FLD .   PRELUDE                   :FIELD NAME
LOC .                      :LOCATION
PROV.   PRELUDE                   :PROVINCE
SRVC.   Geoservices                   :SERVICE COMPANY NAME
DATE.   06-20-2015 21:16:03                   :DATE
UWI .                      :UNIQUE WELL IDENTIFIER
~CURVE INFORMATION
#MNEM.UNIT       API CODE        CURVE DESCRIPTION
#----   -------- ------------------
Tot Depth .m        :Tot Depth
ROP m/hr .m/h        :ROP m/hr
WOH .klbs        :WOH
WOB .klbs        :WOB
RPM .rpm        :RPM
SPP .psi        :SPP
TORQUE .lb*ft        :TORQUE
FLWpmps .gpm        :FLWpmps
D Exp .....        :D Exp
TVD Depth .m        :TVD Depth
#
#-----------------------------------------------------------
# Tot Depth (m)   ROP m/hr (m/h)   WOH (klbs)   WOB (klbs)   RPM (rpm)   SPP (psi)   TORQUE (lb*ft)   FLWpmps (gpm)   D Exp (....)   TVD Depth (m)
#-----------------------------------------------------------
~A
# ...
   1282.00      43.75      372.8        2.3        166       1544    3578.34    1146.30       0.52    1281.97 
   1282.50      45.79      368.0        7.0        164       1556    4738.03    1145.38       0.61    1282.47 
   1283.00      45.56      368.1        7.0        160       1568    8928.79    1145.47       0.61    1282.97 
   1283.50      44.45      371.0        4.0        162       1563    7653.16    1145.86       0.56    1283.47 
   1284.00      43.40      373.0        2.0        161       1602    8258.41    1143.96       0.51    1283.97 
   1284.50      41.31      369.4        5.6        166       1586    4274.41    1144.81       0.61    1284.47 
   1285.00      44.64      366.8        8.3        166       1558    3363.53    1146.02       0.64    1284.97 
   1285.50      47.11      369.9        5.3        163       1589    3968.47    1144.75       0.58    1285.47 
   1286.00      47.59      371.9        3.5        160       1557    5393.83    1146.00       0.54    1285.97 
   1286.50      43.08      370.3        4.8        163       1560    3215.54    1146.05       0.58    1286.47 
   1287.00      46.72      374.9        1.3        163       1564    3356.21    1145.78       0.47    1286.97 
   1287.50      46.04      377.8        0.4        162       1567    3257.65    1145.79       0.41    1287.47 
   1288.00      45.35      375.5        5.2        163       1559    3157.84    1146.11       0.58    1287.97 
   1288.50      45.13      377.0        3.6        163       1556    2918.99    1146.26       0.55    1288.47 
   1289.00      46.72      373.5        7.2        163       1562    3120.92    1145.72       0.61    1288.97 
   1289.50      44.65      375.2        5.6        163       1565    3323.58    1145.92       0.59    1289.47 
   1290.00      46.72      379.3        2.5        162       1565    3710.27    1146.06       0.51    1289.97 
   1290.50      43.75      376.5        5.5        160       1562    6152.54    1145.97       0.59    1290.47 
   1291.00      48.00      376.0        6.1        163       1560    3235.85    1146.03       0.59    1290.97 
   1291.50      41.92      376.7        5.3        164       1560    2704.01    1146.22       0.60    1291.47 
   1292.00      55.73      377.8        4.2        163       1569    3274.54    1146.11       0.53    1291.97 
   1292.50      52.76      379.7        2.4        164       1592    3769.99    1144.71       0.49    1292.47 
   1293.00      35.12      378.1        3.9        164       1584    3376.25    1144.86       0.59    1292.97 
   1293.50      46.74      376.2        5.9        164       1570    3762.02    1145.57       0.59    1293.47 
   1294.00      51.00      373.0        9.0        164       1575    3954.94    1145.68       0.62    1293.97 
   1294.50      46.84      372.5        9.5        164       1590    3547.64    1145.10       0.64    1294.47 
   1295.00      43.36      376.2        5.9        163       1590    4020.51    1144.37       0.60    1294.97 
   1295.50      45.79      376.8        5.3        163       1575    3736.42    1144.98       0.58    1295.47 
   1296.00      41.66      380.4        1.7        165       1564    2788.54    1145.44       0.50    1295.97 
   1296.50      47.93      382.6        0.3        165       1577    3312.04    1145.07       0.39    1296.47 
   1297.00      59.57      380.2        2.0        165       1582    3366.50    1144.59       0.47    1296.97 
   1297.50      34.24      382.8        1.2        164       1586    3367.44    1144.47       0.50    1297.47 
   1298.00      57.58      381.6        3.7        163       1594    3909.61    1144.26       0.52    1297.97 
   1298.50      37.88      381.3        4.1        163       1590    3989.96    1144.30       0.59    1298.47 
   1299.00      43.20      382.8        3.4        164       1591    3520.68    1144.37       0.55    1298.97 
   1299.50      40.79      380.2        5.2        164       1570    3246.07    1145.22       0.60    1299.47 
   1300.00      50.44      380.6        4.8        163       1585    3948.59    1144.66       0.56    1299.97 
   1300.50      40.59      376.5        8.8        164       1599    3366.67    1143.78       0.66    1300.47 
   1301.00      60.27      379.1        6.2        163       1585    5285.64    1144.49       0.55    1300.97 
   1301.50      41.40      373.4        5.0        163       1603    3982.27    1143.65       0.59    1301.47 
   1302.00      38.82      375.4        6.5        164       1589    3814.88    1143.88       0.63    1301.97 
   1302.50      46.66      374.7        4.2        163       1586    4301.99    1143.96       0.56    1302.47 
   1303.00      66.77      372.2        3.9        162       1577    4701.43    1144.45       0.50    1302.97 
   1303.50      36.45      376.7        5.4        164       1608    3302.83    1143.38       0.62    1303.47 
   1304.00      52.49      372.2        6.1        164       1574    3725.85    1144.71       0.57    1303.97 
   1304.50      42.10      365.6        7.7        164       1590    3341.96    1144.18       0.64    1304.47 
   1305.00      43.40      370.8        7.5        162       1577    4880.25    1144.39       0.62    1304.97 
   1305.50      46.72      372.6        5.7        164       1585    2865.30    1144.32       0.59    1305.47 
   1306.00      42.78      372.7        5.6        164       1581    3446.49    1144.37       0.60    1305.97 
   1306.50      49.58      368.9        9.4        164       1590    3349.19    1144.01       0.63    1306.47 
   1307.00      41.11      372.3        6.0        164       1590    3150.68    1144.17       0.61    1306.97 
   1307.50      41.21      372.2        6.8        164       1579    3808.02    1144.63       0.62    1307.47 
   1308.00      18.97      376.7        3.6        163       1579    4852.52    1145.87       0.67    1307.97 
   1308.50      51.61      371.9        9.2        163       1599    3305.56    1144.63       0.62    1308.47 
   1309.00      37.99      369.8       11.3        164       1596    2869.76    1143.80       0.70    1308.97 
   1309.50      48.92      370.8       10.2        163       1586    3909.84    1144.39       0.64    1309.47 
   1310.00      44.87      373.0        8.1        162       1579    4124.12    1145.17       0.63    1309.97 
   1310.50      42.33      372.0        9.1        163       1595    3573.48    1144.10       0.65    1310.47 
   1311.00      68.95      371.3        9.8        163       1603    3647.17    1143.99       0.58    1310.97 
   1311.50      42.37      374.0        7.1        164       1601    3399.74    1143.55       0.62    1311.47 
   1312.00      39.63      368.8       12.3        164       1603    3928.93    1144.09       0.70    1311.97 
   1312.50      40.33      371.5        9.6        164       1595    3144.42    1144.41       0.67    1312.47 
   1313.00      45.56      372.1        9.0        163       1592    3746.38    1144.67       0.64    1312.97 
   1313.50      50.38      370.7       10.3        163       1593    3947.54    1144.27       0.64    1313.47 
   1314.00      47.99      368.4       12.7        163       1605    3863.63    1143.55       0.67    1313.97 
   1314.50      43.06      370.6       10.5        163       1599    3500.08    1143.66       0.67    1314.47 
   1315.00      57.83      373.0        8.1        159       1595    5436.89    1143.78       0.58    1314.97 
   1315.50      39.48      371.4        9.7        163       1627    5254.43    1142.45       0.67    1315.47 
   1316.00      41.00      368.5        9.7        164       1595    3040.86    1143.20       0.66    1315.97 
   1316.50      42.68      369.1        9.1        163       1593    3364.93    1143.75       0.65    1316.47 
   1317.00      57.86      371.4        6.8        163       1591    3518.21    1143.42       0.57    1316.97 
   1317.50      40.87      373.0        5.2        163       1607    4157.66    1142.81       0.59    1317.47 
   1318.00      43.38      374.6        3.6        163       1593    3777.51    1143.74       0.55    1317.97 
