~VERSION INFORMATION
VERS.    2.0:   CWLS LOG ASCII STANDARD - VERSION 2.0
WRAP.     NO:   ONE LINE PER STEP
~WELL INFORMATION BLOCK
#MNEM.UNIT      DATA                  DESCRIPTION OF MNEMONIC
#----   --------             ---------------
STRT.m  260.00                   :START DEPTH
STOP.m  5363.00                   :STOP DEPTH
STEP.m  0.50                   :STEP VALUE
NULL.   0                   :NULL VALUE
COMP.   SHELL                   :COMPANY NAME
WELL.   PRELUDE P7                   :WELL NAME
FLD .   PRELUDE                   :FIELD NAME
LOC .                      :LOCATION
PROV.   PRELUDE                   :PROVINCE
SRVC.   Geoservices                   :SERVICE COMPANY NAME
DATE.   06-20-2015 21:16:03                   :DATE
UWI .                      :UNIQUE WELL IDENTIFIER
~CURVE INFORMATION
#MNEM.UNIT       API CODE        CURVE DESCRIPTION
#----   -------- ------------------
Tot Depth .m        :Tot Depth
ROP m/hr .m/h        :ROP m/hr
WOH .klbs        :WOH
WOB .klbs        :WOB
RPM .rpm        :RPM
SPP .psi        :SPP
TORQUE .lb*ft        :TORQUE
FLWpmps .gpm        :FLWpmps
D Exp .....        :D Exp
TVD Depth .m        :TVD Depth
#
#-----------------------------------------------------------
# Tot Depth (m)   ROP m/hr (m/h)   WOH (klbs)   WOB (klbs)   RPM (rpm)   SPP (psi)   TORQUE (lb*ft)   FLWpmps (gpm)   D Exp (....)   TVD Depth (m)
#-----------------------------------------------------------
~A
# ...
   2304.00      16.42      449.0        5.3        160       1988    9106.29    1037.23       0.84    2299.45 
   2304.50      12.38      448.3        5.0        160       2019   10077.37    1034.79       0.88    2299.94 
   2305.00       8.12      451.5        4.9        158       1949    8802.41    1031.51       0.94    2300.43 
   2305.50      14.37      458.1        1.4        157       1944   10092.26    1017.53       0.70    2300.93 
   2306.00      21.61      458.3        1.1        157       1983   10888.33    1014.23       0.62    2301.42 
   2306.50      14.56      457.7        2.2        157       2000   11692.39    1012.98       0.74    2301.91 
   2307.00      21.29      457.7        1.3        157       2075   13790.05    1006.72       0.64    2302.40 
   2307.50       8.36      460.1        2.2        157       1865    8344.20    1021.07       0.82    2302.90 
   2308.00      12.55      461.3        1.4        157       1880    8785.31    1021.34       0.71    2303.39 
   2308.50      11.91      463.4        1.3        157       1911    9276.22    1019.03       0.71    2303.88 
   2309.00      12.40      463.4        2.5        157       1945   10017.19    1016.37       0.78    2304.37 
   2309.50      16.68      464.0        1.9        157       1956   10340.60    1015.56       0.70    2304.87 
   2310.00      17.20      465.1        1.1        157       1955   10443.49    1016.26       0.65    2305.36 
   2310.50      19.58      465.7        1.3        156       1991   11923.19    1013.90       0.65    2305.85 
   2311.00      15.32      464.3        2.6        156       1995   11938.93    1013.47       0.75    2306.34 
   2311.50      19.18      465.3        1.6        156       2015   12914.49    1012.55       0.67    2306.84 
   2312.00      14.22      465.4        1.5        156       2009   12129.19    1013.15       0.71    2307.33 
   2312.50      16.50      465.8        1.1        156       2036   12391.64    1010.67       0.65    2307.82 
   2313.00      14.94      465.8        1.1        156       2050   12542.27    1009.54       0.67    2308.31 
   2313.50      10.72      471.2        1.3        145       1674    9558.76     879.99       0.72    2308.81 
   2314.00      21.52      479.1        1.8        152       1897   12600.96     970.60       0.66    2309.30 
   2314.50      22.50      480.7        2.3        152       1898   13032.85     970.41       0.68    2309.79 
   2315.00      20.07      478.2        2.0        152       1905   12731.46     969.59       0.68    2310.28 
   2315.50      12.00      476.2        4.8        152       1918   12479.01     968.59       0.87    2310.78 
   2316.00      15.11      479.2        1.9        151       1934   12829.69     967.10       0.72    2311.27 
   2316.50      15.38      478.3        2.7        151       1966   12429.31     964.49       0.75    2311.76 
   2317.00      12.96      475.3        5.8        153       1781    9195.05     979.63       0.89    2312.25 
   2317.50      12.23      477.7        3.7        153       1864   12039.80     975.30       0.83    2312.75 
   2318.00      28.91      479.8        1.4        152       1955   13507.10     968.38       0.60    2313.24 
   2318.50      16.17      480.9        1.5        151       1990   14474.14     964.55       0.68    2313.73 
   2319.00      11.58      480.3        1.2        151       1919   10150.48     967.00       0.71    2314.22 
   2319.50      14.90      483.6        0.5        152       1877   11658.54     971.52       0.60    2314.72 
   2320.00      16.62      476.0        7.7        151       1939   12886.78     966.58       0.89    2315.21 
   2320.50      16.72      475.4        8.3        151       1989   14050.76     962.87       0.90    2315.70 
   2321.00       7.94      478.6        5.7        152       1811    8802.64     975.37       0.97    2316.19 
   2321.50      14.87      484.9        2.5        152       1838   10751.13     973.75       0.76    2316.69 
   2322.00      14.85      481.9        6.4        152       1846   10922.47     973.52       0.88    2317.18 
   2322.50      11.02      472.0       16.3        151       1930   12939.48     967.84       1.13    2317.67 
   2323.00      11.27      474.5       13.8        152       1832   11113.81     975.04       1.09    2318.16 
   2323.50      15.98      472.7       15.6        152       1870   12412.74     974.56       1.04    2318.66 
   2324.00      10.85      472.4       15.9        152       1851   11555.68     973.90       1.13    2319.15 
   2324.50      10.35      473.0       15.4        152       1868   11461.00     971.94       1.12    2319.64 
   2325.00      16.08      472.2       16.1        152       1901   12208.64     969.56       1.05    2320.13 
   2325.50      13.97      468.8       19.5        152       1893   11944.41     969.78       1.12    2320.63 
   2326.00      13.35      470.5       17.8        152       1902   12324.29     969.28       1.11    2321.12 
   2326.50       9.86      473.3       15.0        152       1897   12079.20     969.27       1.13    2321.61 
   2327.00       9.60      473.9       14.5        152       1888   11685.16     970.06       1.13    2322.10 
   2327.50      16.16      478.4        9.9        152       1901   11988.58     969.43       0.94    2322.60 
   2328.00      13.03      476.6       11.7        152       1907   12671.47     968.49       1.02    2323.09 
   2328.50       9.19      476.0       12.3        152       1832   10751.86     974.20       1.10    2323.58 
   2329.00      12.59      480.8        7.5        152       1861   11382.36     972.32       0.94    2324.08 
   2329.50      14.81      474.3       14.0        152       1847   11504.75     973.32       1.03    2324.57 
   2330.00      10.84      476.5       11.8        152       1825   10529.35     974.51       1.06    2325.06 
   2330.50      13.87      478.7        9.6        152       1850   11296.72     973.22       0.97    2325.55 
   2331.00      12.89      476.4       11.9        152       1834   10943.86     974.66       1.02    2326.05 
   2331.50      14.40      475.0       13.3        152       1830   11673.69     976.06       1.03    2326.54 
   2332.00      18.02      474.5       13.9        152       1893   12867.92     971.71       0.99    2327.03 
   2332.50      15.44      470.5       17.8        151       1935   13426.24     967.75       1.08    2327.52 
   2333.00      16.22      468.3       20.0        151       1981   13970.36     964.82       1.10    2328.02 
   2333.50      13.30      465.3       23.0        151       1946   13080.06     965.90       1.18    2328.51 
   2334.00      14.58      467.2       21.1        152       1924   12636.61     967.94       1.13    2329.00 
   2334.50      14.13      472.9       15.4        152       1914   12336.48     967.98       1.06    2329.49 
   2335.00      11.69      478.6        9.8        152       1861   10807.73     971.79       1.00    2329.98 
   2335.50       9.39      483.0        5.3        168       1759    8733.43     979.29       0.95    2330.48 
   2336.00       9.21      483.6        4.7        167       1867   10632.07     970.56       0.93    2330.97 
   2336.50       6.80      483.2        5.6        167       1792    9072.67     974.10       1.01    2331.46 
   2337.00      18.41      476.5        8.9        166       1883   13080.68     956.39       0.92    2331.95 
   2337.50      23.33      476.0        7.9        167       1953   14509.37     948.82       0.85    2332.44 
   2338.00      18.05      475.3        9.2        166       1942   15346.26     949.19       0.93    2332.94 
   2338.50       7.36      473.4       12.1        166       1707    8620.75     968.00       1.15    2333.43 
   2339.00      14.18      470.1       15.4        151       1808   11237.90     961.67       1.06    2333.92 
   2339.50      17.91      468.0       17.5        150       1870   12302.36     956.27       1.04    2334.41 
   2340.00      18.01      467.2        6.7        150       1899   12535.14     954.23       0.85    2334.90 
