~VERSION INFORMATION
VERS.    2.0:   CWLS LOG ASCII STANDARD - VERSION 2.0
WRAP.     NO:   ONE LINE PER STEP
~WELL INFORMATION BLOCK
#MNEM.UNIT      DATA                  DESCRIPTION OF MNEMONIC
#----   --------             ---------------
STRT.m  260.00                   :START DEPTH
STOP.m  5363.00                   :STOP DEPTH
STEP.m  0.50                   :STEP VALUE
NULL.   0                   :NULL VALUE
COMP.   SHELL                   :COMPANY NAME
WELL.   PRELUDE P7                   :WELL NAME
FLD .   PRELUDE                   :FIELD NAME
LOC .                      :LOCATION
PROV.   PRELUDE                   :PROVINCE
SRVC.   Geoservices                   :SERVICE COMPANY NAME
DATE.   06-20-2015 21:16:03                   :DATE
UWI .                      :UNIQUE WELL IDENTIFIER
~CURVE INFORMATION
#MNEM.UNIT       API CODE        CURVE DESCRIPTION
#----   -------- ------------------
Tot Depth .m        :Tot Depth
ROP m/hr .m/h        :ROP m/hr
WOH .klbs        :WOH
WOB .klbs        :WOB
RPM .rpm        :RPM
SPP .psi        :SPP
TORQUE .lb*ft        :TORQUE
FLWpmps .gpm        :FLWpmps
D Exp .....        :D Exp
TVD Depth .m        :TVD Depth
#
#-----------------------------------------------------------
# Tot Depth (m)   ROP m/hr (m/h)   WOH (klbs)   WOB (klbs)   RPM (rpm)   SPP (psi)   TORQUE (lb*ft)   FLWpmps (gpm)   D Exp (....)   TVD Depth (m)
#-----------------------------------------------------------
~A
# ...
   5005.00       5.00      497.3       13.4        132       1754   18404.73     368.81       1.31    4073.78 
   5005.50       5.39      522.0       12.9        130       1760   17586.91     369.07       1.28    4073.83 
   5006.00       5.67      519.4       15.4        130       1758   17696.29     369.09       1.33    4073.88 
   5006.50       6.38      520.7       19.1        131       1758   18203.81     369.07       1.38    4073.92 
   5007.00       9.09      521.4       18.4        131       1755   18275.79     369.12       1.28    4073.97 
   5007.50       7.24      456.2       22.5        130       1756   18749.51     369.14       1.41    4074.02 
   5008.00       7.13      438.2       19.5        130       1757   18902.48     369.18       1.36    4074.07 
   5008.50       4.24      438.8       18.9        133       1753   18394.05     369.32       1.47    4074.12 
   5009.00       3.92      440.7       17.0        136       1755   18010.46     369.36       1.46    4074.17 
   5009.50       5.59      441.3       18.4        136       1753   17868.23     369.44       1.41    4074.21 
   5010.00       5.97      441.2       19.2        135       1752   17918.24     368.68       1.40    4074.26 
   5010.50       3.29      441.8       18.7        135       1661   18033.26     357.79       1.53    4074.31 
   5011.00       4.50      442.1       18.3        134       1703   18409.48     361.98       1.45    4074.36 
   5011.50       6.73      441.8       18.6        134       1632   18314.93     355.66       1.36    4074.40 
   5012.00       7.55      442.3       18.1        133       1739   18927.60     369.64       1.32    4074.45 
   5012.50       3.56      443.3       17.1        134       1646   18201.01     357.08       1.48    4074.50 
   5013.00       9.12      481.4       10.7        131       1744   17817.32     369.53       1.12    4074.55 
   5013.50       9.59      489.3       10.8        128       1744   19272.59     369.50       1.10    4074.59 
   5014.00      10.05      489.1       11.0        127       1743   19321.89     369.49       1.10    4074.64 
   5014.50      11.47      489.8       15.6        126       1741   19895.46     369.54       1.17    4074.69 
   5015.00       9.36      485.3       20.1        127       1739   19528.00     369.64       1.30    4074.74 
   5015.50      10.19      485.1       20.3        127       1738   19477.95     369.63       1.28    4074.78 
   5016.00      11.32      482.5       22.9        127       1738   19681.13     369.63       1.30    4074.83 
   5016.50       9.08      483.2       22.2        127       1739   19735.51     369.54       1.34    4074.88 
   5017.00      15.21      486.6       18.8        129       1736   20716.22     369.61       1.16    4074.93 
   5017.50      10.34      486.6       18.7        136       1742   20497.44     369.47       1.27    4074.97 
   5018.00      10.34      486.5       18.9        138       1745   20273.65     369.41       1.27    4075.02 
   5018.50      12.27      487.1       18.3        139       1743   19877.72     369.44       1.22    4075.07 
   5019.00       8.21      486.4       19.0        139       1745   19772.66     369.39       1.33    4075.12 
   5019.50       8.98      486.5       18.9        139       1746   19736.56     369.39       1.31    4075.16 
   5020.00      11.03      485.9       19.5        139       1749   19632.12     369.28       1.27    4075.21 
   5020.50      10.04      487.3       18.6        139       1748   19719.81     369.28       1.28    4075.26 
   5021.00       9.75      485.5       19.9        138       1750   19828.56     369.25       1.31    4075.30 
   5021.50       9.60      484.9       20.4        138       1754   19930.99     369.19       1.32    4075.35 
   5022.00      11.40      485.3       20.0        138       1755   20399.05     369.14       1.27    4075.40 
   5022.50      11.21      485.0       20.4        138       1756   20260.10     369.10       1.28    4075.45 
   5023.00      10.17      487.6       17.8        138       1765   20488.22     368.95       1.25    4075.49 
   5023.50       4.60      487.0       18.4        139       1666   19552.74     355.30       1.45    4075.54 
   5024.00       5.81      488.1       17.3        141       1754   18815.36     368.74       1.38    4075.59 
   5024.50       6.34      485.4       20.0        141       1755   18826.71     368.76       1.41    4075.64 
   5025.00       8.55      484.6       20.8        138       1754   19036.06     368.75       1.35    4075.68 
   5025.50       9.39      487.9       17.5        136       1745   19412.65     368.95       1.26    4075.73 
   5026.00       9.86      487.8       17.6        136       1744   19609.24     368.95       1.25    4075.78 
   5026.50      10.10      488.6       16.8        135       1743   20035.61     369.05       1.23    4075.83 
   5027.00       9.79      487.5       17.9        135       1739   19925.13     369.10       1.26    4075.87 
   5027.50      10.94      488.1       17.3        135       1739   19863.26     369.14       1.22    4075.92 
   5028.00       9.83      487.8       17.5        136       1736   19753.82     369.16       1.25    4075.97 
   5028.50       8.69      490.6       15.1        136       1736   19644.05     369.16       1.23    4076.02 
   5029.00      11.44      488.1       17.3        136       1737   19797.45     369.12       1.21    4076.06 
   5029.50       9.97      486.9       18.5        136       1738   19762.58     369.04       1.27    4076.11 
   5030.00      11.19      487.2       18.2        135       1739   19969.79     369.08       1.23    4076.16 
   5030.50      12.58      488.0       17.4        135       1739   19851.77     369.02       1.19    4076.21 
   5031.00      10.11      487.3       18.1        135       1741   20317.02     368.99       1.25    4076.25 
   5031.50       5.73      489.8       16.5        132       1744   18309.10     369.70       1.35    4076.30 
   5032.00       8.12      490.3       13.3        127       1736   18043.29     370.51       1.19    4076.35 
   5032.50      10.68      474.6       21.1        125       1735   19210.26     370.53       1.27    4076.40 
   5033.00       9.90      468.9       22.5        135       1739   20578.73     370.53       1.34    4076.44 
   5033.50      10.08      466.8       17.6        136       1738   20199.86     370.56       1.24    4076.49 
   5034.00       9.99      470.9       13.5        136       1734   20310.06     370.56       1.16    4076.54 
   5034.50       9.25      471.6       12.8        136       1731   20085.64     370.55       1.16    4076.58 
   5035.00       8.80      469.6       14.7        137       1733   19894.53     370.52       1.22    4076.63 
   5035.50       8.36      471.0       13.3        137       1734   19941.79     370.49       1.20    4076.68 
   5036.00       8.89      475.4       11.1        137       1734   19707.70     370.44       1.13    4076.73 
   5036.50       8.64      477.1       16.0        137       1737   20075.22     370.41       1.25    4076.77 
   5037.00       8.86      476.8       18.1        137       1741   19923.20     370.31       1.28    4076.82 
   5037.50       8.26      473.7       21.2        137       1743   19382.14     370.24       1.36    4076.87 
   5038.00       8.93      475.2       19.7        136       1747   19923.63     370.06       1.31    4076.92 
   5038.50       6.12      440.4       21.1        137       1691   19718.55     359.87       1.43    4076.96 
   5039.00       8.60      472.1       22.5        137       1622   19552.49     352.51       1.37    4077.01 
   5039.50       9.19      486.5       14.0        138       1748   19533.37     368.73       1.19    4077.06 
   5040.00       6.85      486.0       20.6        136       1737   19294.54     366.70       1.39    4077.11 
   5040.50       9.45      486.9       19.7        132       1714   19478.10     363.69       1.29    4077.15 
   5041.00       8.93      487.4       19.2        132       1712   19811.57     363.70       1.30    4077.20 
