~VERSION INFORMATION
VERS.    2.0:   CWLS LOG ASCII STANDARD - VERSION 2.0
WRAP.     NO:   ONE LINE PER STEP
~WELL INFORMATION BLOCK
#MNEM.UNIT      DATA                  DESCRIPTION OF MNEMONIC
#----   --------             ---------------
STRT.m  260.00                   :START DEPTH
STOP.m  5363.00                   :STOP DEPTH
STEP.m  0.50                   :STEP VALUE
NULL.   0                   :NULL VALUE
COMP.   SHELL                   :COMPANY NAME
WELL.   PRELUDE P7                   :WELL NAME
FLD .   PRELUDE                   :FIELD NAME
LOC .                      :LOCATION
PROV.   PRELUDE                   :PROVINCE
SRVC.   Geoservices                   :SERVICE COMPANY NAME
DATE.   06-20-2015 21:16:03                   :DATE
UWI .                      :UNIQUE WELL IDENTIFIER
~CURVE INFORMATION
#MNEM.UNIT       API CODE        CURVE DESCRIPTION
#----   -------- ------------------
Tot Depth .m        :Tot Depth
ROP m/hr .m/h        :ROP m/hr
WOH .klbs        :WOH
WOB .klbs        :WOB
RPM .rpm        :RPM
SPP .psi        :SPP
TORQUE .lb*ft        :TORQUE
FLWpmps .gpm        :FLWpmps
D Exp .....        :D Exp
TVD Depth .m        :TVD Depth
#
#-----------------------------------------------------------
# Tot Depth (m)   ROP m/hr (m/h)   WOH (klbs)   WOB (klbs)   RPM (rpm)   SPP (psi)   TORQUE (lb*ft)   FLWpmps (gpm)   D Exp (....)   TVD Depth (m)
#-----------------------------------------------------------
~A
# ...
   1610.50      49.31      393.2        0.4        178       2140    2753.47    1076.27       0.46    1610.45 
   1611.00      47.96      393.4        0.5        178       2146    3171.73    1075.54       0.48    1610.95 
   1611.50      51.92      392.9        0.3        178       2125    2061.11    1077.14       0.44    1611.45 
   1612.00      51.79      392.9        0.4        178       2134    2859.84    1076.45       0.46    1611.95 
   1612.50      50.24      394.4        0.6        178       2131    3551.64    1077.36       0.48    1612.45 
   1613.00      48.60      392.9        0.5        179       2098    4403.23    1079.61       0.48    1612.95 
   1613.50      50.37      385.3        0.4        179       2113    4546.72    1078.78       0.46    1613.45 
   1614.00      49.26      387.4        0.8        179       2095    3429.73    1080.00       0.51    1613.95 
   1614.50      50.63      387.9        1.0        179       2075    3867.43    1080.99       0.52    1614.45 
   1615.00      53.12      388.3        0.9        179       2064    3053.57    1082.55       0.51    1614.95 
   1615.50      47.00      388.7        0.7        179       2046    3298.16    1083.68       0.50    1615.45 
   1616.00      50.63      387.0        0.8        179       2054    2726.74    1083.41       0.50    1615.95 
   1616.50      51.02      385.8        1.2        179       2064    3417.58    1082.92       0.53    1616.45 
   1617.00      47.96      384.3        2.6        179       2040    3541.33    1084.22       0.61    1616.95 
   1617.50      52.07      384.5        2.5        179       2038    4314.93    1084.99       0.59    1617.45 
   1618.00      49.20      383.9        3.1        179       2022    3747.21    1085.82       0.62    1617.95 
   1618.50      49.32      388.5        0.0        179       2023    3629.65    1085.79       0.34    1618.45 
   1619.00      52.07      389.0        0.1        179       2055    3983.10    1084.51       0.40    1618.95 
   1619.50      48.92      390.1        0.5        179       2009    3478.16    1086.49       0.48    1619.45 
   1620.00      51.02      388.2        0.9        180       2015    3411.78    1087.07       0.51    1619.95 
   1620.50      47.97      386.6        1.5        179       2030    3756.32    1085.87       0.56    1620.45 
   1621.00      52.06      389.8        5.0        180       2011    3320.91    1086.58       0.66    1620.95 
   1621.50      19.99      387.9        7.2        180       2011    3396.81    1086.87       0.87    1621.45 
   1622.00      42.51      388.5        6.7        180       2010    3287.26    1086.96       0.73    1621.95 
   1622.50      18.91      393.3        2.7        179       2031    3292.95    1085.44       0.74    1622.45 
   1623.00      41.21      394.0        3.4        179       2045    3350.98    1084.51       0.66    1622.95 
   1623.50      43.92      394.8        1.3        179       2054    3383.76    1083.71       0.56    1623.45 
   1624.00      46.47      388.6        7.3        179       2060    3781.99    1083.38       0.73    1623.95 
   1624.50      54.16      389.7        6.1        179       2083    4390.06    1081.97       0.68    1624.45 
   1625.00      47.96      388.8        7.0        179       2055    3479.56    1082.78       0.72    1624.95 
   1625.50      50.24      389.9        6.0        179       2054    4255.29    1083.28       0.69    1625.45 
   1626.00      53.53      389.7        6.2        179       2074    4097.43    1082.26       0.68    1625.95 
   1626.50      47.39      392.3        3.5        179       2049    5018.86    1083.57       0.64    1626.45 
   1627.00      51.90      394.9        1.0        179       2046    4952.59    1083.83       0.51    1626.95 
   1627.50      48.38      393.0        2.8        179       2065    4434.12    1082.30       0.62    1627.45 
   1628.00      52.07      395.4        0.9        179       2071    4716.72    1082.33       0.51    1627.95 
   1628.50      54.68      391.7        4.1        179       2074    4702.26    1081.72       0.63    1628.45 
   1629.00      46.73      395.8        0.8        179       2070    4319.02    1081.80       0.51    1628.95 
   1629.50      56.70      397.3        0.4        179       2067    2986.37    1082.09       0.45    1629.45 
   1630.00      45.56      397.9        0.5        179       2084    4029.32    1081.03       0.49    1629.95 
   1630.50      51.91      394.8        1.1        179       2064    3819.41    1082.19       0.53    1630.45 
   1631.00      50.63      397.9        0.8        179       2062    4497.15    1082.38       0.51    1630.95 
   1631.50      51.23      395.9        1.2        179       2068    4166.08    1082.62       0.54    1631.45 
   1632.00      49.61      399.0        0.6        179       2079    4033.79    1081.75       0.49    1631.95 
   1632.50      49.88      395.3        2.2        179       2090    3729.25    1080.79       0.59    1632.45 
   1633.00      52.06      383.4       12.4        179       2082    3121.82    1081.19       0.79    1632.95 
   1633.50      52.65      383.4       12.5        179       2075    3410.47    1081.60       0.79    1633.45 
   1634.00      48.27      387.9        8.0        179       2070    3614.50    1081.64       0.74    1633.95 
   1634.50      52.38      388.8        7.1        179       2082    3371.23    1081.02       0.71    1634.45 
   1635.00      47.97      391.5        4.4        179       2080    3251.94    1080.99       0.66    1634.95 
   1635.50      50.24      388.0        7.8        179       2071    3713.98    1081.48       0.73    1635.45 
   1636.00      54.67      388.1        7.7        179       2080    3736.77    1081.08       0.71    1635.95 
   1636.50      46.73      391.0        4.8        179       2068    2939.46    1081.41       0.68    1636.45 
   1637.00      54.68      394.1        1.7        179       2081    3666.39    1081.24       0.56    1636.95 
   1637.50      47.96      391.4        4.4        179       2078    3963.66    1081.01       0.66    1637.45 
   1638.00      52.54      391.7        4.2        179       2084    4299.50    1080.82       0.64    1637.95 
   1638.50      52.54      391.7        4.2        179       2084    4299.50    1080.82       0.64    1638.45 
   1639.00      51.21      390.4        5.4        179       2088    4015.48    1080.72       0.68    1638.95 
   1639.50      50.39      385.7       10.1        179       2100    3857.97    1080.26       0.77    1639.45 
   1640.00      49.88      382.7       13.2        179       2100    3026.13    1079.30       0.81    1639.95 
   1640.50      52.06      387.2        8.7        179       2104    3232.54    1078.88       0.74    1640.45 
   1641.00      47.96      385.8       10.1        179       2102    2839.79    1079.08       0.78    1640.95 
   1641.50      54.11      384.0       11.8        179       2109    3042.91    1078.72       0.78    1641.45 
   1642.00      46.99      386.4        9.4        179       2119    3802.10    1077.72       0.77    1641.95 
   1642.50      53.58      386.7        9.2        178       2121    4924.31    1076.98       0.74    1642.45 
   1643.00      52.07      388.2        7.6        179       2121    3603.53    1077.16       0.72    1642.95 
   1643.50      45.56      388.1        7.7        178       2137    4565.63    1076.28       0.75    1643.45 
   1644.00      53.10      389.4        6.4        178       2131    4548.57    1076.44       0.70    1643.95 
   1644.50      51.64      392.5        3.4        178       2144    4414.95    1075.91       0.63    1644.45 
   1645.00      47.28      389.3        6.5        178       2207    5840.23    1071.25       0.72    1644.95 
   1645.50      16.75      383.6       12.3        177       2258    6982.78    1063.07       1.01    1645.45 
   1646.00      14.48      379.8       12.4        177       2231    6816.02    1065.54       1.04    1645.95 
   1646.50      16.20      386.9        3.4        177       2282    7679.47    1061.94       0.80    1646.45 
