~VERSION INFORMATION
VERS.    2.0:   CWLS LOG ASCII STANDARD - VERSION 2.0
WRAP.     NO:   ONE LINE PER STEP
~WELL INFORMATION BLOCK
#MNEM.UNIT      DATA                  DESCRIPTION OF MNEMONIC
#----   --------             ---------------
STRT.m  260.00                   :START DEPTH
STOP.m  5363.00                   :STOP DEPTH
STEP.m  0.50                   :STEP VALUE
NULL.   0                   :NULL VALUE
COMP.   SHELL                   :COMPANY NAME
WELL.   PRELUDE P7                   :WELL NAME
FLD .   PRELUDE                   :FIELD NAME
LOC .                      :LOCATION
PROV.   PRELUDE                   :PROVINCE
SRVC.   Geoservices                   :SERVICE COMPANY NAME
DATE.   06-20-2015 21:16:03                   :DATE
UWI .                      :UNIQUE WELL IDENTIFIER
~CURVE INFORMATION
#MNEM.UNIT       API CODE        CURVE DESCRIPTION
#----   -------- ------------------
Tot Depth .m        :Tot Depth
ROP m/hr .m/h        :ROP m/hr
WOH .klbs        :WOH
WOB .klbs        :WOB
RPM .rpm        :RPM
SPP .psi        :SPP
TORQUE .lb*ft        :TORQUE
FLWpmps .gpm        :FLWpmps
D Exp .....        :D Exp
TVD Depth .m        :TVD Depth
#
#-----------------------------------------------------------
# Tot Depth (m)   ROP m/hr (m/h)   WOH (klbs)   WOB (klbs)   RPM (rpm)   SPP (psi)   TORQUE (lb*ft)   FLWpmps (gpm)   D Exp (....)   TVD Depth (m)
#-----------------------------------------------------------
~A
# ...
    953.50      22.71      309.1        0.5        131       1741    3875.00    1040.00       0.29     953.49 
    954.00      24.65      308.5        1.6        124       1724    4160.00    1035.00       0.40     953.99 
    954.50      18.63      308.8        2.0        144       1705    4258.00    1025.00       0.39     954.49 
    955.00      11.96      297.2        2.3        153       1683    4350.74    1028.00       0.46     954.99 
    955.50      21.51      334.6        0.2        153       1539    4104.22    1028.60       0.28     955.49 
    956.00      41.75      335.7        0.3        152       1559    4372.93    1027.89       0.22     955.99 
    956.50      36.45      340.0        0.2        153       1561    3597.98    1027.32       0.23     956.49 
    957.00      18.40      333.3        0.3        153       1528    4525.83    1028.95       0.31     956.99 
    957.50      32.11      332.8        0.2        154       1522    4190.46    1029.42       0.24     957.49 
    958.00      70.00      330.7        0.1        154       1549    3730.81    1028.12       0.15     957.99 
    958.50      27.18      334.7        0.2        153       1564    4210.65    1027.12       0.26     958.49 
    959.00      30.80      334.6        0.1        153       1556    5214.71    1027.57       0.23     958.99 
    959.50      31.33      334.3        0.1        154       1549    3212.41    1027.90       0.22     959.49 
    960.00      37.93      332.2        0.2        153       1554    4722.24    1027.97       0.22     959.99 
    960.50      37.89      323.2        0.1        154       1564    4048.78    1026.87       0.21     960.49 
    961.00      28.25      324.0        0.2        153       1591    4377.58    1025.65       0.25     960.99 
    961.50      19.71      320.0        0.1        152       1635    5952.13    1023.18       0.27     961.49 
    962.00      15.92      319.1        0.2        152       1632    5364.61    1022.20       0.31     961.99 
    962.50      22.60      317.8        0.2        154       1587    3877.27    1024.97       0.27     962.49 
    963.00      14.17      321.1        0.1        154       1578    3882.56    1025.54       0.30     962.99 
    963.50      10.59      325.8        0.1        155       1596    3787.95    1024.63       0.33     963.49 
    964.00      22.38      324.6        0.2        155       1573    3513.16    1026.20       0.27     963.99 
    964.50      12.41      323.7        0.1        156       1558    2739.89    1026.49       0.31     964.49 
    965.00      18.40      321.6        0.2        156       1557    3087.83    1026.55       0.29     964.99 
    965.50      21.95      322.2        0.1        155       1559    3200.24    1026.59       0.26     965.49 
    966.00      22.47      312.9        0.2        153       1574    3264.20    1026.55       0.27     965.99 
    966.50      23.60      314.6        1.5        149       1545    2956.35    1030.51       0.34     966.49 
    967.00      32.38      304.9       10.8        146       1609    4324.23    1023.94       0.41     966.99 
    967.50      28.04      308.1       12.7        148       1566    3150.05    1025.98       0.45     967.49 
    968.00      32.39      306.1       14.6        147       1554    3900.79    1026.52       0.43     967.99 
    968.50      34.83      311.4        9.4        147       1588    4315.02    1024.42       0.38     968.49 
    969.00      31.35      310.5       10.3        149       1562    2924.88    1026.63       0.41     968.99 
    969.50      34.37      308.5       12.3        149       1557    3315.12    1026.38       0.41     969.49 
    970.00      49.14      306.9       13.9        148       1564    2909.27    1026.43       0.35     969.99 
    970.50      24.29      313.4        7.4        148       1564    3142.51    1026.72       0.43     970.49 
    971.00      30.06      316.0        4.9        148       1563    3293.77    1026.78       0.36     970.99 
    971.50      30.25      313.0        7.8        148       1566    3322.10    1026.50       0.39     971.49 
    972.00      29.96      305.9       14.9        147       1574    3847.22    1027.00       0.44     971.99 
    972.50      27.45      299.5       21.2        147       1588    4107.22    1027.00       0.50     972.49 
    973.00      23.39      305.0       15.7        148       1600    4412.23    1034.00       0.50     972.99 
    973.50      25.88      309.9       10.8        147       1604    4453.78    1034.00       0.44     973.49 
    974.00      30.74      312.9        8.3        147       1622    5232.97    1034.00       0.39     973.99 
    974.50      31.61      300.4       15.4        147       1623    4800.95    1034.00       0.44     974.49 
    975.00      28.92      307.8       13.0        147       1619    4788.85    1034.00       0.44     974.99 
    975.50      23.51      315.6        6.6        147       1626    5240.02    1034.00       0.42     975.49 
    976.00      33.27      326.0        4.0        147       1642    5021.83    1034.00       0.33     975.99 
    976.50      34.19      308.9       12.3        147       1596    4576.13    1034.00       0.40     976.49 
    977.00      45.54      310.1       10.7        148       1605    4550.93    1034.00       0.34     976.99 
    977.50      35.15      301.0       19.8        148       1603    4045.05    1034.00       0.44     977.49 
    978.00      30.08      304.2       16.6        148       1598    4427.56    1034.00       0.45     977.99 
    978.50      31.33      295.9       20.8        148       1617    4361.04    1034.00       0.47     978.49 
    979.00      41.08      291.2       22.5        148       1620    5138.10    1034.00       0.42     978.99 
    979.50      40.77      294.1       24.7        149       1624    4675.30    1034.00       0.43     979.49 
    980.00      53.07      295.5       25.3        149       1613    4812.12    1034.00       0.38     979.99 
    980.50      35.70      295.2       25.6        149       1604    4201.31    1034.00       0.46     980.49 
    981.00      45.33      297.3       23.5        149       1597    4319.48    1034.00       0.40     980.99 
    981.50      38.90      299.3       21.5        149       1600    4502.48    1034.00       0.43     981.49 
    982.00      22.23      298.9       21.9        148       1607    4645.73    1030.00       0.54     981.99 
    982.50      35.05      297.7       23.1        147       1632    4793.00    1022.16       0.45     982.49 
    983.00      37.95      299.7       21.1        147       1631    5216.23    1022.34       0.43     982.99 
    983.50      32.85      301.6       19.2        146       1649    5560.12    1021.26       0.45     983.49 
    984.00      44.08      306.2       14.5        145       1659    6226.42    1020.05       0.37     983.99 
    984.50      40.65      305.0       15.7        146       1654    5411.46    1020.20       0.39     984.49 
    985.00      36.42      304.3       16.5        146       1662    5687.67    1020.33       0.41     984.99 
    985.50      36.41      302.6       18.1        146       1651    5253.29    1020.44       0.42     985.49 
    986.00      42.50      290.6       20.2        146       1646    5779.46    1021.00       0.40     985.99 
    986.50      33.11      294.1       26.7        147       1663    5875.63    1021.00       0.48     986.49 
    987.00      38.34      297.1       23.6        146       1704    7067.51    1020.00       0.44     986.99 
    987.50      30.57      295.0       25.8        147       1714    7139.01    1020.00       0.50     987.49 
    988.00      24.09      300.1       20.7        146       1666    5646.13    1020.00       0.52     987.99 
    988.50      30.07      300.1       20.6        144       1681    6719.57    1020.00       0.47     988.49 
    989.00      30.07      300.1       20.6        144       1681    6719.57    1020.00       0.47     988.99 
    989.50      27.18      311.3        9.5        144       1688    6405.55    1020.00       0.42     989.49 
