~VERSION INFORMATION
VERS.    2.0:   CWLS LOG ASCII STANDARD - VERSION 2.0
WRAP.     NO:   ONE LINE PER STEP
~WELL INFORMATION BLOCK
#MNEM.UNIT      DATA                  DESCRIPTION OF MNEMONIC
#----   --------             ---------------
STRT.m  260.00                   :START DEPTH
STOP.m  5363.00                   :STOP DEPTH
STEP.m  0.50                   :STEP VALUE
NULL.   0                   :NULL VALUE
COMP.   SHELL                   :COMPANY NAME
WELL.   PRELUDE P7                   :WELL NAME
FLD .   PRELUDE                   :FIELD NAME
LOC .                      :LOCATION
PROV.   PRELUDE                   :PROVINCE
SRVC.   Geoservices                   :SERVICE COMPANY NAME
DATE.   06-20-2015 21:16:03                   :DATE
UWI .                      :UNIQUE WELL IDENTIFIER
~CURVE INFORMATION
#MNEM.UNIT       API CODE        CURVE DESCRIPTION
#----   -------- ------------------
Tot Depth .m        :Tot Depth
ROP m/hr .m/h        :ROP m/hr
WOH .klbs        :WOH
WOB .klbs        :WOB
RPM .rpm        :RPM
SPP .psi        :SPP
TORQUE .lb*ft        :TORQUE
FLWpmps .gpm        :FLWpmps
D Exp .....        :D Exp
TVD Depth .m        :TVD Depth
#
#-----------------------------------------------------------
# Tot Depth (m)   ROP m/hr (m/h)   WOH (klbs)   WOB (klbs)   RPM (rpm)   SPP (psi)   TORQUE (lb*ft)   FLWpmps (gpm)   D Exp (....)   TVD Depth (m)
#-----------------------------------------------------------
~A
# ...
   3289.50      29.28      421.0        9.9        171       3734   14042.97    1129.23       0.69    3181.70 
   3290.00      31.96      421.0        9.9        171       3736   14250.76    1129.11       0.68    3182.10 
   3290.50      27.61      421.0       10.0        171       3733   14177.97    1129.19       0.70    3182.49 
   3291.00      31.98      421.1        9.9        172       3733   13719.65    1129.20       0.68    3182.88 
   3291.50      34.52      421.2        9.7        172       3735   13531.10    1129.02       0.67    3183.27 
   3292.00      29.94      421.1        9.9        176       3734   14308.70    1129.16       0.70    3183.66 
   3292.50      30.87      421.2        9.7        178       3730   14383.47    1129.16       0.69    3184.06 
   3293.00      33.75      421.1        9.9        179       3734   14648.66    1129.01       0.68    3184.45 
   3293.50      31.64      421.1        9.9        178       3732   14713.26    1129.30       0.69    3184.84 
   3294.00      38.78      421.0       10.0        178       3736   14871.04    1129.32       0.66    3185.23 
   3294.50      15.79      422.1        8.9        170       3743   11969.00    1128.28       0.77    3185.62 
   3295.00      29.28      422.3        8.8        162       3750   13345.50    1127.93       0.67    3186.02 
   3295.50      26.18      422.4       10.1        162       3749   13688.33    1127.87       0.71    3186.41 
   3296.00      27.55      421.1       11.3        159       3752   14675.48    1127.94       0.71    3186.80 
   3296.50      30.37      420.4       12.0        157       3756   15673.90    1127.82       0.71    3187.19 
   3297.00      33.21      420.2       12.2        158       3753   15507.79    1127.92       0.70    3187.58 
   3297.50      26.24      419.9       12.5        163       3750   15364.74    1127.86       0.74    3187.98 
   3298.00      26.88      419.6       12.8        167       3745   16400.40    1128.03       0.75    3188.37 
   3298.50      31.39      418.8       13.6        166       3745   16772.94    1128.19       0.73    3188.76 
   3299.00      31.81      418.6       13.8        179       3738   17626.45    1128.41       0.74    3189.15 
   3299.50      33.83      418.0       14.1        181       3738   16703.60    1128.42       0.74    3189.54 
   3300.00      28.67      418.3       11.9        181       3737   16524.56    1128.41       0.74    3189.94 
   3300.50      35.73      417.9       12.3        182       3738   16225.34    1128.34       0.71    3190.33 
   3301.00      27.91      418.1       12.1        183       3733   15963.85    1128.47       0.75    3190.72 
   3301.50      33.13      418.3       12.0        183       3734   15778.26    1128.57       0.72    3191.11 
   3302.00      30.47      418.3       12.0        183       3730   15901.47    1128.40       0.73    3191.50 
   3302.50      31.59      417.6       12.6        180       3728   16824.74    1128.54       0.73    3191.90 
   3303.00      27.76      417.6       12.6        181       3730   16779.82    1128.41       0.75    3192.29 
   3303.50      35.73      417.7       12.5        178       3731   17444.61    1128.43       0.71    3192.68 
   3304.00      30.66      418.2       12.1        180       3729   17092.20    1128.55       0.73    3193.07 
   3304.50      28.03      418.2       12.1        182       3721   16069.73    1128.49       0.74    3193.46 
   3305.00      12.64      416.6       13.6        186       3718   14748.13    1128.71       0.90    3193.86 
   3305.50      21.70      420.2       10.0        188       3716   13530.48    1128.70       0.76    3194.25 
   3306.00      28.07      420.3        9.9        185       3719   15122.28    1128.73       0.71    3194.64 
   3306.50      22.84      420.1       10.2        184       3719   15345.07    1128.58       0.75    3195.03 
   3307.00      12.76      421.3        9.0        192       3392   12090.96    1065.47       0.82    3195.42 
   3307.50       9.40      422.7        7.5        190       3489   10418.61    1088.14       0.84    3195.82 
   3308.00      23.67      422.1        8.1        172       3722   13644.61    1128.60       0.70    3196.21 
   3308.50      28.35      421.7        8.5        171       3726   14556.46    1128.42       0.68    3196.60 
   3309.00      31.51      421.4        8.9        171       3724   14543.62    1128.49       0.67    3196.99 
   3309.50      11.76      421.9        8.3        179       3723   11078.39    1128.58       0.81    3197.38 
   3310.00      21.01      422.1        8.2        178       3726   11162.68    1128.68       0.72    3197.78 
   3310.50       7.09      424.8        6.5        176       3758    8949.31    1127.95       0.84    3198.17 
   3311.00      19.20      425.1        7.0        164       3769   11887.53    1127.75       0.70    3198.56 
   3311.50      31.97      424.2        8.1        160       3768   13697.23    1127.97       0.64    3198.95 
   3312.00      23.79      423.8       10.2        165       3763   14802.03    1128.07       0.73    3199.34 
   3312.50      32.47      423.7       11.8        166       3759   14791.46    1128.10       0.70    3199.74 
   3313.00      28.46      423.4       15.1        169       3759   14011.19    1128.12       0.77    3200.13 
   3313.50      33.08      423.2       15.3        167       3758   14880.57    1128.20       0.74    3200.52 
   3314.00      23.67      423.0       15.5        166       3756   14863.07    1128.14       0.80    3200.91 
   3314.50      28.60      422.3       16.2        164       3760   15942.15    1128.00       0.77    3201.30 
   3315.00      25.88      421.9       16.6        164       3757   16401.14    1128.14       0.80    3201.70 
   3315.50      34.68      421.7       16.8        162       3756   17542.31    1128.09       0.75    3202.09 
   3316.00      27.84      421.8       16.7        165       3758   16633.04    1128.11       0.79    3202.48 
   3316.50      30.88      421.8       16.7        166       3757   16154.04    1128.14       0.77    3202.87 
   3317.00      27.89      422.0       16.5        165       3756   16388.79    1128.26       0.78    3203.26 
   3317.50      34.55      422.3       16.2        166       3756   16570.60    1128.33       0.74    3203.65 
   3318.00      28.42      422.1       16.3        165       3757   16710.83    1128.31       0.78    3204.04 
   3318.50      35.05      422.3       16.2        165       3748   16935.20    1126.10       0.74    3204.43 
   3319.00       6.66      423.0       15.5        177       3500   11958.65    1082.40       1.02    3204.82 
   3319.50      20.03      424.0       14.5        174       3742   12647.98    1127.80       0.82    3205.21 
   3320.00      22.05      423.0       15.5        169       3750   15045.83    1127.71       0.81    3205.60 
   3320.50      28.75      422.5       16.0        167       3752   15659.17    1127.52       0.77    3205.99 
   3321.00      30.66      422.4       16.1        166       3752   16304.81    1127.22       0.76    3206.38 
   3321.50      21.87      422.3       16.2        167       3749   15772.51    1127.53       0.82    3206.77 
   3322.00      31.48      422.1       16.4        167       3750   16017.28    1127.42       0.76    3207.16 
   3322.50      26.89      421.7       16.8        164       3754   16975.66    1127.56       0.79    3207.55 
   3323.00      33.70      421.7       16.8        164       3752   17284.64    1127.55       0.75    3207.94 
   3323.50      30.37      422.0       16.5        166       3755   16805.48    1127.49       0.77    3208.33 
   3324.00      37.99      422.0       16.0        165       3751   16745.15    1127.53       0.73    3208.72 
   3324.50      26.94      422.1       14.8        166       3753   16365.04    1127.37       0.77    3209.11 
   3325.00      33.07      422.2       14.8        167       3752   16022.72    1127.39       0.74    3209.50 
   3325.50      32.85      422.3       14.7        168       3753   15888.24    1127.54       0.74    3209.89 
