~VERSION INFORMATION
VERS.    2.0:   CWLS LOG ASCII STANDARD - VERSION 2.0
WRAP.     NO:   ONE LINE PER STEP
~WELL INFORMATION BLOCK
#MNEM.UNIT      DATA                  DESCRIPTION OF MNEMONIC
#----   --------             ---------------
STRT.m  260.00                   :START DEPTH
STOP.m  5363.00                   :STOP DEPTH
STEP.m  0.50                   :STEP VALUE
NULL.   0                   :NULL VALUE
COMP.   SHELL                   :COMPANY NAME
WELL.   PRELUDE P7                   :WELL NAME
FLD .   PRELUDE                   :FIELD NAME
LOC .                      :LOCATION
PROV.   PRELUDE                   :PROVINCE
SRVC.   Geoservices                   :SERVICE COMPANY NAME
DATE.   06-20-2015 21:16:03                   :DATE
UWI .                      :UNIQUE WELL IDENTIFIER
~CURVE INFORMATION
#MNEM.UNIT       API CODE        CURVE DESCRIPTION
#----   -------- ------------------
Tot Depth .m        :Tot Depth
ROP m/hr .m/h        :ROP m/hr
WOH .klbs        :WOH
WOB .klbs        :WOB
RPM .rpm        :RPM
SPP .psi        :SPP
TORQUE .lb*ft        :TORQUE
FLWpmps .gpm        :FLWpmps
D Exp .....        :D Exp
TVD Depth .m        :TVD Depth
#
#-----------------------------------------------------------
# Tot Depth (m)   ROP m/hr (m/h)   WOH (klbs)   WOB (klbs)   RPM (rpm)   SPP (psi)   TORQUE (lb*ft)   FLWpmps (gpm)   D Exp (....)   TVD Depth (m)
#-----------------------------------------------------------
~A
# ...
   5333.50       4.66      477.7       17.9        131       1547   20515.11     335.40       1.41    4104.99 
   5334.00       4.63      477.6       18.0        132       1587   20109.30     342.25       1.41    4105.04 
   5334.50       6.46      477.5       18.5        131       1607   20646.51     344.80       1.35    4105.09 
   5335.00       8.16      477.5       18.5        130       1605   20981.55     344.79       1.29    4105.14 
   5335.50       6.45      477.4       18.6        130       1605   21283.55     344.77       1.35    4105.19 
   5336.00       6.89      477.6       18.3        130       1605   21118.33     344.79       1.33    4105.23 
   5336.50       6.59      477.8       18.2        130       1605   21064.80     344.83       1.33    4105.28 
   5337.00       6.80      477.0       19.0        130       1603   20887.88     344.89       1.34    4105.33 
   5337.50       7.06      477.6       18.4        131       1596   20704.90     345.09       1.32    4105.38 
   5338.00       7.37      477.5       18.5        130       1596   21059.08     345.02       1.31    4105.43 
   5338.50       7.31      477.4       18.6        130       1597   21279.24     345.05       1.32    4105.48 
   5339.00       7.46      477.2       18.8        130       1596   21125.83     344.99       1.32    4105.52 
   5339.50       7.06      476.9       19.0        130       1596   21083.42     344.98       1.34    4105.57 
   5340.00       7.53      476.8       19.2        130       1596   21126.71     344.98       1.32    4105.62 
   5340.50       7.68      476.7       19.3        130       1597   21183.47     345.00       1.32    4105.67 
   5341.00       7.49      476.8       19.2        129       1599   21396.17     344.98       1.32    4105.72 
   5341.50       7.99      476.8       19.2        130       1601   21271.46     344.94       1.31    4105.76 
   5342.00       7.68      477.8       18.4        130       1602   21178.42     344.91       1.30    4105.81 
   5342.50       8.44      476.9       19.1        130       1607   21282.31     344.79       1.29    4104.86 
   5343.00      11.72      476.6       19.4        129       1607   21390.54     344.72       1.22    4104.86 
   5343.50      11.72      476.6       19.4        129       1607   21390.54     344.72       1.22    4104.86 
   5344.00       8.64      476.8       19.2        130       1602   21268.79     344.85       1.29    4105.07 
   5344.50       8.64      476.8       19.2        130       1602   21268.79     344.85       1.29    4105.07 
   5345.00       7.92      476.8       19.2        130       1600   21170.72     344.87       1.31    4105.07 
   5345.50       8.64      476.6       19.4        130       1600   21049.88     344.90       1.30    4105.07 
   5346.00      13.30      476.5       19.4        130       1601   21324.54     345.01       1.19    4105.28 
   5346.50       8.24      475.7       20.3        130       1600   21203.63     344.94       1.32    4105.28 
   5347.00       8.60      476.1       19.9        130       1592   20917.15     345.21       1.31    4105.28 
   5347.50       9.00      476.2       19.8        130       1594   20986.53     345.14       1.29    4105.28 
   5348.00       8.77      475.9       20.1        130       1594   21090.26     345.11       1.30    4105.49 
   5348.50       9.59      475.9       20.1        130       1594   21125.99     345.05       1.28    4105.49 
   5349.00       8.41      475.9       20.1        130       1595   21230.65     345.08       1.31    4105.49 
   5349.50       7.99      475.9       20.1        130       1595   21168.37     345.02       1.33    4105.49 
   5350.00      14.89      476.0       19.9        129       1572   21804.41     345.75       1.18    4105.70 
   5350.50       8.38      475.4       20.6        129       1537   21579.34     346.92       1.32    4105.70 
   5351.00       7.72      477.8       18.2        120       1371   20207.84     321.79       1.28    4105.70 
   5351.50       9.81      478.0       18.0        118       1348   20440.53     319.89       1.22    4105.70 
   5352.00       8.36      478.2       17.8        118       1330   20568.51     320.78       1.25    4105.70 
   5352.50       4.06      477.1       18.9        120       1339   19582.27     320.54       1.44    4105.91 
   5353.00       2.48      476.9       19.1        121       1327   18679.62     319.25       1.56    4105.91 
   5353.50      10.41      502.9        1.7         72        755   15075.16     180.83       0.66    4105.91 
   5354.00       7.11      502.9        5.2        128       1363   19911.16     309.36       0.98    4105.91 
   5354.50       3.00      502.7        6.6        129       1330   19716.73     302.75       1.19    4106.12 
   5355.00       6.92      495.2       13.3        128       1307   20421.78     300.27       1.21    4106.12 
   5355.50       7.39      484.4       12.5        127       1306   21078.14     300.20       1.18    4106.12 
   5356.00       6.34      483.9       12.9        127       1296   21115.29     300.69       1.22    4106.12 
   5356.50       7.89      484.9       12.0        127       1293   21108.92     300.80       1.15    4106.33 
   5357.00       7.55      485.3       11.6        126       1293   21178.90     300.73       1.15    4106.33 
   5357.50       7.78      486.5       10.5        127       1291   21168.75     300.83       1.12    4106.33 
   5358.00       8.02      486.4       10.4        126       1282   21468.98     301.07       1.11    4106.33 
   5358.50       7.52      486.6       10.2        126       1289   21597.48     300.87       1.12    4106.33 
   5359.00      11.03      487.5        8.8        126       1291   21849.67     300.75       1.01    4106.54 
   5359.50       8.00      488.5       15.3        127       1291   21235.73     300.71       1.23    4106.54 
   5360.00       7.41      488.6       15.3        127       1288   21268.45     300.82       1.24    4106.54 
   5360.50       7.97      489.5       14.4        126       1276   21515.43     301.30       1.21    4106.54 
   5361.00       7.86      489.2       14.7        126       1284   21466.98     301.00       1.22    4106.75 
   5361.50       8.63      490.4       13.6        126       1282   21621.27     301.06       1.17    4106.75 
   5362.00       7.78      489.7       14.2        126       1285   21555.95     300.97       1.21    4106.75 
   5362.50       7.04      489.7       14.1        127       1284   20955.23     300.90       1.23    4106.75 
   5363.00       7.97      489.9       14.0        127       1284   21002.99     301.03       1.20    4106.96 
