~VERSION INFORMATION
VERS.    2.0:   CWLS LOG ASCII STANDARD - VERSION 2.0
WRAP.     NO:   ONE LINE PER STEP
~WELL INFORMATION BLOCK
#MNEM.UNIT      DATA                  DESCRIPTION OF MNEMONIC
#----   --------             ---------------
STRT.m  260.00                   :START DEPTH
STOP.m  5363.00                   :STOP DEPTH
STEP.m  0.50                   :STEP VALUE
NULL.   0                   :NULL VALUE
COMP.   SHELL                   :COMPANY NAME
WELL.   PRELUDE P7                   :WELL NAME
FLD .   PRELUDE                   :FIELD NAME
LOC .                      :LOCATION
PROV.   PRELUDE                   :PROVINCE
SRVC.   Geoservices                   :SERVICE COMPANY NAME
DATE.   06-20-2015 21:16:03                   :DATE
UWI .                      :UNIQUE WELL IDENTIFIER
~CURVE INFORMATION
#MNEM.UNIT       API CODE        CURVE DESCRIPTION
#----   -------- ------------------
Tot Depth .m        :Tot Depth
ROP m/hr .m/h        :ROP m/hr
WOH .klbs        :WOH
WOB .klbs        :WOB
RPM .rpm        :RPM
SPP .psi        :SPP
TORQUE .lb*ft        :TORQUE
FLWpmps .gpm        :FLWpmps
D Exp .....        :D Exp
TVD Depth .m        :TVD Depth
#
#-----------------------------------------------------------
# Tot Depth (m)   ROP m/hr (m/h)   WOH (klbs)   WOB (klbs)   RPM (rpm)   SPP (psi)   TORQUE (lb*ft)   FLWpmps (gpm)   D Exp (....)   TVD Depth (m)
#-----------------------------------------------------------
~A
# ...
   4640.00       3.33      461.3       26.2         87       1684   14851.59     354.02       1.59    4025.00 
   4640.50       3.71      461.0       26.4         87       1646   15060.08     347.25       1.56    4025.12 
   4641.00       4.78      462.1       25.4         86       1525   15920.02     330.07       1.48    4025.23 
   4641.50       3.19      462.3       25.2         86       1484   15174.59     323.25       1.58    4025.34 
   4642.00       2.90      462.3       25.1         88       1541   14558.74     332.33       1.60    4025.45 
   4642.50       3.26      460.2       27.2         95       1575   14797.54     335.40       1.63    4025.57 
   4643.00       4.42      459.7       27.8         94       1617   15655.93     342.26       1.56    4025.68 
   4643.50       4.37      460.4       27.0         93       1706   16525.29     353.56       1.55    4025.79 
   4644.00       3.82      466.4       21.1         94       1706   15733.45     353.56       1.47    4025.90 
   4644.50       3.90      465.9       21.6         94       1700   15923.33     353.69       1.48    4026.01 
   4645.00       4.65      465.5       22.0         94       1698   15867.23     353.72       1.44    4026.13 
   4645.50       5.30      466.7       20.7         94       1693   15984.15     353.82       1.39    4026.24 
   4646.00       5.21      464.7       22.8         94       1687   16078.33     354.04       1.43    4026.35 
   4646.50       5.05      464.6       22.8         94       1682   15345.66     354.16       1.44    4026.46 
   4647.00       4.17      464.3       23.1         95       1680   14882.90     354.22       1.49    4026.58 
   4647.50       3.69      459.8       27.6         95       1677   14841.21     354.28       1.61    4026.69 
   4648.00       3.28      459.2       28.3         95       1676   14964.61     354.27       1.65    4026.80 
   4648.50       2.22      460.0       27.4         94       1678   15321.62     354.24       1.74    4026.91 
   4649.00       3.45      459.1       28.4         94       1679   15351.29     354.17       1.64    4027.03 
   4649.50       4.79      460.8       26.7         93       1632   16262.57     345.67       1.52    4027.14 
   4650.00       2.99      461.8       25.6         94       1612   15388.29     345.35       1.62    4027.25 
   4650.50       3.24      461.5       26.0         94       1654   15442.00     349.47       1.61    4027.36 
   4651.00       2.63      461.3       26.1         95       1656   14803.12     349.41       1.66    4027.47 
   4651.50       4.05      458.6       28.8         94       1658   15727.10     349.30       1.60    4027.59 
   4652.00       4.20      459.5       28.0         94       1658   16151.41     349.27       1.57    4027.70 
   4652.50       3.28      459.7       27.7         94       1660   15572.23     349.24       1.63    4027.81 
   4653.00       4.20      462.9       21.0         90       1665   15320.83     349.76       1.44    4027.92 
   4653.50       3.79      461.7       21.5         91       1667   15432.20     349.88       1.47    4028.04 
   4654.00       4.21      458.6       24.7         90       1661   16013.45     349.99       1.51    4028.15 
   4654.50       3.12      461.5       22.1         91       1659   15002.08     350.02       1.53    4028.26 
   4655.00       2.43      461.0       22.4         91       1594   15054.45     341.74       1.60    4028.37 
   4655.50       2.43      461.0       22.4         91       1594   15054.45     341.74       1.60    4028.49 
   4656.00       3.84      459.6       23.7         90       1649   15904.27     349.80       1.51    4028.60 
   4656.50       3.20      460.9       22.4         90       1655   15834.70     349.68       1.53    4028.71 
   4657.00       2.06      460.1       23.2         91       1657   15558.85     349.61       1.66    4028.82 
   4657.50       2.05      463.3       20.0         91       1638   14844.90     346.42       1.59    4028.93 
   4658.00       2.15      461.6       21.6         92       1635   14597.99     346.53       1.62    4029.05 
   4658.50       3.04      458.0       25.2         92       1662   14831.77     349.39       1.60    4029.16 
   4659.00       2.26      455.1       28.2         92       1664   14781.82     349.29       1.74    4029.27 
   4659.50       2.26      455.1       28.2         92       1664   14781.82     349.29       1.74    4029.38 
   4660.00       2.45      454.6       28.7         94       1667   15592.70     349.20       1.73    4029.50 
   4660.50       2.45      454.6       28.7         94       1667   15592.70     349.20       1.73    4029.61 
   4661.00       2.62      455.4       27.8         97       1673   15210.28     349.09       1.70    4029.72 
   4661.50       3.30      454.4       28.9         96       1674   15976.59     349.02       1.66    4029.83 
   4662.00       4.54      456.2       27.0         96       1671   16229.09     349.05       1.54    4029.94 
   4662.50       4.43      457.6       25.6         96       1671   16349.65     349.10       1.52    4030.05 
   4663.00       3.78      459.6       23.7         96       1671   16116.18     349.10       1.53    4030.15 
   4663.50       2.66      461.0       22.2         96       1611   16083.89     341.39       1.59    4030.26 
   4664.00       3.97      461.8       21.5         97       1665   15643.80     349.04       1.47    4030.37 
   4664.50       3.76      459.8       23.5         97       1664   15257.03     349.02       1.53    4030.48 
   4665.00       4.24      457.5       25.7         96       1661   16172.07     349.04       1.54    4030.58 
   4665.50       4.38      457.0       26.3         96       1661   16363.25     349.01       1.54    4030.69 
   4666.00       3.60      458.1       25.2         97       1658   15662.61     349.05       1.57    4030.80 
   4666.50       3.83      457.0       26.3         97       1659   15055.97     349.04       1.57    4030.91 
   4667.00       2.67      455.5       27.7         96       1657   15934.48     349.08       1.69    4031.01 
   4667.50       2.98      456.5       26.7         97       1656   15378.25     349.11       1.65    4031.12 
   4668.00       2.70      455.4       27.9         97       1654   15172.94     349.15       1.70    4031.23 
   4668.50       1.86      455.7       27.6         97       1653   15118.43     349.20       1.79    4031.33 
   4669.00       4.03      457.3       25.9         97       1652   15682.75     349.18       1.55    4031.44 
   4669.50       3.86      455.6       27.7        100       1656   15567.82     349.11       1.60    4031.55 
   4670.00       3.20      451.4       31.9        109       1585   16456.39     338.92       1.76    4031.66 
   4670.50       4.26      463.7       19.6         84       1684   13523.09     352.97       1.39    4031.76 
   4671.00       4.29      463.9       19.3         97       1691   15683.29     353.58       1.42    4031.87 
   4671.50       4.95      462.4       20.9         97       1691   16227.60     353.59       1.41    4031.98 
   4672.00       4.61      462.4       20.8         97       1689   15928.90     353.60       1.43    4032.09 
   4672.50       4.57      461.3       22.0         97       1692   16231.06     353.56       1.45    4032.19 
   4673.00       5.53      455.1       24.6         96       1664   16957.86     353.52       1.68    4032.30 
   4673.50       4.65      455.1       24.4         97       1664   16091.73     353.53       1.67    4032.41 
   4674.00       4.57      457.6       25.6         97       1693   15880.39     353.48       1.52    4032.52 
   4674.50       6.06      457.8       25.5         96       1695   17089.40     353.43       1.44    4032.62 
   4675.00       6.00      456.7       26.5         97       1697   16436.12     353.36       1.46    4032.73 
   4675.50       4.13      457.0       26.3         98       1695   15286.58     353.41       1.56    4032.84 
   4676.00       4.29      453.2       32.3         98       1696   15036.35     353.42       1.65    4032.94 
