~VERSION INFORMATION
VERS.    2.0:   CWLS LOG ASCII STANDARD - VERSION 2.0
WRAP.     NO:   ONE LINE PER STEP
~WELL INFORMATION BLOCK
#MNEM.UNIT      DATA                  DESCRIPTION OF MNEMONIC
#----   --------             ---------------
STRT.m  620.00                   :START DEPTH
STOP.m  5139.00                   :STOP DEPTH
STEP.m  0.50                   :STEP VALUE
NULL.  -9999                   :NULL VALUE
COMP.   SHELL                   :COMPANY NAME
WELL.   PRELUDE P1 ST1                   :WELL NAME
FLD .   PRELUDE                   :FIELD NAME
LOC .   BROWSE BASIN                   :LOCATION
PROV.   NORTH WEST SHELF, W.A.                   :PROVINCE
SRVC.   Geoservices                   :SERVICE COMPANY NAME
DATE.   01-10-2015 15:42:04                   :DATE
UWI .                      :UNIQUE WELL IDENTIFIER
~CURVE INFORMATION
#MNEM.UNIT       API CODE        CURVE DESCRIPTION
#----   -------- ------------------
Tot Depth .m        :Tot Depth
T GAS main .%        :T GAS main
C1  main .%        :C1  main
C2  main .%        :C2  main
C3  main .%        :C3  main
iC4 main .%        :iC4 main
nC4 main .%        :nC4 main
iC5 main .%        :iC5 main
nC5 main .%        :nC5 main
C02 .ppm        :C02
MW IN .kg/l        :MW IN
#
#-----------------------------------------------------------
# Tot Depth (m)   T GAS main (%)   C1  main (%)   C2  main (%)   C3  main (%)   iC4 main (%)   nC4 main (%)   iC5 main (%)   nC5 main (%)   C02 (ppm)   MW IN (kg/l)
#-----------------------------------------------------------
~A
# ...
   1808.00       0.00     0.0012     0.0000     0.0000     0.0000     0.0000     0.0000     0.0000          1       1.06 
   1808.50       0.00     0.0012     0.0000     0.0000     0.0000     0.0000     0.0000     0.0000          1       1.06 
   1809.00       0.00     0.0011     0.0000     0.0000     0.0000     0.0000     0.0000     0.0000          1       1.06 
   1809.50       0.00     0.0010     0.0000     0.0000     0.0000     0.0000     0.0000     0.0000          1       1.06 
   1810.00       0.00     0.0011     0.0001     0.0000     0.0000     0.0000     0.0000     0.0000          1       1.06 
   1810.50       0.00     0.0012     0.0002     0.0000     0.0000     0.0000     0.0000     0.0000          1       1.06 
   1811.00       0.00     0.0014     0.0001     0.0000     0.0000     0.0000     0.0000     0.0000          1       1.06 
   1811.50       0.00     0.0011     0.0000     0.0000     0.0000     0.0000     0.0000     0.0000          1       1.06 
   1812.00       0.00     0.0011     0.0000     0.0000     0.0000     0.0000     0.0000     0.0000          1       1.06 
   1812.50       0.00     0.0013     0.0001     0.0001     0.0000     0.0000     0.0000     0.0000          1       1.06 
   1813.00       0.00     0.0010     0.0001     0.0001     0.0000     0.0000     0.0000     0.0000          1       1.06 
   1813.50       0.00     0.0012     0.0001     0.0000     0.0000     0.0000     0.0000     0.0000          1       1.06 
   1814.00       0.00     0.0013     0.0001     0.0000     0.0000     0.0000     0.0000     0.0000          1       1.06 
   1814.50       0.00     0.0011     0.0001     0.0001     0.0000     0.0000     0.0000     0.0000          1       1.06 
   1815.00       0.00     0.0013     0.0001     0.0001     0.0000     0.0000     0.0000     0.0000          1       1.06 
   1815.50       0.00     0.0012     0.0000     0.0000     0.0000     0.0000     0.0000     0.0000          1       1.06 
   1816.00       0.01     0.0017     0.0003     0.0002     0.0000     0.0000     0.0000     0.0000          1       1.06 
   1816.50       0.00     0.0021     0.0002     0.0001     0.0000     0.0000     0.0000     0.0000          1       1.06 
   1817.00       0.00     0.0019     0.0000     0.0001     0.0000     0.0000     0.0000     0.0000          1       1.06 
   1817.50       0.00     0.0018     0.0001     0.0000     0.0000     0.0000     0.0000     0.0000          1       1.06 
   1818.00       0.00     0.0019     0.0000     0.0001     0.0000     0.0000     0.0000     0.0000          1       1.06 
   1818.50       0.01     0.0018     0.0001     0.0002     0.0000     0.0000     0.0000     0.0000          1       1.06 
   1819.00       0.00     0.0017     0.0000     0.0001     0.0000     0.0000     0.0000     0.0000          1       1.06 
   1819.50       0.00     0.0016     0.0002     0.0001     0.0000     0.0000     0.0000     0.0000          1       1.06 
   1820.00       0.00     0.0016     0.0002     0.0001     0.0000     0.0000     0.0000     0.0000          1       1.06 
   1820.50       0.00     0.0012     0.0000     0.0001     0.0000     0.0000     0.0000     0.0000          1       1.06 
   1821.00       0.00     0.0011     0.0000     0.0001     0.0000     0.0000     0.0000     0.0000          1       1.06 
   1821.50       0.00     0.0010     0.0000     0.0000     0.0000     0.0000     0.0000     0.0000          1       1.06 
   1822.00       0.00     0.0016     0.0002     0.0000     0.0000     0.0000     0.0000     0.0000          1       1.06 
   1822.50       0.00     0.0015     0.0001     0.0000     0.0000     0.0000     0.0000     0.0000          1       1.06 
   1823.00       0.00     0.0010     0.0001     0.0001     0.0000     0.0000     0.0000     0.0000          1       1.06 
   1823.50       0.00     0.0005     0.0000     0.0000     0.0000     0.0000     0.0000     0.0000          1       1.06 
   1824.00       0.00     0.0006     0.0000     0.0001     0.0000     0.0000     0.0000     0.0000          1       1.06 
   1824.50       0.00     0.0006     0.0000     0.0001     0.0000     0.0000     0.0000     0.0000          1       1.06 
   1825.00       0.00     0.0005     0.0000     0.0001     0.0000     0.0000     0.0000     0.0000          1       1.06 
   1825.50       0.00     0.0006     0.0001     0.0000     0.0000     0.0000     0.0000     0.0000          1       1.06 
   1826.00       0.00     0.0006     0.0001     0.0000     0.0000     0.0000     0.0000     0.0000          1       1.06 
   1826.50       0.00     0.0006     0.0001     0.0000     0.0000     0.0000     0.0000     0.0000          1       1.06 
   1827.00       0.00     0.0013     0.0000     0.0000     0.0000     0.0000     0.0000     0.0000          1       1.06 
   1827.50       0.00     0.0011     0.0001     0.0001     0.0000     0.0000     0.0000     0.0000          1       1.06 
   1828.00       0.00     0.0009     0.0000     0.0001     0.0000     0.0000     0.0000     0.0000          1       1.06 
   1828.50       0.00     0.0004     0.0000     0.0001     0.0000     0.0000     0.0000     0.0000          1       1.06 
   1829.00       0.00     0.0005     0.0000     0.0000     0.0000     0.0000     0.0000     0.0000          1       1.06 
   1829.50       0.00     0.0005     0.0000     0.0000     0.0000     0.0000     0.0000     0.0000          1       1.06 
   1830.00       0.00     0.0008     0.0001     0.0000     0.0000     0.0000     0.0000     0.0000          1       1.06 
   1830.50       0.00     0.0010     0.0001     0.0000     0.0000     0.0000     0.0000     0.0000          1       1.06 
   1831.00       0.00     0.0010     0.0001     0.0000     0.0000     0.0000     0.0000     0.0000          1       1.06 
   1831.50       0.00     0.0009     0.0001     0.0000     0.0000     0.0000     0.0000     0.0000          1       1.06 
   1832.00       0.00     0.0004     0.0000     0.0001     0.0000     0.0000     0.0000     0.0000          1       1.06 
   1832.50       0.00     0.0004     0.0001     0.0000     0.0000     0.0000     0.0000     0.0000          1       1.06 
   1833.00       0.00     0.0004     0.0001     0.0000     0.0000     0.0000     0.0000     0.0000          1       1.06 
   1833.50       0.00     0.0005     0.0000     0.0001     0.0000     0.0000     0.0000     0.0000          1       1.06 
   1834.00       0.00     0.0004     0.0000     0.0000     0.0000     0.0000     0.0000     0.0000          1       1.06 
   1834.50       0.00     0.0009     0.0001     0.0000     0.0000     0.0000     0.0000     0.0000          1       1.06 
   1835.00       0.00     0.0005     0.0000     0.0000     0.0000     0.0000     0.0000     0.0000          1       1.06 
   1835.50       0.00     0.0005     0.0000     0.0000     0.0000     0.0000     0.0000     0.0000          1       1.06 
   1836.00       0.00     0.0005     0.0000     0.0000     0.0000     0.0000     0.0000     0.0000          1       1.06 
   1836.50       0.00     0.0006     0.0000     0.0000     0.0000     0.0000     0.0000     0.0000          1       1.06 
   1837.00       0.00     0.0006     0.0000     0.0000     0.0000     0.0000     0.0000     0.0000          1       1.06 
   1837.50       0.00     0.0006     0.0000     0.0000     0.0000     0.0000     0.0000     0.0000          1       1.06 
   1838.00       0.00     0.0008     0.0001     0.0001     0.0000     0.0000     0.0000     0.0000          1       1.06 
   1838.50       0.00     0.0009     0.0001     0.0001     0.0000     0.0000     0.0000     0.0000          1       1.06 
   1839.00       0.00     0.0006     0.0001     0.0000     0.0000     0.0000     0.0000     0.0000          1       1.06 
   1839.50       0.00     0.0006     0.0000     0.0000     0.0000     0.0000     0.0000     0.0000          1       1.06 
   1840.00       0.00     0.0008     0.0000     0.0001     0.0000     0.0000     0.0000     0.0000          1       1.06 
   1840.50       0.00     0.0011     0.0001     0.0000     0.0000     0.0000     0.0000     0.0000          1       1.06 
