~VERSION INFORMATION
VERS.    2.0:   CWLS LOG ASCII STANDARD - VERSION 2.0
WRAP.     NO:   ONE LINE PER STEP
~WELL INFORMATION BLOCK
#MNEM.UNIT      DATA                  DESCRIPTION OF MNEMONIC
#----   --------             ---------------
STRT.m  620.00                   :START DEPTH
STOP.m  5139.00                   :STOP DEPTH
STEP.m  0.50                   :STEP VALUE
NULL.  -999.25                   :NULL VALUE
COMP.   SHELL                   :COMPANY NAME
WELL.   PRELUDE P1 ST1                   :WELL NAME
FLD .   PRELUDE                   :FIELD NAME
LOC .   BROWSE BASIN                   :LOCATION
PROV.   NORTH WEST SHELF, W.A.                   :PROVINCE
SRVC.   Geoservices                   :SERVICE COMPANY NAME
DATE.   01-10-2015 15:42:38                   :DATE
UWI .                      :UNIQUE WELL IDENTIFIER
~CURVE INFORMATION
#MNEM.UNIT       API CODE        CURVE DESCRIPTION
#----   -------- ------------------
Tot Depth .m        :Tot Depth
THG IN .%        :THG IN
C1 IN .%        :C1 IN
C2 IN .%        :C2 IN
C3 IN .%        :C3 IN
iC4 IN .%        :iC4 IN
nC4 IN .%        :nC4 IN
iC5 IN .%        :iC5 IN
nC5 IN .%        :nC5 IN
#
#-----------------------------------------------------------
# Tot Depth (m)   THG IN (%)   C1 IN (%)   C2 IN (%)   C3 IN (%)   iC4 IN (%)   nC4 IN (%)   iC5 IN (%)   nC5 IN (%)
#-----------------------------------------------------------
~A
# ...
   4500.00       0.33     0.2404     0.0271     0.0072     0.0017     0.0012     0.0003     0.0001 
   4500.50       0.34     0.2483     0.0284     0.0075     0.0017     0.0011     0.0003     0.0001 
   4501.00       0.36     0.2578     0.0295     0.0078     0.0018     0.0012     0.0003     0.0001 
   4501.50       0.36     0.2578     0.0295     0.0078     0.0018     0.0012     0.0003     0.0001 
   4502.00       0.36     0.2578     0.0295     0.0078     0.0018     0.0012     0.0003     0.0001 
   4502.50       0.37     0.2645     0.0314     0.0083     0.0020     0.0014     0.0008     0.0003 
   4503.00       0.37     0.2645     0.0314     0.0083     0.0020     0.0014     0.0008     0.0003 
   4503.50       0.38     0.2724     0.0313     0.0083     0.0019     0.0013     0.0005     0.0003 
   4504.00       0.38     0.2724     0.0313     0.0083     0.0019     0.0013     0.0005     0.0003 
   4504.50       0.37     0.2697     0.0309     0.0082     0.0018     0.0013     0.0003     0.0001 
   4505.00       0.37     0.2697     0.0309     0.0082     0.0018     0.0013     0.0003     0.0001 
   4505.50       0.36     0.2577     0.0297     0.0080     0.0018     0.0012     0.0003     0.0001 
   4506.00       0.37     0.2664     0.0302     0.0081     0.0018     0.0012     0.0003     0.0004 
   4506.50       0.37     0.2664     0.0302     0.0081     0.0018     0.0013     0.0004     0.0004 
   4507.00       0.35     0.2553     0.0295     0.0079     0.0018     0.0013     0.0004     0.0001 
   4507.50       0.36     0.2581     0.0296     0.0080     0.0018     0.0013     0.0004     0.0001 
   4508.00       0.36     0.2581     0.0296     0.0080     0.0018     0.0013     0.0003     0.0001 
   4508.50       0.36     0.2585     0.0296     0.0080     0.0018     0.0013     0.0003     0.0001 
   4509.00       0.36     0.2585     0.0293     0.0079     0.0018     0.0013     0.0004     0.0001 
   4509.50       0.35     0.2488     0.0285     0.0077     0.0018     0.0013     0.0004     0.0001 
   4510.00       0.36     0.2618     0.0294     0.0079     0.0018     0.0013     0.0004     0.0001 
   4510.50       0.38     0.2740     0.0303     0.0081     0.0018     0.0014     0.0005     0.0001 
   4511.00       0.38     0.2740     0.0303     0.0081     0.0018     0.0014     0.0005     0.0002 
   4511.50       0.36     0.2650     0.0294     0.0079     0.0018     0.0013     0.0004     0.0002 
   4512.00       0.36     0.2586     0.0287     0.0076     0.0018     0.0013     0.0004     0.0002 
   4512.50       0.35     0.2574     0.0281     0.0075     0.0018     0.0013     0.0004     0.0002 
   4513.00       0.35     0.2574     0.0280     0.0075     0.0018     0.0013     0.0004     0.0001 
   4513.50       0.34     0.2489     0.0275     0.0074     0.0018     0.0013     0.0005     0.0002 
   4514.00       0.34     0.2437     0.0270     0.0072     0.0018     0.0012     0.0005     0.0002 
   4514.50       0.33     0.2370     0.0262     0.0071     0.0018     0.0012     0.0004     0.0002 
   4515.00       0.33     0.2370     0.0262     0.0071     0.0018     0.0012     0.0004     0.0003 
   4515.50       0.32     0.2352     0.0259     0.0070     0.0018     0.0012     0.0003     0.0003 
   4516.00       0.35     0.2554     0.0282     0.0077     0.0019     0.0014     0.0003     0.0002 
   4516.50       0.35     0.2554     0.0282     0.0077     0.0019     0.0014     0.0004     0.0002 
   4517.00       0.32     0.2334     0.0260     0.0071     0.0018     0.0013     0.0004     0.0001 
   4517.50       0.32     0.2334     0.0260     0.0071     0.0018     0.0013     0.0004     0.0001 
   4518.00       0.32     0.2334     0.0260     0.0071     0.0018     0.0013     0.0004     0.0001 
   4518.50       0.32     0.2334     0.0260     0.0071     0.0018     0.0013     0.0004     0.0001 
   4519.00       0.33     0.2400     0.0260     0.0070     0.0018     0.0013     0.0006     0.0002 
   4519.50       0.34     0.2445     0.0265     0.0070     0.0018     0.0013     0.0006     0.0002 
   4520.00       0.34     0.2473     0.0269     0.0072     0.0018     0.0012     0.0004     0.0002 
   4520.50       0.34     0.2473     0.0269     0.0072     0.0018     0.0012     0.0004     0.0002 
   4521.00       0.35     0.2548     0.0275     0.0074     0.0018     0.0012     0.0004     0.0002 
   4521.50       0.39     0.2851     0.0304     0.0081     0.0019     0.0014     0.0004     0.0002 
   4522.00       0.41     0.3040     0.0321     0.0085     0.0019     0.0013     0.0004     0.0002 
   4522.50       0.44     0.3281     0.0339     0.0088     0.0019     0.0014     0.0004     0.0002 
   4523.00       0.47     0.3514     0.0361     0.0094     0.0020     0.0015     0.0004     0.0002 
   4523.50       0.50     0.3752     0.0383     0.0098     0.0020     0.0015     0.0005     0.0001 
   4524.00       0.53     0.3959     0.0401     0.0103     0.0022     0.0016     0.0005     0.0002 
   4524.50       0.58     0.4349     0.0435     0.0110     0.0022     0.0017     0.0005     0.0002 
   4525.00       0.60     0.4551     0.0451     0.0113     0.0024     0.0018     0.0005     0.0002 
   4525.50       0.73     0.5522     0.0566     0.0143     0.0025     0.0023     0.0006     0.0003 
   4526.00       0.75     0.5616     0.0576     0.0147     0.0025     0.0023     0.0007     0.0004 
   4526.50       0.77     0.5766     0.0586     0.0150     0.0027     0.0024     0.0007     0.0004 
   4527.00       0.76     0.5671     0.0583     0.0150     0.0027     0.0024     0.0007     0.0003 
   4527.50       0.78     0.5881     0.0598     0.0153     0.0027     0.0025     0.0007     0.0003 
   4528.00       0.77     0.5827     0.0590     0.0152     0.0027     0.0025     0.0007     0.0003 
   4528.50       0.76     0.5720     0.0584     0.0150     0.0027     0.0025     0.0007     0.0003 
   4529.00       0.77     0.5790     0.0590     0.0152     0.0027     0.0025     0.0007     0.0004 
   4529.50       0.77     0.5790     0.0590     0.0152     0.0027     0.0025     0.0008     0.0004 
   4530.00       0.71     0.5214     0.0556     0.0149     0.0027     0.0025     0.0008     0.0004 
   4530.50       0.71     0.5214     0.0562     0.0149     0.0028     0.0026     0.0008     0.0004 
   4531.00       0.70     0.5193     0.0562     0.0149     0.0028     0.0026     0.0007     0.0004 
   4531.50       0.70     0.5193     0.0553     0.0148     0.0027     0.0025     0.0007     0.0004 
   4532.00       0.71     0.5289     0.0545     0.0145     0.0027     0.0024     0.0007     0.0004 
   4532.50       0.71     0.5289     0.0545     0.0145     0.0027     0.0024     0.0007     0.0004 
   4533.00       0.70     0.5251     0.0544     0.0144     0.0027     0.0024     0.0007     0.0005 
   4533.50       0.70     0.5175     0.0540     0.0144     0.0027     0.0024     0.0007     0.0005 
   4534.00       0.69     0.5133     0.0540     0.0144     0.0027     0.0024     0.0007     0.0003 
   4534.50       0.67     0.4911     0.0527     0.0143     0.0027     0.0024     0.0007     0.0003 
   4535.00       0.62     0.4540     0.0485     0.0132     0.0026     0.0023     0.0007     0.0003 
   4535.50       0.62     0.4540     0.0485     0.0132     0.0026     0.0023     0.0007     0.0003 
   4536.00       0.60     0.4437     0.0477     0.0130     0.0025     0.0023     0.0006     0.0003 
   4536.50       0.58     0.4233     0.0448     0.0123     0.0025     0.0021     0.0008     0.0004 
   4537.00       0.55     0.4022     0.0429     0.0118     0.0025     0.0021     0.0008     0.0004 
   4537.50       0.51     0.3680     0.0406     0.0114     0.0025     0.0020     0.0006     0.0002 
   4538.00       0.48     0.3470     0.0388     0.0111     0.0024     0.0019     0.0006     0.0004 
   4538.50       0.48     0.3470     0.0388     0.0111     0.0024     0.0020     0.0006     0.0004 
   4539.00       0.48     0.3441     0.0385     0.0111     0.0024     0.0020     0.0007     0.0004 
   4539.50       0.47     0.3404     0.0383     0.0110     0.0025     0.0020     0.0007     0.0004 
