~VERSION INFORMATION
VERS.    2.0:   CWLS LOG ASCII STANDARD - VERSION 2.0
WRAP.     NO:   ONE LINE PER STEP
~WELL INFORMATION BLOCK
#MNEM.UNIT      DATA                  DESCRIPTION OF MNEMONIC
#----   --------             ---------------
STRT.m  620.00                   :START DEPTH
STOP.m  5139.00                   :STOP DEPTH
STEP.m  0.50                   :STEP VALUE
NULL.  -999.25                   :NULL VALUE
COMP.   SHELL                   :COMPANY NAME
WELL.   PRELUDE P1 ST1                   :WELL NAME
FLD .   PRELUDE                   :FIELD NAME
LOC .   BROWSE BASIN                   :LOCATION
PROV.   NORTH WEST SHELF, W.A.                   :PROVINCE
SRVC.   Geoservices                   :SERVICE COMPANY NAME
DATE.   01-10-2015 15:42:38                   :DATE
UWI .                      :UNIQUE WELL IDENTIFIER
~CURVE INFORMATION
#MNEM.UNIT       API CODE        CURVE DESCRIPTION
#----   -------- ------------------
Tot Depth .m        :Tot Depth
THG IN .%        :THG IN
C1 IN .%        :C1 IN
C2 IN .%        :C2 IN
C3 IN .%        :C3 IN
iC4 IN .%        :iC4 IN
nC4 IN .%        :nC4 IN
iC5 IN .%        :iC5 IN
nC5 IN .%        :nC5 IN
#
#-----------------------------------------------------------
# Tot Depth (m)   THG IN (%)   C1 IN (%)   C2 IN (%)   C3 IN (%)   iC4 IN (%)   nC4 IN (%)   iC5 IN (%)   nC5 IN (%)
#-----------------------------------------------------------
~A
# ...
   2100.00       0.00     0.0000     0.0000     0.0000     0.0000     0.0000     0.0000     0.0000 
   2100.50       0.00     0.0000     0.0000     0.0000     0.0000     0.0000     0.0000     0.0000 
   2101.00       0.00     0.0000     0.0000     0.0000     0.0000     0.0000     0.0000     0.0000 
   2101.50       0.00     0.0000     0.0000     0.0000     0.0000     0.0000     0.0000     0.0000 
   2102.00       0.00     0.0000     0.0000     0.0000     0.0000     0.0000     0.0000     0.0000 
   2102.50       0.00     0.0000     0.0000     0.0000     0.0000     0.0000     0.0000     0.0000 
   2103.00       0.00     0.0000     0.0000     0.0000     0.0000     0.0000     0.0000     0.0000 
   2103.50       0.00     0.0000     0.0000     0.0000     0.0000     0.0000     0.0000     0.0000 
   2104.00       0.00     0.0000     0.0000     0.0000     0.0000     0.0000     0.0000     0.0000 
   2104.50       0.00     0.0000     0.0000     0.0000     0.0000     0.0000     0.0000     0.0000 
   2105.00       0.00     0.0000     0.0000     0.0000     0.0000     0.0000     0.0000     0.0000 
   2105.50       0.00     0.0000     0.0000     0.0000     0.0000     0.0000     0.0000     0.0000 
   2106.00       0.00     0.0000     0.0000     0.0000     0.0000     0.0000     0.0000     0.0000 
   2106.50       0.00     0.0000     0.0000     0.0000     0.0000     0.0000     0.0000     0.0000 
   2107.00       0.00     0.0000     0.0000     0.0000     0.0000     0.0000     0.0000     0.0000 
   2107.50       0.00     0.0000     0.0000     0.0000     0.0000     0.0000     0.0000     0.0000 
   2108.00       0.00     0.0000     0.0000     0.0000     0.0000     0.0000     0.0000     0.0000 
   2108.50       0.00     0.0000     0.0000     0.0000     0.0000     0.0000     0.0000     0.0000 
   2109.00       0.00     0.0000     0.0000     0.0000     0.0000     0.0000     0.0000     0.0000 
   2109.50       0.00     0.0000     0.0000     0.0000     0.0000     0.0000     0.0000     0.0000 
   2110.00       0.00     0.0000     0.0000     0.0000     0.0000     0.0000     0.0000     0.0000 
   2110.50       0.00     0.0000     0.0000     0.0000     0.0000     0.0000     0.0000     0.0000 
   2111.00       0.00     0.0000     0.0000     0.0000     0.0000     0.0000     0.0000     0.0000 
   2111.50       0.00     0.0000     0.0000     0.0000     0.0000     0.0000     0.0000     0.0000 
   2112.00       0.00     0.0000     0.0000     0.0000     0.0000     0.0000     0.0000     0.0000 
   2112.50       0.00     0.0000     0.0000     0.0000     0.0000     0.0000     0.0000     0.0000 
   2113.00       0.00     0.0000     0.0000     0.0000     0.0000     0.0000     0.0000     0.0000 
   2113.50       0.00     0.0000     0.0000     0.0000     0.0000     0.0000     0.0000     0.0000 
   2114.00       0.00     0.0000     0.0000     0.0000     0.0000     0.0000     0.0000     0.0000 
   2114.50       0.00     0.0000     0.0000     0.0000     0.0000     0.0000     0.0000     0.0000 
   2115.00       0.00     0.0000     0.0000     0.0000     0.0000     0.0000     0.0000     0.0000 
   2115.50       0.00     0.0000     0.0000     0.0000     0.0000     0.0000     0.0000     0.0000 
   2116.00       0.00     0.0000     0.0000     0.0000     0.0000     0.0000     0.0000     0.0000 
   2116.50       0.00     0.0000     0.0000     0.0000     0.0000     0.0000     0.0000     0.0000 
   2117.00       0.00     0.0000     0.0000     0.0000     0.0000     0.0000     0.0000     0.0000 
   2117.50       0.00     0.0000     0.0000     0.0000     0.0000     0.0000     0.0000     0.0000 
   2118.00       0.00     0.0000     0.0000     0.0000     0.0000     0.0000     0.0000     0.0000 
   2118.50       0.00     0.0000     0.0000     0.0000     0.0000     0.0000     0.0000     0.0000 
   2119.00       0.00     0.0000     0.0000     0.0000     0.0000     0.0000     0.0000     0.0000 
   2119.50       0.00     0.0000     0.0000     0.0000     0.0000     0.0000     0.0000     0.0000 
   2120.00       0.00     0.0000     0.0000     0.0000     0.0000     0.0000     0.0000     0.0000 
   2120.50       0.00     0.0000     0.0000     0.0000     0.0000     0.0000     0.0000     0.0000 
   2121.00       0.00     0.0000     0.0000     0.0000     0.0000     0.0000     0.0000     0.0000 
   2121.50       0.00     0.0000     0.0000     0.0000     0.0000     0.0000     0.0000     0.0000 
   2122.00       0.00     0.0000     0.0000     0.0000     0.0000     0.0000     0.0000     0.0000 
   2122.50       0.00     0.0000     0.0000     0.0000     0.0000     0.0000     0.0000     0.0000 
   2123.00       0.00     0.0000     0.0000     0.0000     0.0000     0.0000     0.0000     0.0000 
   2123.50       0.00     0.0000     0.0000     0.0000     0.0000     0.0000     0.0000     0.0000 
   2124.00       0.00     0.0000     0.0000     0.0000     0.0000     0.0000     0.0000     0.0000 
   2124.50       0.00     0.0000     0.0000     0.0000     0.0000     0.0000     0.0000     0.0000 
   2125.00       0.00     0.0000     0.0000     0.0000     0.0000     0.0000     0.0000     0.0000 
   2125.50       0.00     0.0000     0.0000     0.0000     0.0000     0.0000     0.0000     0.0000 
   2126.00       0.00     0.0000     0.0000     0.0000     0.0000     0.0000     0.0000     0.0000 
   2126.50       0.00     0.0000     0.0000     0.0000     0.0000     0.0000     0.0000     0.0000 
   2127.00       0.00     0.0000     0.0000     0.0000     0.0000     0.0000     0.0000     0.0000 
   2127.50       0.00     0.0000     0.0000     0.0000     0.0000     0.0000     0.0000     0.0000 
   2128.00       0.00     0.0000     0.0000     0.0000     0.0000     0.0000     0.0000     0.0000 
   2128.50       0.00     0.0000     0.0000     0.0000     0.0000     0.0000     0.0000     0.0000 
   2129.00       0.00     0.0000     0.0000     0.0000     0.0000     0.0000     0.0000     0.0000 
   2129.50       0.00     0.0000     0.0000     0.0000     0.0000     0.0000     0.0000     0.0000 
   2130.00       0.00     0.0000     0.0000     0.0000     0.0000     0.0000     0.0000     0.0000 
   2130.50       0.00     0.0000     0.0000     0.0000     0.0000     0.0000     0.0000     0.0000 
   2131.00       0.00     0.0000     0.0000     0.0000     0.0000     0.0000     0.0000     0.0000 
   2131.50       0.00     0.0000     0.0000     0.0000     0.0000     0.0000     0.0000     0.0000 
   2132.00       0.00     0.0000     0.0000     0.0000     0.0000     0.0000     0.0000     0.0000 
   2132.50       0.00     0.0000     0.0000     0.0000     0.0000     0.0000     0.0000     0.0000 
   2133.00       0.00     0.0000     0.0000     0.0000     0.0000     0.0000     0.0000     0.0000 
   2133.50       0.00     0.0000     0.0000     0.0000     0.0000     0.0000     0.0000     0.0000 
   2134.00       0.00     0.0000     0.0000     0.0000     0.0000     0.0000     0.0000     0.0000 
   2134.50       0.00     0.0000     0.0000     0.0000     0.0000     0.0000     0.0000     0.0000 
   2135.00       0.00     0.0000     0.0000     0.0000     0.0000     0.0000     0.0000     0.0000 
   2135.50       0.00     0.0000     0.0000     0.0000     0.0000     0.0000     0.0000     0.0000 
   2136.00       0.00     0.0000     0.0000     0.0000     0.0000     0.0000     0.0000     0.0000 
   2136.50       0.00     0.0000     0.0000     0.0000     0.0000     0.0000     0.0000     0.0000 
   2137.00       0.00     0.0000     0.0000     0.0000     0.0000     0.0000     0.0000     0.0000 
   2137.50       0.00     0.0000     0.0000     0.0000     0.0000     0.0000     0.0000     0.0000 
   2138.00       0.00     0.0000     0.0000     0.0000     0.0000     0.0000     0.0000     0.0000 
   2138.50       0.00     0.0000     0.0000     0.0000     0.0000     0.0000     0.0000     0.0000 
   2139.00       0.00     0.0000     0.0000     0.0000     0.0000     0.0000     0.0000     0.0000 
   2139.50       0.00     0.0000     0.0000     0.0000     0.0000     0.0000     0.0000     0.0000 
