~VERSION INFORMATION
VERS.    2.0:   CWLS LOG ASCII STANDARD - VERSION 2.0
WRAP.     NO:   ONE LINE PER STEP
~WELL INFORMATION BLOCK
#MNEM.UNIT      DATA                  DESCRIPTION OF MNEMONIC
#----   --------             ---------------
STRT.m  620.00                   :START DEPTH
STOP.m  5139.00                   :STOP DEPTH
STEP.m  0.50                   :STEP VALUE
NULL.  -9999                   :NULL VALUE
COMP.   SHELL                   :COMPANY NAME
WELL.   PRELUDE P1 ST1                   :WELL NAME
FLD .   PRELUDE                   :FIELD NAME
LOC .   BROWSE BASIN                   :LOCATION
PROV.   NORTH WEST SHELF, W.A.                   :PROVINCE
SRVC.   Geoservices                   :SERVICE COMPANY NAME
DATE.   01-10-2015 15:42:04                   :DATE
UWI .                      :UNIQUE WELL IDENTIFIER
~CURVE INFORMATION
#MNEM.UNIT       API CODE        CURVE DESCRIPTION
#----   -------- ------------------
Tot Depth .m        :Tot Depth
T GAS main .%        :T GAS main
C1  main .%        :C1  main
C2  main .%        :C2  main
C3  main .%        :C3  main
iC4 main .%        :iC4 main
nC4 main .%        :nC4 main
iC5 main .%        :iC5 main
nC5 main .%        :nC5 main
C02 .ppm        :C02
MW IN .kg/l        :MW IN
#
#-----------------------------------------------------------
# Tot Depth (m)   T GAS main (%)   C1  main (%)   C2  main (%)   C3  main (%)   iC4 main (%)   nC4 main (%)   iC5 main (%)   nC5 main (%)   C02 (ppm)   MW IN (kg/l)
#-----------------------------------------------------------
~A
    620.00       0.00     0.0000     0.0000     0.0000     0.0000     0.0000     0.0000     0.0000          1       1.07 
    620.50       0.00     0.0032     0.0000     0.0000     0.0000     0.0000     0.0000     0.0000          1       1.07 
    621.00       0.00     0.0032     0.0000     0.0000     0.0000     0.0000     0.0000     0.0000          1       1.07 
    621.50       0.00     0.0035     0.0000     0.0000     0.0000     0.0000     0.0000     0.0000          1       1.07 
    622.00       0.00     0.0037     0.0000     0.0000     0.0000     0.0000     0.0000     0.0000          1       1.07 
    622.50       0.00     0.0031     0.0000     0.0000     0.0000     0.0000     0.0000     0.0000          1       1.07 
    623.00       0.00     0.0030     0.0000     0.0000     0.0000     0.0000     0.0000     0.0000          1       1.07 
    623.50       0.00     0.0030     0.0000     0.0000     0.0000     0.0000     0.0000     0.0000          1       1.07 
    624.00       0.00     0.0024     0.0000     0.0000     0.0000     0.0000     0.0000     0.0000          1       1.07 
    624.50       0.00     0.0024     0.0000     0.0000     0.0000     0.0000     0.0000     0.0000          1       1.07 
    625.00       0.00     0.0028     0.0000     0.0000     0.0000     0.0000     0.0000     0.0000          1       1.07 
    625.50       0.00     0.0035     0.0000     0.0000     0.0000     0.0000     0.0000     0.0000          1       1.07 
    626.00       0.00     0.0033     0.0000     0.0000     0.0000     0.0000     0.0000     0.0000          1       1.07 
    626.50       0.00     0.0030     0.0000     0.0000     0.0000     0.0000     0.0000     0.0000          1       1.07 
    627.00       0.00     0.0025     0.0000     0.0000     0.0000     0.0000     0.0000     0.0000          1       1.07 
    627.50       0.00     0.0035     0.0000     0.0000     0.0000     0.0000     0.0000     0.0000          1       1.07 
    628.00       0.00     0.0029     0.0000     0.0000     0.0000     0.0000     0.0000     0.0000          1       1.07 
    628.50       0.00     0.0029     0.0000     0.0000     0.0000     0.0000     0.0000     0.0000          1       1.07 
    629.00       0.00     0.0026     0.0000     0.0000     0.0000     0.0000     0.0000     0.0000          1       1.07 
    629.50       0.00     0.0026     0.0000     0.0000     0.0000     0.0000     0.0000     0.0000          1       1.07 
    630.00       0.00     0.0024     0.0000     0.0000     0.0000     0.0000     0.0000     0.0000          1       1.07 
    630.50       0.00     0.0035     0.0000     0.0000     0.0000     0.0000     0.0000     0.0000          1       1.07 
    631.00       0.00     0.0032     0.0000     0.0000     0.0000     0.0000     0.0000     0.0000          1       1.07 
    631.50       0.00     0.0032     0.0000     0.0000     0.0000     0.0000     0.0000     0.0000          1       1.07 
    632.00       0.00     0.0034     0.0000     0.0000     0.0000     0.0000     0.0000     0.0000          1       1.07 
    632.50       0.00     0.0035     0.0000     0.0000     0.0000     0.0000     0.0000     0.0000          1       1.07 
    633.00       0.00     0.0036     0.0000     0.0000     0.0000     0.0000     0.0000     0.0000          1       1.07 
    633.50       0.00     0.0036     0.0000     0.0000     0.0000     0.0000     0.0000     0.0000          1       1.07 
    634.00       0.00     0.0033     0.0000     0.0000     0.0000     0.0000     0.0000     0.0000          1       1.07 
    634.50       0.00     0.0033     0.0000     0.0000     0.0000     0.0000     0.0000     0.0000          1       1.07 
    635.00       0.00     0.0033     0.0000     0.0000     0.0000     0.0000     0.0000     0.0000          1       1.07 
    635.50       0.00     0.0035     0.0000     0.0000     0.0000     0.0000     0.0000     0.0000          1       1.07 
    636.00       0.00     0.0035     0.0000     0.0000     0.0000     0.0000     0.0000     0.0000          1       1.07 
    636.50       0.00     0.0035     0.0000     0.0000     0.0000     0.0000     0.0000     0.0000          1       1.07 
    637.00       0.00     0.0034     0.0000     0.0000     0.0000     0.0000     0.0000     0.0000          1       1.07 
    637.50       0.00     0.0031     0.0000     0.0000     0.0000     0.0000     0.0000     0.0000          1       1.07 
    638.00       0.00     0.0032     0.0000     0.0000     0.0000     0.0000     0.0000     0.0000          1       1.07 
    638.50       0.00     0.0032     0.0000     0.0000     0.0000     0.0000     0.0000     0.0000          1       1.07 
    639.00       0.00     0.0029     0.0000     0.0000     0.0000     0.0000     0.0000     0.0000          1       1.07 
    639.50       0.00     0.0029     0.0000     0.0000     0.0000     0.0000     0.0000     0.0000          1       1.07 
    640.00       0.00     0.0030     0.0000     0.0000     0.0000     0.0000     0.0000     0.0000          1       1.07 
    640.50       0.00     0.0030     0.0000     0.0000     0.0000     0.0000     0.0000     0.0000          1       1.07 
    641.00       0.00     0.0026     0.0000     0.0000     0.0000     0.0000     0.0000     0.0000          1       1.07 
    641.50       0.00     0.0026     0.0000     0.0000     0.0000     0.0000     0.0000     0.0000          1       1.07 
    642.00       0.00     0.0024     0.0000     0.0000     0.0000     0.0000     0.0000     0.0000          1       1.07 
    642.50       0.00     0.0024     0.0000     0.0000     0.0000     0.0000     0.0000     0.0000          1       1.07 
    643.00       0.00     0.0024     0.0000     0.0000     0.0000     0.0000     0.0000     0.0000          1       1.07 
    643.50       0.00     0.0024     0.0000     0.0000     0.0000     0.0000     0.0000     0.0000          1       1.07 
    644.00       0.00     0.0018     0.0000     0.0000     0.0000     0.0000     0.0000     0.0000          1       1.07 
    644.50       0.00     0.0017     0.0000     0.0000     0.0000     0.0000     0.0000     0.0000          1       1.07 
    645.00       0.00     0.0017     0.0000     0.0000     0.0000     0.0000     0.0000     0.0000          1       1.07 
    645.50       0.00     0.0017     0.0000     0.0000     0.0000     0.0000     0.0000     0.0000          1       1.07 
    646.00       0.00     0.0017     0.0000     0.0000     0.0000     0.0000     0.0000     0.0000          1       1.07 
    646.50       0.00     0.0017     0.0000     0.0000     0.0000     0.0000     0.0000     0.0000          1       1.07 
    647.00       0.00     0.0017     0.0000     0.0000     0.0000     0.0000     0.0000     0.0000          1       1.07 
    647.50       0.00     0.0015     0.0000     0.0000     0.0000     0.0000     0.0000     0.0000          1       1.07 
    648.00       0.00     0.0020     0.0000     0.0000     0.0000     0.0000     0.0000     0.0000          1       1.07 
    648.50       0.00     0.0020     0.0000     0.0000     0.0000     0.0000     0.0000     0.0000          1       1.07 
    649.00       0.00     0.0019     0.0000     0.0000     0.0000     0.0000     0.0000     0.0000          1       1.07 
    649.50       0.00     0.0018     0.0000     0.0000     0.0000     0.0000     0.0000     0.0000          1       1.07 
    650.00       0.00     0.0018     0.0000     0.0000     0.0000     0.0000     0.0000     0.0000          1       1.07 
    650.50       0.01     0.0018     0.0000     0.0000     0.0000     0.0000     0.0000     0.0000          1       1.07 
    651.00       0.01     0.0017     0.0000     0.0000     0.0000     0.0000     0.0000     0.0000          1       1.07 
    651.50       0.00     0.0018     0.0000     0.0000     0.0000     0.0000     0.0000     0.0000          1       1.07 
    652.00       0.01     0.0017     0.0000     0.0000     0.0000     0.0000     0.0000     0.0000          1       1.07 
    652.50       0.01     0.0021     0.0000     0.0000     0.0000     0.0000     0.0000     0.0000          1       1.07 
