~VERSION INFORMATION
VERS.    2.0:   CWLS LOG ASCII STANDARD - VERSION 2.0
WRAP.     NO:   ONE LINE PER STEP
~WELL INFORMATION BLOCK
#MNEM.UNIT      DATA                  DESCRIPTION OF MNEMONIC
#----   --------             ---------------
STRT.m  620.00                   :START DEPTH
STOP.m  5139.00                   :STOP DEPTH
STEP.m  0.50                   :STEP VALUE
NULL.  -9999                   :NULL VALUE
COMP.   SHELL                   :COMPANY NAME
WELL.   PRELUDE P1 ST1                   :WELL NAME
FLD .   PRELUDE                   :FIELD NAME
LOC .   BROWSE BASIN                   :LOCATION
PROV.   NORTH WEST SHELF, W.A.                   :PROVINCE
SRVC.   Geoservices                   :SERVICE COMPANY NAME
DATE.   01-10-2015 15:42:04                   :DATE
UWI .                      :UNIQUE WELL IDENTIFIER
~CURVE INFORMATION
#MNEM.UNIT       API CODE        CURVE DESCRIPTION
#----   -------- ------------------
Tot Depth .m        :Tot Depth
T GAS main .%        :T GAS main
C1  main .%        :C1  main
C2  main .%        :C2  main
C3  main .%        :C3  main
iC4 main .%        :iC4 main
nC4 main .%        :nC4 main
iC5 main .%        :iC5 main
nC5 main .%        :nC5 main
C02 .ppm        :C02
MW IN .kg/l        :MW IN
#
#-----------------------------------------------------------
# Tot Depth (m)   T GAS main (%)   C1  main (%)   C2  main (%)   C3  main (%)   iC4 main (%)   nC4 main (%)   iC5 main (%)   nC5 main (%)   C02 (ppm)   MW IN (kg/l)
#-----------------------------------------------------------
~A
# ...
   4811.00       5.97     4.8095     0.3586     0.0763     0.0076     0.0115     0.0025     0.0016          1       1.19 
   4811.50       5.76     4.7411     0.3541     0.0754     0.0075     0.0115     0.0025     0.0016          1       1.19 
   4812.00       5.68     4.5694     0.3490     0.0753     0.0075     0.0115     0.0024     0.0016          1       1.19 
   4812.50       5.63     4.4972     0.3469     0.0741     0.0075     0.0114     0.0023     0.0015          1       1.19 
   4813.00       5.31     4.2080     0.3285     0.0718     0.0073     0.0110     0.0026     0.0016          1       1.19 
   4813.50       5.25     4.1675     0.3182     0.0691     0.0071     0.0107     0.0021     0.0015          1       1.19 
   4814.00       5.50     4.4466     0.3249     0.0691     0.0072     0.0107     0.0022     0.0017          1       1.19 
   4814.50       5.37     4.3367     0.3172     0.0692     0.0072     0.0107     0.0022     0.0015          1       1.19 
   4815.00       5.46     4.3745     0.3278     0.0707     0.0072     0.0108     0.0023     0.0015          1       1.19 
   4815.50       5.44     4.3745     0.3267     0.0704     0.0072     0.0108     0.0022     0.0014          1       1.19 
   4816.00       5.40     4.3353     0.3238     0.0695     0.0071     0.0106     0.0022     0.0017          1       1.19 
   4816.50       5.43     4.4020     0.3265     0.0694     0.0070     0.0109     0.0022     0.0017          1       1.19 
   4817.00       5.45     4.4325     0.3284     0.0701     0.0072     0.0108     0.0021     0.0014          1       1.19 
   4817.50       5.46     4.4072     0.3246     0.0693     0.0071     0.0106     0.0021     0.0014          1       1.19 
   4818.00       5.29     4.2754     0.3166     0.0670     0.0068     0.0103     0.0021     0.0014          1       1.19 
   4818.50       5.54     4.4745     0.3216     0.0667     0.0067     0.0103     0.0023     0.0014          1       1.19 
   4819.00       5.45     4.3611     0.3203     0.0678     0.0069     0.0105     0.0023     0.0014          1       1.19 
   4819.50       5.29     4.3457     0.3146     0.0678     0.0069     0.0105     0.0025     0.0014          1       1.19 
   4820.00       5.29     4.3457     0.3143     0.0678     0.0069     0.0105     0.0024     0.0014          1       1.19 
   4820.50       5.36     4.5304     0.3083     0.0651     0.0083     0.0103     0.0024     0.0012          1       1.19 
   4821.00       5.36     4.5304     0.3086     0.0652     0.0085     0.0104     0.0025     0.0012          1       1.19 
   4821.50       5.13     4.0454     0.2890     0.0628     0.0081     0.0098     0.0021     0.0012          1       1.19 
   4822.00       5.08     4.0454     0.2890     0.0628     0.0081     0.0102     0.0022     0.0013          1       1.19 
   4822.50       3.84     2.9970     0.2434     0.0570     0.0077     0.0097     0.0022     0.0013          1       1.19 
   4823.00       3.50     2.5859     0.2275     0.0550     0.0078     0.0098     0.0021     0.0013          1       1.19 
   4823.50       1.65     1.0233     0.1187     0.0355     0.0055     0.0072     0.0018     0.0010          1       1.19 
   4824.00       0.60     0.3570     0.0578     0.0205     0.0038     0.0042     0.0014     0.0007          1       1.19 
   4824.50       3.79     3.2495     0.1366     0.0257     0.0041     0.0055     0.0016     0.0011          1       1.19 
   4825.00       4.00     3.2727     0.1907     0.0332     0.0041     0.0045     0.0015     0.0008          1       1.19 
   4825.50       3.99     3.2727     0.1907     0.0332     0.0041     0.0048     0.0015     0.0008          1       1.19 
   4826.00       4.17     3.4620     0.1978     0.0340     0.0041     0.0045     0.0017     0.0007          1       1.19 
   4826.50       4.40     3.6627     0.2094     0.0362     0.0043     0.0047     0.0016     0.0009          1       1.19 
   4827.00       4.93     4.1577     0.2385     0.0411     0.0048     0.0053     0.0016     0.0009          1       1.19 
   4827.50       5.43     4.5462     0.2629     0.0449     0.0051     0.0057     0.0018     0.0008          1       1.19 
   4828.00       5.75     4.7027     0.2701     0.0457     0.0052     0.0058     0.0017     0.0010          1       1.19 
   4828.50       5.42     4.5075     0.2586     0.0441     0.0050     0.0056     0.0018     0.0010          1       1.19 
   4829.00       4.45     3.6253     0.2242     0.0402     0.0048     0.0052     0.0016     0.0010          1       1.19 
   4829.50       3.48     2.7228     0.1700     0.0317     0.0041     0.0044     0.0015     0.0008          1       1.19 
   4830.00       4.47     3.6245     0.2248     0.0407     0.0049     0.0054     0.0018     0.0010          1       1.19 
   4830.50       4.71     3.8604     0.2403     0.0434     0.0052     0.0059     0.0018     0.0010          1       1.19 
   4831.00       4.51     3.8482     0.2360     0.0431     0.0052     0.0058     0.0020     0.0010          1       1.19 
   4831.50       3.44     2.8177     0.1658     0.0310     0.0041     0.0045     0.0015     0.0007          1       1.19 
   4832.00       2.66     2.1497     0.1223     0.0236     0.0035     0.0036     0.0014     0.0006          1       1.19 
   4832.50       2.66     2.1497     0.1223     0.0236     0.0035     0.0036     0.0014     0.0006          1       1.19 
   4833.00       3.02     2.3787     0.1492     0.0279     0.0038     0.0040     0.0015     0.0016          1       1.19 
   4833.50       3.48     2.7228     0.1700     0.0317     0.0041     0.0044     0.0015     0.0008          1       1.19 
   4834.00       4.47     3.6245     0.2248     0.0407     0.0049     0.0054     0.0018     0.0010          1       1.19 
   4834.50       4.71     3.8604     0.2403     0.0434     0.0052     0.0059     0.0018     0.0010          1       1.19 
   4835.00       4.51     3.8482     0.2360     0.0431     0.0052     0.0058     0.0022     0.0010          1       1.19 
   4835.50       3.44     2.8177     0.1658     0.0310     0.0041     0.0045     0.0015     0.0007          1       1.19 
   4836.00       2.66     2.1497     0.1223     0.0236     0.0035     0.0036     0.0014     0.0006          1       1.19 
   4836.50       1.99     1.7675     0.0983     0.0193     0.0036     0.0031     0.0019     0.0006          1       1.20 
   4837.00       2.34     1.7875     0.1134     0.0210     0.0034     0.0028     0.0011     0.0004          1       1.20 
   4837.50       3.61     2.8045     0.1753     0.0314     0.0042     0.0040     0.0012     0.0007          1       1.20 
   4838.00       3.93     3.1873     0.1916     0.0338     0.0045     0.0043     0.0013     0.0007          1       1.20 
   4838.50       3.91     3.1788     0.1878     0.0331     0.0043     0.0042     0.0013     0.0006          1       1.20 
   4839.00       4.29     3.4876     0.2076     0.0367     0.0047     0.0046     0.0014     0.0006          1       1.20 
   4839.50       5.03     4.1684     0.2479     0.0432     0.0052     0.0053     0.0015     0.0008          1       1.20 
   4840.00       5.28     4.3961     0.2575     0.0448     0.0054     0.0055     0.0015     0.0008          1       1.20 
   4840.50       5.46     4.5637     0.2660     0.0460     0.0055     0.0057     0.0016     0.0008          1       1.20 
   4841.00       5.57     4.5573     0.2661     0.0459     0.0055     0.0056     0.0016     0.0010          1       1.20 
   4841.50       5.31     4.5573     0.2641     0.0453     0.0055     0.0056     0.0016     0.0008          1       1.20 
   4842.00       5.16     4.2206     0.2456     0.0425     0.0052     0.0052     0.0015     0.0011          1       1.20 
   4842.50       4.91     4.1003     0.2417     0.0423     0.0051     0.0052     0.0015     0.0009          1       1.20 
   4843.00       4.64     3.8609     0.2225     0.0393     0.0049     0.0050     0.0014     0.0007          1       1.20 
   4843.50       4.40     3.6853     0.2150     0.0376     0.0047     0.0047     0.0015     0.0008          1       1.20 
