~VERSION INFORMATION
VERS.    2.0:   CWLS LOG ASCII STANDARD - VERSION 2.0
WRAP.     NO:   ONE LINE PER STEP
~WELL INFORMATION BLOCK
#MNEM.UNIT      DATA                  DESCRIPTION OF MNEMONIC
#----   --------             ---------------
STRT.m  620.00                   :START DEPTH
STOP.m  5139.00                   :STOP DEPTH
STEP.m  0.50                   :STEP VALUE
NULL.  -999.25                   :NULL VALUE
COMP.   SHELL                   :COMPANY NAME
WELL.   PRELUDE P1 ST1                   :WELL NAME
FLD .   PRELUDE                   :FIELD NAME
LOC .   BROWSE BASIN                   :LOCATION
PROV.   NORTH WEST SHELF, W.A.                   :PROVINCE
SRVC.   Geoservices                   :SERVICE COMPANY NAME
DATE.   01-10-2015 15:42:38                   :DATE
UWI .                      :UNIQUE WELL IDENTIFIER
~CURVE INFORMATION
#MNEM.UNIT       API CODE        CURVE DESCRIPTION
#----   -------- ------------------
Tot Depth .m        :Tot Depth
THG IN .%        :THG IN
C1 IN .%        :C1 IN
C2 IN .%        :C2 IN
C3 IN .%        :C3 IN
iC4 IN .%        :iC4 IN
nC4 IN .%        :nC4 IN
iC5 IN .%        :iC5 IN
nC5 IN .%        :nC5 IN
#
#-----------------------------------------------------------
# Tot Depth (m)   THG IN (%)   C1 IN (%)   C2 IN (%)   C3 IN (%)   iC4 IN (%)   nC4 IN (%)   iC5 IN (%)   nC5 IN (%)
#-----------------------------------------------------------
~A
# ...
   3020.00       0.03     0.0181     0.0008     0.0005     0.0009     0.0001     0.0001     0.0000 
   3020.50       0.03     0.0181     0.0008     0.0005     0.0009     0.0001     0.0001     0.0000 
   3021.00       0.03     0.0177     0.0008     0.0005     0.0009     0.0000     0.0001     0.0000 
   3021.50       0.03     0.0177     0.0008     0.0005     0.0009     0.0000     0.0001     0.0000 
   3022.00       0.03     0.0177     0.0008     0.0005     0.0009     0.0000     0.0001     0.0000 
   3022.50       0.03     0.0177     0.0008     0.0005     0.0009     0.0000     0.0001     0.0000 
   3023.00       0.03     0.0188     0.0008     0.0006     0.0009     0.0000     0.0001     0.0000 
   3023.50       0.03     0.0188     0.0008     0.0006     0.0009     0.0000     0.0001     0.0000 
   3024.00       0.03     0.0188     0.0008     0.0006     0.0009     0.0000     0.0001     0.0000 
   3024.50       0.03     0.0188     0.0008     0.0006     0.0009     0.0000     0.0001     0.0000 
   3025.00       0.03     0.0188     0.0008     0.0006     0.0009     0.0000     0.0001     0.0000 
   3025.50       0.03     0.0204     0.0009     0.0006     0.0009     0.0001     0.0001     0.0000 
   3026.00       0.03     0.0204     0.0009     0.0006     0.0009     0.0001     0.0001     0.0000 
   3026.50       0.03     0.0204     0.0009     0.0006     0.0009     0.0001     0.0001     0.0000 
   3027.00       0.03     0.0204     0.0009     0.0006     0.0009     0.0001     0.0001     0.0000 
   3027.50       0.03     0.0204     0.0009     0.0006     0.0009     0.0001     0.0001     0.0000 
   3028.00       0.03     0.0221     0.0009     0.0006     0.0009     0.0001     0.0001     0.0001 
   3028.50       0.03     0.0221     0.0009     0.0006     0.0009     0.0001     0.0001     0.0001 
   3029.00       0.03     0.0221     0.0009     0.0006     0.0009     0.0001     0.0001     0.0001 
   3029.50       0.04     0.0277     0.0011     0.0008     0.0010     0.0001     0.0001     0.0001 
   3030.00       0.04     0.0277     0.0011     0.0008     0.0010     0.0001     0.0001     0.0000 
   3030.50       0.04     0.0277     0.0011     0.0008     0.0010     0.0001     0.0001     0.0000 
   3031.00       0.04     0.0300     0.0012     0.0008     0.0010     0.0001     0.0001     0.0000 
   3031.50       0.04     0.0300     0.0012     0.0008     0.0010     0.0001     0.0001     0.0000 
   3032.00       0.04     0.0300     0.0012     0.0008     0.0010     0.0001     0.0001     0.0000 
   3032.50       0.04     0.0300     0.0012     0.0008     0.0010     0.0001     0.0001     0.0000 
   3033.00       0.04     0.0300     0.0012     0.0008     0.0010     0.0001     0.0001     0.0000 
   3033.50       0.04     0.0300     0.0012     0.0008     0.0010     0.0001     0.0001     0.0000 
   3034.00       0.04     0.0288     0.0012     0.0008     0.0010     0.0001     0.0001     0.0000 
   3034.50       0.04     0.0288     0.0012     0.0008     0.0010     0.0001     0.0001     0.0000 
   3035.00       0.04     0.0294     0.0012     0.0008     0.0010     0.0001     0.0001     0.0000 
   3035.50       0.04     0.0294     0.0012     0.0008     0.0010     0.0001     0.0001     0.0000 
   3036.00       0.04     0.0294     0.0012     0.0008     0.0010     0.0001     0.0001     0.0000 
   3036.50       0.04     0.0294     0.0012     0.0008     0.0010     0.0001     0.0001     0.0000 
   3037.00       0.04     0.0294     0.0012     0.0008     0.0010     0.0001     0.0001     0.0000 
   3037.50       0.04     0.0294     0.0012     0.0008     0.0010     0.0001     0.0001     0.0000 
   3038.00       0.04     0.0294     0.0012     0.0008     0.0010     0.0001     0.0001     0.0000 
   3038.50       0.04     0.0290     0.0012     0.0008     0.0010     0.0001     0.0000     0.0000 
   3039.00       0.04     0.0290     0.0012     0.0008     0.0010     0.0001     0.0000     0.0000 
   3039.50       0.04     0.0290     0.0012     0.0008     0.0010     0.0001     0.0000     0.0000 
   3040.00       0.04     0.0290     0.0012     0.0008     0.0010     0.0001     0.0000     0.0000 
   3040.50       0.04     0.0290     0.0012     0.0008     0.0010     0.0001     0.0000     0.0000 
   3041.00       0.04     0.0281     0.0012     0.0008     0.0010     0.0001     0.0000     0.0000 
   3041.50       0.04     0.0281     0.0012     0.0008     0.0010     0.0001     0.0000     0.0000 
   3042.00       0.04     0.0281     0.0012     0.0008     0.0010     0.0001     0.0000     0.0000 
   3042.50       0.04     0.0281     0.0012     0.0008     0.0010     0.0001     0.0000     0.0000 
   3043.00       0.04     0.0281     0.0012     0.0008     0.0010     0.0001     0.0000     0.0000 
   3043.50       0.04     0.0281     0.0012     0.0008     0.0010     0.0001     0.0001     0.0000 
   3044.00       0.04     0.0255     0.0011     0.0007     0.0010     0.0001     0.0001     0.0000 
   3044.50       0.04     0.0255     0.0011     0.0007     0.0010     0.0001     0.0001     0.0000 
   3045.00       0.04     0.0255     0.0011     0.0007     0.0010     0.0001     0.0001     0.0000 
   3045.50       0.04     0.0255     0.0011     0.0007     0.0010     0.0001     0.0001     0.0001 
   3046.00       0.02     0.0154     0.0007     0.0006     0.0010     0.0001     0.0001     0.0000 
   3046.50       0.02     0.0154     0.0007     0.0006     0.0010     0.0001     0.0001     0.0000 
   3047.00       0.02     0.0154     0.0007     0.0006     0.0010     0.0001     0.0001     0.0000 
   3047.50       0.02     0.0149     0.0007     0.0005     0.0010     0.0001     0.0000     0.0000 
   3048.00       0.02     0.0149     0.0007     0.0005     0.0010     0.0001     0.0000     0.0000 
   3048.50       0.02     0.0149     0.0007     0.0005     0.0010     0.0001     0.0000     0.0000 
   3049.00       0.02     0.0149     0.0007     0.0005     0.0010     0.0001     0.0000     0.0000 
   3049.50       0.02     0.0149     0.0007     0.0005     0.0010     0.0001     0.0001     0.0000 
   3050.00       0.02     0.0143     0.0007     0.0005     0.0010     0.0001     0.0001     0.0000 
   3050.50       0.02     0.0143     0.0007     0.0005     0.0010     0.0001     0.0001     0.0000 
   3051.00       0.02     0.0143     0.0007     0.0005     0.0010     0.0001     0.0001     0.0000 
   3051.50       0.02     0.0143     0.0007     0.0005     0.0010     0.0001     0.0001     0.0000 
   3052.00       0.02     0.0138     0.0007     0.0005     0.0010     0.0001     0.0001     0.0000 
   3052.50       0.02     0.0138     0.0007     0.0005     0.0010     0.0001     0.0001     0.0000 
   3053.00       0.02     0.0138     0.0007     0.0005     0.0010     0.0001     0.0001     0.0000 
   3053.50       0.02     0.0138     0.0007     0.0005     0.0010     0.0001     0.0001     0.0000 
   3054.00       0.02     0.0142     0.0008     0.0005     0.0010     0.0001     0.0001     0.0000 
   3054.50       0.02     0.0142     0.0008     0.0005     0.0010     0.0001     0.0001     0.0000 
   3055.00       0.02     0.0142     0.0008     0.0005     0.0010     0.0001     0.0001     0.0000 
   3055.50       0.02     0.0142     0.0008     0.0005     0.0010     0.0001     0.0001     0.0000 
   3056.00       0.02     0.0142     0.0008     0.0005     0.0010     0.0001     0.0001     0.0000 
   3056.50       0.02     0.0159     0.0008     0.0006     0.0010     0.0001     0.0001     0.0000 
   3057.00       0.02     0.0159     0.0008     0.0006     0.0010     0.0001     0.0001     0.0000 
   3057.50       0.02     0.0159     0.0008     0.0006     0.0010     0.0001     0.0001     0.0000 
   3058.00       0.02     0.0159     0.0008     0.0006     0.0010     0.0001     0.0001     0.0000 
   3058.50       0.02     0.0159     0.0008     0.0006     0.0010     0.0001     0.0001     0.0000 
   3059.00       0.02     0.0159     0.0008     0.0006     0.0010     0.0001     0.0001     0.0000 
   3059.50       0.03     0.0187     0.0008     0.0006     0.0010     0.0001     0.0001     0.0000 
