~VERSION INFORMATION
VERS.    2.0:   CWLS LOG ASCII STANDARD - VERSION 2.0
WRAP.     NO:   ONE LINE PER STEP
~WELL INFORMATION BLOCK
#MNEM.UNIT      DATA                  DESCRIPTION OF MNEMONIC
#----   --------             ---------------
STRT.m  620.00                   :START DEPTH
STOP.m  5139.00                   :STOP DEPTH
STEP.m  0.50                   :STEP VALUE
NULL.  -9999                   :NULL VALUE
COMP.   SHELL                   :COMPANY NAME
WELL.   PRELUDE P1 ST1                   :WELL NAME
FLD .   PRELUDE                   :FIELD NAME
LOC .   BROWSE BASIN                   :LOCATION
PROV.   NORTH WEST SHELF, W.A.                   :PROVINCE
SRVC.   Geoservices                   :SERVICE COMPANY NAME
DATE.   01-10-2015 15:42:04                   :DATE
UWI .                      :UNIQUE WELL IDENTIFIER
~CURVE INFORMATION
#MNEM.UNIT       API CODE        CURVE DESCRIPTION
#----   -------- ------------------
Tot Depth .m        :Tot Depth
T GAS main .%        :T GAS main
C1  main .%        :C1  main
C2  main .%        :C2  main
C3  main .%        :C3  main
iC4 main .%        :iC4 main
nC4 main .%        :nC4 main
iC5 main .%        :iC5 main
nC5 main .%        :nC5 main
C02 .ppm        :C02
MW IN .kg/l        :MW IN
#
#-----------------------------------------------------------
# Tot Depth (m)   T GAS main (%)   C1  main (%)   C2  main (%)   C3  main (%)   iC4 main (%)   nC4 main (%)   iC5 main (%)   nC5 main (%)   C02 (ppm)   MW IN (kg/l)
#-----------------------------------------------------------
~A
# ...
   3920.00       1.57     0.8833     0.1483     0.0598     0.0096     0.0155     0.0041     0.0045          1       1.46 
   3920.50       1.60     0.9457     0.1545     0.0607     0.0096     0.0155     0.0043     0.0046          1       1.46 
   3921.00       1.67     0.9842     0.1564     0.0613     0.0097     0.0156     0.0043     0.0046          1       1.46 
   3921.50       1.49     0.8846     0.1393     0.0551     0.0090     0.0141     0.0039     0.0041          1       1.46 
   3922.00       1.38     0.8171     0.1275     0.0496     0.0084     0.0126     0.0035     0.0036          1       1.46 
   3922.50       1.49     0.8625     0.1344     0.0521     0.0086     0.0130     0.0036     0.0036          1       1.46 
   3923.00       1.63     0.9382     0.1478     0.0570     0.0091     0.0141     0.0038     0.0038          1       1.46 
   3923.50       1.65     1.0076     0.1600     0.0617     0.0095     0.0153     0.0042     0.0043          1       1.46 
   3924.00       1.68     1.0106     0.1604     0.0617     0.0095     0.0153     0.0042     0.0044          1       1.46 
   3924.50       1.75     1.0468     0.1644     0.0624     0.0095     0.0154     0.0041     0.0044          1       1.46 
   3925.00       1.75     1.0586     0.1652     0.0626     0.0095     0.0154     0.0041     0.0044          1       1.46 
   3925.50       1.73     1.0665     0.1663     0.0628     0.0095     0.0154     0.0041     0.0044          1       1.46 
   3926.00       1.80     1.0950     0.1691     0.0633     0.0095     0.0154     0.0043     0.0044          1       1.46 
   3926.50       1.81     1.0950     0.1691     0.0633     0.0095     0.0154     0.0043     0.0044          1       1.46 
   3927.00       1.78     1.1031     0.1712     0.0642     0.0096     0.0156     0.0043     0.0045          1       1.46 
   3927.50       1.84     1.1176     0.1726     0.0647     0.0097     0.0157     0.0042     0.0044          1       1.46 
   3928.00       1.84     1.1253     0.1738     0.0649     0.0097     0.0157     0.0042     0.0045          1       1.46 
   3928.50       1.81     1.1268     0.1750     0.0655     0.0098     0.0159     0.0043     0.0045          1       1.46 
   3929.00       1.82     1.1379     0.1755     0.0657     0.0098     0.0159     0.0043     0.0044          1       1.46 
   3929.50       1.86     1.1387     0.1756     0.0657     0.0098     0.0159     0.0042     0.0044          1       1.46 
   3930.00       1.79     1.1387     0.1756     0.0656     0.0098     0.0159     0.0047     0.0048          1       1.46 
   3930.50       1.79     1.1176     0.1725     0.0647     0.0098     0.0160     0.0047     0.0048          1       1.46 
   3931.00       1.87     1.1201     0.1737     0.0653     0.0099     0.0159     0.0043     0.0045          1       1.46 
   3931.50       1.84     1.1530     0.1795     0.0676     0.0101     0.0166     0.0044     0.0047          1       1.46 
   3932.00       1.84     1.1530     0.1795     0.0676     0.0101     0.0166     0.0045     0.0047          1       1.46 
   3932.50       1.84     1.1345     0.1769     0.0670     0.0101     0.0164     0.0045     0.0046          1       1.46 
   3933.00       1.80     1.1134     0.1750     0.0663     0.0100     0.0162     0.0044     0.0046          1       1.46 
   3933.50       1.86     1.1378     0.1797     0.0678     0.0100     0.0164     0.0044     0.0046          1       1.46 
   3934.00       1.92     1.1616     0.1833     0.0688     0.0101     0.0164     0.0043     0.0045          1       1.46 
   3934.50       1.89     1.1791     0.1855     0.0695     0.0102     0.0166     0.0044     0.0047          1       1.46 
   3935.00       1.91     1.1912     0.1878     0.0701     0.0103     0.0167     0.0045     0.0048          1       1.46 
   3935.50       1.96     1.1997     0.1883     0.0702     0.0103     0.0167     0.0045     0.0048          1       1.46 
   3936.00       1.90     1.1997     0.1883     0.0702     0.0103     0.0167     0.0046     0.0047          1       1.46 
   3936.50       1.90     1.1834     0.1859     0.0695     0.0103     0.0167     0.0046     0.0047          1       1.46 
   3937.00       1.94     1.1826     0.1847     0.0692     0.0103     0.0166     0.0044     0.0046          1       1.46 
   3937.50       1.87     1.1826     0.1847     0.0691     0.0103     0.0166     0.0044     0.0047          1       1.46 
   3938.00       1.89     1.1781     0.1846     0.0692     0.0103     0.0166     0.0045     0.0047          1       1.46 
   3938.50       1.94     1.1801     0.1859     0.0695     0.0103     0.0167     0.0044     0.0046          1       1.46 
   3939.00       1.94     1.1886     0.1881     0.0706     0.0103     0.0169     0.0046     0.0048          1       1.46 
   3939.50       1.95     1.1968     0.1897     0.0711     0.0105     0.0169     0.0046     0.0048          1       1.46 
   3940.00       2.01     1.2301     0.1943     0.0726     0.0106     0.0172     0.0045     0.0047          1       1.46 
   3940.50       2.00     1.2301     0.1943     0.0726     0.0106     0.0172     0.0045     0.0047          1       1.46 
   3941.00       1.95     1.2301     0.1943     0.0726     0.0108     0.0173     0.0045     0.0048          1       1.46 
   3941.50       1.97     1.2144     0.1916     0.0717     0.0106     0.0171     0.0046     0.0048          1       1.46 
   3942.00       1.96     1.2068     0.1888     0.0708     0.0106     0.0171     0.0045     0.0048          1       1.46 
   3942.50       1.66     1.0278     0.1618     0.0626     0.0099     0.0158     0.0043     0.0046          1       1.46 
   3943.00       1.58     0.9369     0.1485     0.0585     0.0095     0.0150     0.0042     0.0045          1       1.46 
   3943.50       1.62     0.9383     0.1491     0.0590     0.0096     0.0150     0.0042     0.0044          1       1.46 
   3944.00       1.62     0.9694     0.1546     0.0607     0.0097     0.0154     0.0043     0.0044          1       1.46 
   3944.50       1.71     1.0144     0.1600     0.0622     0.0099     0.0156     0.0043     0.0045          1       1.46 
   3945.00       1.73     1.0324     0.1616     0.0627     0.0099     0.0158     0.0044     0.0045          1       1.46 
   3945.50       1.72     1.0502     0.1616     0.0627     0.0099     0.0158     0.0044     0.0045          1       1.46 
   3946.00       1.73     1.0502     0.1616     0.0627     0.0099     0.0158     0.0044     0.0045          1       1.46 
   3946.50       1.73     1.0487     0.1600     0.0624     0.0099     0.0157     0.0044     0.0046          1       1.46 
   3947.00       1.59     1.0021     0.1526     0.0607     0.0098     0.0155     0.0043     0.0045          1       1.46 
   3947.50       1.31     0.6606     0.1182     0.0508     0.0089     0.0136     0.0039     0.0040          1       1.46 
   3948.00       1.43     0.7625     0.1333     0.0550     0.0094     0.0144     0.0040     0.0044          1       1.46 
   3948.50       1.48     0.8268     0.1426     0.0578     0.0094     0.0150     0.0042     0.0044          1       1.46 
   3949.00       1.54     0.8771     0.1500     0.0596     0.0097     0.0151     0.0042     0.0043          1       1.46 
   3949.50       1.61     0.9531     0.1573     0.0610     0.0098     0.0153     0.0043     0.0045          1       1.46 
   3950.00       1.68     0.9927     0.1597     0.0614     0.0098     0.0153     0.0044     0.0044          1       1.46 
   3950.50       1.68     0.9927     0.1597     0.0614     0.0098     0.0153     0.0044     0.0044          1       1.46 
   3951.00       1.66     1.0051     0.1598     0.0614     0.0098     0.0153     0.0044     0.0044          1       1.46 
   3951.50       1.72     1.0316     0.1622     0.0617     0.0098     0.0153     0.0043     0.0043          1       1.46 
   3952.00       1.72     1.0316     0.1622     0.0617     0.0098     0.0153     0.0042     0.0044          1       1.46 
   3952.50       1.73     1.0404     0.1638     0.0624     0.0098     0.0154     0.0043     0.0044          1       1.46 
