~VERSION INFORMATION
VERS.    2.0:   CWLS LOG ASCII STANDARD - VERSION 2.0
WRAP.     NO:   ONE LINE PER STEP
~WELL INFORMATION BLOCK
#MNEM.UNIT      DATA                  DESCRIPTION OF MNEMONIC
#----   --------             ---------------
STRT.m  620.00                   :START DEPTH
STOP.m  5139.00                   :STOP DEPTH
STEP.m  0.50                   :STEP VALUE
NULL.  -999.25                   :NULL VALUE
COMP.   SHELL                   :COMPANY NAME
WELL.   PRELUDE P1 ST1                   :WELL NAME
FLD .   PRELUDE                   :FIELD NAME
LOC .   BROWSE BASIN                   :LOCATION
PROV.   NORTH WEST SHELF, W.A.                   :PROVINCE
SRVC.   Geoservices                   :SERVICE COMPANY NAME
DATE.   01-10-2015 15:42:38                   :DATE
UWI .                      :UNIQUE WELL IDENTIFIER
~CURVE INFORMATION
#MNEM.UNIT       API CODE        CURVE DESCRIPTION
#----   -------- ------------------
Tot Depth .m        :Tot Depth
THG IN .%        :THG IN
C1 IN .%        :C1 IN
C2 IN .%        :C2 IN
C3 IN .%        :C3 IN
iC4 IN .%        :iC4 IN
nC4 IN .%        :nC4 IN
iC5 IN .%        :iC5 IN
nC5 IN .%        :nC5 IN
#
#-----------------------------------------------------------
# Tot Depth (m)   THG IN (%)   C1 IN (%)   C2 IN (%)   C3 IN (%)   iC4 IN (%)   nC4 IN (%)   iC5 IN (%)   nC5 IN (%)
#-----------------------------------------------------------
~A
# ...
   3900.00       0.28     0.1345     0.0286     0.0154     0.0029     0.0048     0.0014     0.0017 
   3900.50       0.28     0.1345     0.0286     0.0154     0.0029     0.0048     0.0014     0.0017 
   3901.00       0.30     0.1504     0.0302     0.0157     0.0029     0.0049     0.0014     0.0017 
   3901.50       0.30     0.1504     0.0302     0.0157     0.0029     0.0049     0.0014     0.0016 
   3902.00       0.30     0.1504     0.0302     0.0157     0.0029     0.0049     0.0014     0.0016 
   3902.50       0.31     0.1574     0.0313     0.0161     0.0030     0.0049     0.0014     0.0019 
   3903.00       0.31     0.1574     0.0313     0.0161     0.0030     0.0049     0.0014     0.0019 
   3903.50       0.31     0.1574     0.0313     0.0161     0.0030     0.0049     0.0014     0.0019 
   3904.00       0.32     0.1593     0.0320     0.0164     0.0030     0.0049     0.0015     0.0019 
   3904.50       0.32     0.1593     0.0320     0.0164     0.0030     0.0049     0.0015     0.0016 
   3905.00       0.32     0.1593     0.0320     0.0164     0.0030     0.0049     0.0015     0.0016 
   3905.50       0.33     0.1643     0.0329     0.0166     0.0030     0.0049     0.0015     0.0016 
   3906.00       0.33     0.1643     0.0329     0.0166     0.0030     0.0049     0.0014     0.0016 
   3906.50       0.33     0.1643     0.0329     0.0166     0.0030     0.0049     0.0014     0.0016 
   3907.00       0.33     0.1702     0.0337     0.0168     0.0030     0.0050     0.0014     0.0016 
   3907.50       0.33     0.1702     0.0337     0.0168     0.0030     0.0050     0.0014     0.0016 
   3908.00       0.33     0.1702     0.0337     0.0168     0.0030     0.0050     0.0014     0.0016 
   3908.50       0.35     0.1802     0.0355     0.0175     0.0031     0.0051     0.0015     0.0016 
   3909.00       0.35     0.1802     0.0355     0.0175     0.0031     0.0051     0.0015     0.0015 
   3909.50       0.35     0.1830     0.0358     0.0175     0.0031     0.0051     0.0015     0.0016 
   3910.00       0.36     0.1854     0.0363     0.0177     0.0031     0.0051     0.0015     0.0016 
   3910.50       0.36     0.1854     0.0363     0.0177     0.0031     0.0051     0.0015     0.0016 
   3911.00       0.36     0.1854     0.0363     0.0177     0.0031     0.0051     0.0015     0.0016 
   3911.50       0.37     0.1908     0.0371     0.0180     0.0031     0.0052     0.0015     0.0016 
   3912.00       0.37     0.1908     0.0371     0.0180     0.0031     0.0052     0.0015     0.0016 
   3912.50       0.37     0.1908     0.0371     0.0180     0.0031     0.0052     0.0015     0.0016 
   3913.00       0.37     0.1908     0.0371     0.0181     0.0031     0.0052     0.0015     0.0017 
   3913.50       0.37     0.1896     0.0371     0.0181     0.0031     0.0051     0.0015     0.0017 
   3914.00       0.37     0.1896     0.0371     0.0181     0.0031     0.0051     0.0015     0.0017 
   3914.50       0.37     0.1918     0.0373     0.0181     0.0031     0.0052     0.0015     0.0017 
   3915.00       0.37     0.1918     0.0373     0.0181     0.0031     0.0052     0.0015     0.0016 
   3915.50       0.37     0.1918     0.0373     0.0181     0.0031     0.0052     0.0015     0.0016 
   3916.00       0.37     0.1944     0.0373     0.0181     0.0031     0.0052     0.0015     0.0017 
   3916.50       0.37     0.1944     0.0370     0.0179     0.0031     0.0051     0.0015     0.0017 
   3917.00       0.37     0.1944     0.0370     0.0179     0.0031     0.0051     0.0015     0.0017 
   3917.50       0.37     0.1944     0.0370     0.0179     0.0031     0.0051     0.0015     0.0017 
   3918.00       0.31     0.1549     0.0303     0.0157     0.0030     0.0048     0.0014     0.0016 
   3918.50       0.29     0.1394     0.0285     0.0151     0.0029     0.0047     0.0014     0.0016 
   3919.00       0.29     0.1394     0.0285     0.0152     0.0029     0.0048     0.0014     0.0016 
   3919.50       0.27     0.1275     0.0279     0.0152     0.0029     0.0048     0.0014     0.0016 
   3920.00       0.28     0.1318     0.0281     0.0152     0.0029     0.0048     0.0014     0.0016 
   3920.50       0.28     0.1318     0.0281     0.0150     0.0029     0.0047     0.0014     0.0016 
   3921.00       0.28     0.1318     0.0281     0.0150     0.0029     0.0047     0.0014     0.0016 
   3921.50       0.28     0.1319     0.0281     0.0150     0.0029     0.0047     0.0014     0.0016 
   3922.00       0.28     0.1319     0.0278     0.0147     0.0029     0.0046     0.0014     0.0016 
   3922.50       0.28     0.1319     0.0278     0.0147     0.0029     0.0046     0.0014     0.0016 
   3923.00       0.28     0.1339     0.0281     0.0148     0.0029     0.0047     0.0014     0.0016 
   3923.50       0.28     0.1339     0.0281     0.0148     0.0028     0.0047     0.0014     0.0016 
   3924.00       0.28     0.1339     0.0281     0.0148     0.0028     0.0047     0.0014     0.0016 
   3924.50       0.28     0.1339     0.0281     0.0148     0.0028     0.0047     0.0014     0.0016 
   3925.00       0.28     0.1339     0.0281     0.0148     0.0029     0.0047     0.0015     0.0016 
   3925.50       0.28     0.1339     0.0281     0.0148     0.0029     0.0047     0.0015     0.0016 
   3926.00       0.28     0.1339     0.0281     0.0148     0.0029     0.0047     0.0015     0.0016 
   3926.50       0.28     0.1348     0.0286     0.0150     0.0029     0.0047     0.0015     0.0016 
   3927.00       0.28     0.1348     0.0286     0.0150     0.0029     0.0047     0.0014     0.0016 
   3927.50       0.28     0.1348     0.0286     0.0150     0.0029     0.0047     0.0014     0.0016 
   3928.00       0.28     0.1348     0.0286     0.0150     0.0029     0.0047     0.0014     0.0016 
   3928.50       0.27     0.1290     0.0284     0.0149     0.0029     0.0047     0.0014     0.0015 
   3929.00       0.27     0.1290     0.0284     0.0149     0.0029     0.0047     0.0014     0.0015 
   3929.50       0.31     0.1502     0.0319     0.0163     0.0030     0.0049     0.0014     0.0016 
   3930.00       0.31     0.1502     0.0319     0.0163     0.0030     0.0049     0.0014     0.0016 
   3930.50       0.31     0.1502     0.0319     0.0163     0.0030     0.0049     0.0014     0.0016 
   3931.00       0.34     0.1717     0.0342     0.0168     0.0031     0.0050     0.0015     0.0016 
   3931.50       0.34     0.1717     0.0342     0.0168     0.0031     0.0050     0.0015     0.0016 
   3932.00       0.34     0.1717     0.0342     0.0168     0.0031     0.0050     0.0015     0.0016 
   3932.50       0.36     0.1867     0.0363     0.0175     0.0031     0.0051     0.0016     0.0017 
   3933.00       0.36     0.1867     0.0363     0.0175     0.0031     0.0051     0.0016     0.0017 
   3933.50       0.36     0.1867     0.0363     0.0175     0.0031     0.0051     0.0016     0.0017 
   3934.00       0.37     0.1964     0.0374     0.0178     0.0031     0.0051     0.0016     0.0017 
   3934.50       0.37     0.1964     0.0374     0.0178     0.0031     0.0051     0.0015     0.0017 
   3935.00       0.37     0.1964     0.0374     0.0178     0.0031     0.0051     0.0015     0.0017 
   3935.50       0.37     0.1964     0.0374     0.0178     0.0031     0.0051     0.0015     0.0017 
   3936.00       0.38     0.2005     0.0382     0.0179     0.0032     0.0052     0.0015     0.0017 
   3936.50       0.38     0.2005     0.0382     0.0179     0.0032     0.0052     0.0015     0.0017 
   3937.00       0.38     0.2005     0.0382     0.0179     0.0032     0.0052     0.0015     0.0017 
   3937.50       0.39     0.2064     0.0388     0.0182     0.0032     0.0052     0.0016     0.0017 
   3938.00       0.39     0.2064     0.0388     0.0182     0.0032     0.0052     0.0016     0.0016 
   3938.50       0.39     0.2064     0.0388     0.0182     0.0032     0.0052     0.0016     0.0016 
   3939.00       0.40     0.2115     0.0398     0.0186     0.0032     0.0053     0.0016     0.0016 
   3939.50       0.40     0.2115     0.0398     0.0186     0.0032     0.0053     0.0016     0.0016 
