~VERSION INFORMATION
VERS.    2.0:   CWLS LOG ASCII STANDARD - VERSION 2.0
WRAP.     NO:   ONE LINE PER STEP
~WELL INFORMATION BLOCK
#MNEM.UNIT      DATA                  DESCRIPTION OF MNEMONIC
#----   --------             ---------------
STRT.m  620.00                   :START DEPTH
STOP.m  5139.00                   :STOP DEPTH
STEP.m  0.50                   :STEP VALUE
NULL.  -999.25                   :NULL VALUE
COMP.   SHELL                   :COMPANY NAME
WELL.   PRELUDE P1 ST1                   :WELL NAME
FLD .   PRELUDE                   :FIELD NAME
LOC .   BROWSE BASIN                   :LOCATION
PROV.   NORTH WEST SHELF, W.A.                   :PROVINCE
SRVC.   Geoservices                   :SERVICE COMPANY NAME
DATE.   01-10-2015 15:42:38                   :DATE
UWI .                      :UNIQUE WELL IDENTIFIER
~CURVE INFORMATION
#MNEM.UNIT       API CODE        CURVE DESCRIPTION
#----   -------- ------------------
Tot Depth .m        :Tot Depth
THG IN .%        :THG IN
C1 IN .%        :C1 IN
C2 IN .%        :C2 IN
C3 IN .%        :C3 IN
iC4 IN .%        :iC4 IN
nC4 IN .%        :nC4 IN
iC5 IN .%        :iC5 IN
nC5 IN .%        :nC5 IN
#
#-----------------------------------------------------------
# Tot Depth (m)   THG IN (%)   C1 IN (%)   C2 IN (%)   C3 IN (%)   iC4 IN (%)   nC4 IN (%)   iC5 IN (%)   nC5 IN (%)
#-----------------------------------------------------------
~A
# ...
   2420.00       0.00     0.0005     0.0000     0.0000     0.0003     0.0000     0.0001     0.0002 
   2420.50       0.00     0.0005     0.0000     0.0000     0.0003     0.0000     0.0001     0.0002 
   2421.00       0.00     0.0005     0.0000     0.0000     0.0003     0.0000     0.0001     0.0002 
   2421.50       0.00     0.0005     0.0000     0.0000     0.0003     0.0000     0.0001     0.0000 
   2422.00       0.00     0.0005     0.0000     0.0000     0.0003     0.0000     0.0001     0.0000 
   2422.50       0.00     0.0005     0.0000     0.0000     0.0003     0.0000     0.0000     0.0000 
   2423.00       0.00     0.0005     0.0000     0.0000     0.0003     0.0000     0.0000     0.0000 
   2423.50       0.00     0.0005     0.0000     0.0000     0.0003     0.0000     0.0001     0.0000 
   2424.00       0.00     0.0004     0.0000     0.0000     0.0003     0.0000     0.0001     0.0001 
   2424.50       0.00     0.0002     0.0000     0.0000     0.0003     0.0000     0.0001     0.0001 
   2425.00       0.00     0.0002     0.0000     0.0000     0.0003     0.0000     0.0001     0.0000 
   2425.50       0.00     0.0020     0.0000     0.0000     0.0003     0.0000     0.0001     0.0000 
   2426.00       0.00     0.0020     0.0000     0.0000     0.0003     0.0000     0.0001     0.0000 
   2426.50       0.00     0.0020     0.0000     0.0000     0.0003     0.0001     0.0001     0.0000 
   2427.00       0.00     0.0020     0.0000     0.0000     0.0002     0.0001     0.0000     0.0000 
   2427.50       0.00     0.0019     0.0001     0.0001     0.0003     0.0001     0.0001     0.0000 
   2428.00       0.00     0.0019     0.0001     0.0001     0.0003     0.0001     0.0001     0.0000 
   2428.50       0.00     0.0005     0.0000     0.0000     0.0002     0.0000     0.0000     0.0000 
   2429.00       0.00     0.0005     0.0000     0.0000     0.0002     0.0000     0.0000     0.0000 
   2429.50       0.00     0.0005     0.0000     0.0000     0.0002     0.0000     0.0000     0.0000 
   2430.00       0.00     0.0000     0.0000     0.0000     0.0002     0.0000     0.0000     0.0000 
   2430.50       0.00     0.0000     0.0000     0.0000     0.0002     0.0000     0.0000     0.0000 
   2431.00       0.00     0.0000     0.0000     0.0000     0.0002     0.0000     0.0000     0.0000 
   2431.50       0.00     0.0000     0.0000     0.0000     0.0002     0.0000     0.0000     0.0000 
   2432.00       0.00     0.0001     0.0000     0.0000     0.0002     0.0000     0.0000     0.0000 
   2432.50       0.00     0.0001     0.0000     0.0000     0.0002     0.0000     0.0000     0.0000 
   2433.00       0.00     0.0001     0.0000     0.0000     0.0002     0.0000     0.0000     0.0000 
   2433.50       0.00     0.0001     0.0000     0.0000     0.0002     0.0000     0.0000     0.0000 
   2434.00       0.00     0.0001     0.0000     0.0000     0.0002     0.0000     0.0000     0.0000 
   2434.50       0.00     0.0003     0.0000     0.0001     0.0003     0.0000     0.0001     0.0000 
   2435.00       0.00     0.0003     0.0000     0.0001     0.0003     0.0000     0.0001     0.0000 
   2435.50       0.00     0.0003     0.0000     0.0001     0.0003     0.0000     0.0001     0.0000 
   2436.00       0.00     0.0003     0.0000     0.0001     0.0003     0.0000     0.0001     0.0000 
   2436.50       0.01     0.0043     0.0003     0.0003     0.0003     0.0001     0.0001     0.0000 
   2437.00       0.01     0.0046     0.0003     0.0003     0.0003     0.0002     0.0001     0.0000 
   2437.50       0.01     0.0046     0.0003     0.0003     0.0003     0.0002     0.0001     0.0000 
   2438.00       0.01     0.0046     0.0003     0.0003     0.0003     0.0002     0.0001     0.0000 
   2438.50       0.01     0.0046     0.0003     0.0003     0.0003     0.0002     0.0001     0.0000 
   2439.00       0.01     0.0046     0.0003     0.0003     0.0003     0.0002     0.0001     0.0001 
   2439.50       0.01     0.0045     0.0003     0.0003     0.0003     0.0001     0.0001     0.0001 
   2440.00       0.01     0.0045     0.0003     0.0003     0.0003     0.0001     0.0001     0.0001 
   2440.50       0.01     0.0056     0.0003     0.0003     0.0003     0.0001     0.0001     0.0001 
   2441.00       0.01     0.0059     0.0002     0.0002     0.0003     0.0001     0.0001     0.0001 
   2441.50       0.01     0.0059     0.0002     0.0002     0.0003     0.0001     0.0001     0.0000 
   2442.00       0.01     0.0059     0.0002     0.0002     0.0003     0.0001     0.0001     0.0000 
   2442.50       0.01     0.0059     0.0002     0.0002     0.0003     0.0001     0.0001     0.0000 
   2443.00       0.01     0.0059     0.0002     0.0002     0.0003     0.0001     0.0001     0.0000 
   2443.50       0.01     0.0060     0.0002     0.0002     0.0003     0.0001     0.0001     0.0000 
   2444.00       0.01     0.0060     0.0002     0.0002     0.0003     0.0001     0.0001     0.0000 
   2444.50       0.01     0.0060     0.0002     0.0002     0.0003     0.0001     0.0001     0.0000 
   2445.00       0.01     0.0060     0.0002     0.0002     0.0003     0.0001     0.0001     0.0000 
   2445.50       0.01     0.0060     0.0002     0.0002     0.0003     0.0001     0.0001     0.0001 
   2446.00       0.01     0.0056     0.0001     0.0001     0.0003     0.0001     0.0000     0.0001 
   2446.50       0.01     0.0056     0.0001     0.0001     0.0003     0.0001     0.0000     0.0001 
   2447.00       0.01     0.0056     0.0001     0.0001     0.0003     0.0001     0.0000     0.0001 
   2447.50       0.01     0.0056     0.0001     0.0001     0.0003     0.0001     0.0000     0.0001 
   2448.00       0.01     0.0056     0.0001     0.0001     0.0003     0.0001     0.0000     0.0001 
   2448.50       0.01     0.0056     0.0001     0.0001     0.0003     0.0001     0.0000     0.0001 
   2449.00       0.01     0.0056     0.0001     0.0001     0.0003     0.0001     0.0000     0.0000 
   2449.50       0.01     0.0056     0.0001     0.0001     0.0003     0.0001     0.0000     0.0000 
   2450.00       0.01     0.0056     0.0001     0.0001     0.0003     0.0001     0.0000     0.0000 
   2450.50       0.01     0.0056     0.0001     0.0001     0.0003     0.0001     0.0000     0.0000 
   2451.00       0.01     0.0048     0.0001     0.0001     0.0003     0.0001     0.0000     0.0000 
   2451.50       0.01     0.0048     0.0001     0.0001     0.0003     0.0001     0.0000     0.0000 
   2452.00       0.01     0.0048     0.0001     0.0001     0.0003     0.0001     0.0000     0.0000 
   2452.50       0.01     0.0048     0.0001     0.0001     0.0003     0.0001     0.0000     0.0000 
   2453.00       0.01     0.0049     0.0001     0.0001     0.0003     0.0001     0.0000     0.0000 
   2453.50       0.01     0.0049     0.0001     0.0001     0.0003     0.0001     0.0000     0.0000 
   2454.00       0.01     0.0049     0.0001     0.0001     0.0003     0.0001     0.0000     0.0000 
   2454.50       0.01     0.0049     0.0001     0.0001     0.0003     0.0001     0.0000     0.0000 
   2455.00       0.01     0.0049     0.0001     0.0001     0.0003     0.0001     0.0000     0.0000 
   2455.50       0.01     0.0049     0.0001     0.0001     0.0003     0.0001     0.0001     0.0000 
   2456.00       0.01     0.0049     0.0001     0.0001     0.0003     0.0001     0.0001     0.0000 
   2456.50       0.01     0.0049     0.0001     0.0001     0.0003     0.0001     0.0001     0.0000 
   2457.00       0.01     0.0049     0.0001     0.0001     0.0003     0.0001     0.0001     0.0000 
   2457.50       0.01     0.0049     0.0001     0.0001     0.0003     0.0001     0.0001     0.0000 
   2458.00       0.01     0.0049     0.0001     0.0001     0.0003     0.0001     0.0002     0.0001 
   2458.50       0.01     0.0049     0.0001     0.0001     0.0003     0.0001     0.0002     0.0001 
   2459.00       0.01     0.0049     0.0001     0.0001     0.0003     0.0001     0.0002     0.0001 
   2459.50       0.01     0.0049     0.0001     0.0001     0.0003     0.0001     0.0002     0.0001 
