~VERSION INFORMATION
VERS.    2.0:   CWLS LOG ASCII STANDARD - VERSION 2.0
WRAP.     NO:   ONE LINE PER STEP
~WELL INFORMATION BLOCK
#MNEM.UNIT      DATA                  DESCRIPTION OF MNEMONIC
#----   --------             ---------------
STRT.m  620.00                   :START DEPTH
STOP.m  5139.00                   :STOP DEPTH
STEP.m  0.50                   :STEP VALUE
NULL.  -999.25                   :NULL VALUE
COMP.   SHELL                   :COMPANY NAME
WELL.   PRELUDE P1 ST1                   :WELL NAME
FLD .   PRELUDE                   :FIELD NAME
LOC .   BROWSE BASIN                   :LOCATION
PROV.   NORTH WEST SHELF, W.A.                   :PROVINCE
SRVC.   Geoservices                   :SERVICE COMPANY NAME
DATE.   01-10-2015 15:42:38                   :DATE
UWI .                      :UNIQUE WELL IDENTIFIER
~CURVE INFORMATION
#MNEM.UNIT       API CODE        CURVE DESCRIPTION
#----   -------- ------------------
Tot Depth .m        :Tot Depth
THG IN .%        :THG IN
C1 IN .%        :C1 IN
C2 IN .%        :C2 IN
C3 IN .%        :C3 IN
iC4 IN .%        :iC4 IN
nC4 IN .%        :nC4 IN
iC5 IN .%        :iC5 IN
nC5 IN .%        :nC5 IN
#
#-----------------------------------------------------------
# Tot Depth (m)   THG IN (%)   C1 IN (%)   C2 IN (%)   C3 IN (%)   iC4 IN (%)   nC4 IN (%)   iC5 IN (%)   nC5 IN (%)
#-----------------------------------------------------------
~A
# ...
   1220.00       0.00     0.0000     0.0000     0.0000     0.0000     0.0000     0.0000     0.0000 
   1220.50       0.00     0.0000     0.0000     0.0000     0.0000     0.0000     0.0000     0.0000 
   1221.00       0.00     0.0000     0.0000     0.0000     0.0000     0.0000     0.0000     0.0000 
   1221.50       0.00     0.0000     0.0000     0.0000     0.0000     0.0000     0.0000     0.0000 
   1222.00       0.00     0.0000     0.0000     0.0000     0.0000     0.0000     0.0000     0.0000 
   1222.50       0.00     0.0000     0.0000     0.0000     0.0000     0.0000     0.0000     0.0000 
   1223.00       0.00     0.0000     0.0000     0.0000     0.0000     0.0000     0.0000     0.0000 
   1223.50       0.00     0.0000     0.0000     0.0000     0.0000     0.0000     0.0000     0.0000 
   1224.00       0.00     0.0000     0.0000     0.0000     0.0000     0.0000     0.0000     0.0000 
   1224.50       0.00     0.0000     0.0000     0.0000     0.0000     0.0000     0.0000     0.0000 
   1225.00       0.00     0.0000     0.0000     0.0000     0.0000     0.0000     0.0000     0.0000 
   1225.50       0.00     0.0000     0.0000     0.0000     0.0000     0.0000     0.0000     0.0000 
   1226.00       0.00     0.0000     0.0000     0.0000     0.0000     0.0000     0.0000     0.0000 
   1226.50       0.00     0.0000     0.0000     0.0000     0.0000     0.0000     0.0000     0.0000 
   1227.00       0.00     0.0000     0.0000     0.0000     0.0000     0.0000     0.0000     0.0000 
   1227.50       0.00     0.0000     0.0000     0.0000     0.0000     0.0000     0.0000     0.0000 
   1228.00       0.00     0.0000     0.0000     0.0000     0.0000     0.0000     0.0000     0.0000 
   1228.50       0.00     0.0000     0.0000     0.0000     0.0000     0.0000     0.0000     0.0000 
   1229.00       0.00     0.0000     0.0000     0.0000     0.0000     0.0000     0.0000     0.0000 
   1229.50       0.00     0.0000     0.0000     0.0000     0.0000     0.0000     0.0000     0.0000 
   1230.00       0.00     0.0000     0.0000     0.0000     0.0000     0.0000     0.0000     0.0000 
   1230.50       0.00     0.0000     0.0000     0.0000     0.0000     0.0000     0.0000     0.0000 
   1231.00       0.00     0.0000     0.0000     0.0000     0.0000     0.0000     0.0000     0.0000 
   1231.50       0.00     0.0000     0.0000     0.0000     0.0000     0.0000     0.0000     0.0000 
   1232.00       0.00     0.0000     0.0000     0.0000     0.0000     0.0000     0.0000     0.0000 
   1232.50       0.00     0.0000     0.0000     0.0000     0.0000     0.0000     0.0000     0.0000 
   1233.00       0.00     0.0000     0.0000     0.0000     0.0000     0.0000     0.0000     0.0000 
   1233.50       0.00     0.0000     0.0000     0.0000     0.0000     0.0000     0.0000     0.0000 
   1234.00       0.00     0.0000     0.0000     0.0000     0.0000     0.0000     0.0000     0.0000 
   1234.50       0.00     0.0000     0.0000     0.0000     0.0000     0.0000     0.0000     0.0000 
   1235.00       0.00     0.0000     0.0000     0.0000     0.0000     0.0000     0.0000     0.0000 
   1235.50       0.00     0.0000     0.0000     0.0000     0.0000     0.0000     0.0000     0.0000 
   1236.00       0.00     0.0000     0.0000     0.0000     0.0000     0.0000     0.0000     0.0000 
   1236.50       0.00     0.0000     0.0000     0.0000     0.0000     0.0000     0.0000     0.0000 
   1237.00       0.00     0.0000     0.0000     0.0000     0.0000     0.0000     0.0000     0.0000 
   1237.50       0.00     0.0000     0.0000     0.0000     0.0000     0.0000     0.0000     0.0000 
   1238.00       0.00     0.0000     0.0000     0.0000     0.0000     0.0000     0.0000     0.0000 
   1238.50       0.00     0.0000     0.0000     0.0000     0.0000     0.0000     0.0000     0.0000 
   1239.00       0.00     0.0000     0.0000     0.0000     0.0000     0.0000     0.0000     0.0000 
   1239.50       0.00     0.0000     0.0000     0.0000     0.0000     0.0000     0.0000     0.0000 
   1240.00       0.00     0.0000     0.0000     0.0000     0.0000     0.0000     0.0000     0.0000 
   1240.50       0.00     0.0000     0.0000     0.0000     0.0000     0.0000     0.0000     0.0000 
   1241.00       0.00     0.0000     0.0000     0.0000     0.0000     0.0000     0.0000     0.0000 
   1241.50       0.00     0.0000     0.0000     0.0000     0.0000     0.0000     0.0000     0.0000 
   1242.00       0.00     0.0000     0.0000     0.0000     0.0000     0.0000     0.0000     0.0000 
   1242.50       0.00     0.0000     0.0000     0.0000     0.0000     0.0000     0.0000     0.0000 
   1243.00       0.00     0.0000     0.0000     0.0000     0.0000     0.0000     0.0000     0.0000 
   1243.50       0.00     0.0000     0.0000     0.0000     0.0000     0.0000     0.0000     0.0000 
   1244.00       0.00     0.0000     0.0000     0.0000     0.0000     0.0000     0.0000     0.0000 
   1244.50       0.00     0.0000     0.0000     0.0000     0.0000     0.0000     0.0000     0.0000 
   1245.00       0.00     0.0000     0.0000     0.0000     0.0000     0.0000     0.0000     0.0000 
   1245.50       0.00     0.0000     0.0000     0.0000     0.0000     0.0000     0.0000     0.0000 
   1246.00       0.00     0.0000     0.0000     0.0000     0.0000     0.0000     0.0000     0.0000 
   1246.50       0.00     0.0000     0.0000     0.0000     0.0000     0.0000     0.0000     0.0000 
   1247.00       0.00     0.0000     0.0000     0.0000     0.0000     0.0000     0.0000     0.0000 
   1247.50       0.00     0.0000     0.0000     0.0000     0.0000     0.0000     0.0000     0.0000 
   1248.00       0.00     0.0000     0.0000     0.0000     0.0000     0.0000     0.0000     0.0000 
   1248.50       0.00     0.0000     0.0000     0.0000     0.0000     0.0000     0.0000     0.0000 
   1249.00       0.00     0.0000     0.0000     0.0000     0.0000     0.0000     0.0000     0.0000 
   1249.50       0.00     0.0000     0.0000     0.0000     0.0000     0.0000     0.0000     0.0000 
   1250.00       0.00     0.0000     0.0000     0.0000     0.0000     0.0000     0.0000     0.0000 
   1250.50       0.00     0.0000     0.0000     0.0000     0.0000     0.0000     0.0000     0.0000 
   1251.00       0.00     0.0000     0.0000     0.0000     0.0000     0.0000     0.0000     0.0000 
   1251.50       0.00     0.0000     0.0000     0.0000     0.0000     0.0000     0.0000     0.0000 
   1252.00       0.00     0.0000     0.0000     0.0000     0.0000     0.0000     0.0000     0.0000 
   1252.50       0.00     0.0000     0.0000     0.0000     0.0000     0.0000     0.0000     0.0000 
   1253.00       0.00     0.0000     0.0000     0.0000     0.0000     0.0000     0.0000     0.0000 
   1253.50       0.00     0.0000     0.0000     0.0000     0.0000     0.0000     0.0000     0.0000 
   1254.00       0.00     0.0000     0.0000     0.0000     0.0000     0.0000     0.0000     0.0000 
   1254.50       0.00     0.0000     0.0000     0.0000     0.0000     0.0000     0.0000     0.0000 
   1255.00       0.00     0.0000     0.0000     0.0000     0.0000     0.0000     0.0000     0.0000 
   1255.50       0.00     0.0000     0.0000     0.0000     0.0000     0.0000     0.0000     0.0000 
   1256.00       0.00     0.0000     0.0000     0.0000     0.0000     0.0000     0.0000     0.0000 
   1256.50       0.00     0.0000     0.0000     0.0000     0.0000     0.0000     0.0000     0.0000 
   1257.00       0.00     0.0000     0.0000     0.0000     0.0000     0.0000     0.0000     0.0000 
   1257.50       0.00     0.0000     0.0000     0.0000     0.0000     0.0000     0.0000     0.0000 
   1258.00       0.00     0.0000     0.0000     0.0000     0.0000     0.0000     0.0000     0.0000 
   1258.50       0.00     0.0000     0.0000     0.0000     0.0000     0.0000     0.0000     0.0000 
   1259.00       0.00     0.0000     0.0000     0.0000     0.0000     0.0000     0.0000     0.0000 
   1259.50       0.00     0.0000     0.0000     0.0000     0.0000     0.0000     0.0000     0.0000 
