~VERSION INFORMATION
VERS.    2.0:   CWLS LOG ASCII STANDARD - VERSION 2.0
WRAP.     NO:   ONE LINE PER STEP
~WELL INFORMATION BLOCK
#MNEM.UNIT      DATA                  DESCRIPTION OF MNEMONIC
#----   --------             ---------------
STRT.m  620.00                   :START DEPTH
STOP.m  5139.00                   :STOP DEPTH
STEP.m  0.50                   :STEP VALUE
NULL.  -999.25                   :NULL VALUE
COMP.   SHELL                   :COMPANY NAME
WELL.   PRELUDE P1 ST1                   :WELL NAME
FLD .   PRELUDE                   :FIELD NAME
LOC .   BROWSE BASIN                   :LOCATION
PROV.   NORTH WEST SHELF, W.A.                   :PROVINCE
SRVC.   Geoservices                   :SERVICE COMPANY NAME
DATE.   01-10-2015 15:42:38                   :DATE
UWI .                      :UNIQUE WELL IDENTIFIER
~CURVE INFORMATION
#MNEM.UNIT       API CODE        CURVE DESCRIPTION
#----   -------- ------------------
Tot Depth .m        :Tot Depth
THG IN .%        :THG IN
C1 IN .%        :C1 IN
C2 IN .%        :C2 IN
C3 IN .%        :C3 IN
iC4 IN .%        :iC4 IN
nC4 IN .%        :nC4 IN
iC5 IN .%        :iC5 IN
nC5 IN .%        :nC5 IN
#
#-----------------------------------------------------------
# Tot Depth (m)   THG IN (%)   C1 IN (%)   C2 IN (%)   C3 IN (%)   iC4 IN (%)   nC4 IN (%)   iC5 IN (%)   nC5 IN (%)
#-----------------------------------------------------------
~A
    620.00       0.00     0.0000     0.0000     0.0000     0.0000     0.0000     0.0000     0.0000 
    620.50       0.00     0.0000     0.0000     0.0000     0.0000     0.0000     0.0000     0.0000 
    621.00       0.00     0.0000     0.0000     0.0000     0.0000     0.0000     0.0000     0.0000 
    621.50       0.00     0.0000     0.0000     0.0000     0.0000     0.0000     0.0000     0.0000 
    622.00       0.00     0.0000     0.0000     0.0000     0.0000     0.0000     0.0000     0.0000 
    622.50       0.00     0.0000     0.0000     0.0000     0.0000     0.0000     0.0000     0.0000 
    623.00       0.00     0.0000     0.0000     0.0000     0.0000     0.0000     0.0000     0.0000 
    623.50       0.00     0.0000     0.0000     0.0000     0.0000     0.0000     0.0000     0.0000 
    624.00       0.00     0.0000     0.0000     0.0000     0.0000     0.0000     0.0000     0.0000 
    624.50       0.00     0.0000     0.0000     0.0000     0.0000     0.0000     0.0000     0.0000 
    625.00       0.00     0.0000     0.0000     0.0000     0.0000     0.0000     0.0000     0.0000 
    625.50       0.00     0.0000     0.0000     0.0000     0.0000     0.0000     0.0000     0.0000 
    626.00       0.00     0.0000     0.0000     0.0000     0.0000     0.0000     0.0000     0.0000 
    626.50       0.00     0.0000     0.0000     0.0000     0.0000     0.0000     0.0000     0.0000 
    627.00       0.00     0.0000     0.0000     0.0000     0.0000     0.0000     0.0000     0.0000 
    627.50       0.00     0.0000     0.0000     0.0000     0.0000     0.0000     0.0000     0.0000 
    628.00       0.00     0.0000     0.0000     0.0000     0.0000     0.0000     0.0000     0.0000 
    628.50       0.00     0.0000     0.0000     0.0000     0.0000     0.0000     0.0000     0.0000 
    629.00       0.00     0.0000     0.0000     0.0000     0.0000     0.0000     0.0000     0.0000 
    629.50       0.00     0.0000     0.0000     0.0000     0.0000     0.0000     0.0000     0.0000 
    630.00       0.00     0.0000     0.0000     0.0000     0.0000     0.0000     0.0000     0.0000 
    630.50       0.00     0.0000     0.0000     0.0000     0.0000     0.0000     0.0000     0.0000 
    631.00       0.00     0.0000     0.0000     0.0000     0.0000     0.0000     0.0000     0.0000 
    631.50       0.00     0.0000     0.0000     0.0000     0.0000     0.0000     0.0000     0.0000 
    632.00       0.00     0.0000     0.0000     0.0000     0.0000     0.0000     0.0000     0.0000 
    632.50       0.00     0.0000     0.0000     0.0000     0.0000     0.0000     0.0000     0.0000 
    633.00       0.00     0.0000     0.0000     0.0000     0.0000     0.0000     0.0000     0.0000 
    633.50       0.00     0.0000     0.0000     0.0000     0.0000     0.0000     0.0000     0.0000 
    634.00       0.00     0.0000     0.0000     0.0000     0.0000     0.0000     0.0000     0.0000 
    634.50       0.00     0.0000     0.0000     0.0000     0.0000     0.0000     0.0000     0.0000 
    635.00       0.00     0.0000     0.0000     0.0000     0.0000     0.0000     0.0000     0.0000 
    635.50       0.00     0.0000     0.0000     0.0000     0.0000     0.0000     0.0000     0.0000 
    636.00       0.00     0.0000     0.0000     0.0000     0.0000     0.0000     0.0000     0.0000 
    636.50       0.00     0.0000     0.0000     0.0000     0.0000     0.0000     0.0000     0.0000 
    637.00       0.00     0.0000     0.0000     0.0000     0.0000     0.0000     0.0000     0.0000 
    637.50       0.00     0.0000     0.0000     0.0000     0.0000     0.0000     0.0000     0.0000 
    638.00       0.00     0.0000     0.0000     0.0000     0.0000     0.0000     0.0000     0.0000 
    638.50       0.00     0.0000     0.0000     0.0000     0.0000     0.0000     0.0000     0.0000 
    639.00       0.00     0.0000     0.0000     0.0000     0.0000     0.0000     0.0000     0.0000 
    639.50       0.00     0.0000     0.0000     0.0000     0.0000     0.0000     0.0000     0.0000 
    640.00       0.00     0.0000     0.0000     0.0000     0.0000     0.0000     0.0000     0.0000 
    640.50       0.00     0.0000     0.0000     0.0000     0.0000     0.0000     0.0000     0.0000 
    641.00       0.00     0.0000     0.0000     0.0000     0.0000     0.0000     0.0000     0.0000 
    641.50       0.00     0.0000     0.0000     0.0000     0.0000     0.0000     0.0000     0.0000 
    642.00       0.00     0.0000     0.0000     0.0000     0.0000     0.0000     0.0000     0.0000 
    642.50       0.00     0.0000     0.0000     0.0000     0.0000     0.0000     0.0000     0.0000 
    643.00       0.00     0.0000     0.0000     0.0000     0.0000     0.0000     0.0000     0.0000 
    643.50       0.00     0.0000     0.0000     0.0000     0.0000     0.0000     0.0000     0.0000 
    644.00       0.00     0.0000     0.0000     0.0000     0.0000     0.0000     0.0000     0.0000 
    644.50       0.00     0.0000     0.0000     0.0000     0.0000     0.0000     0.0000     0.0000 
    645.00       0.00     0.0000     0.0000     0.0000     0.0000     0.0000     0.0000     0.0000 
    645.50       0.00     0.0000     0.0000     0.0000     0.0000     0.0000     0.0000     0.0000 
    646.00       0.00     0.0000     0.0000     0.0000     0.0000     0.0000     0.0000     0.0000 
    646.50       0.00     0.0000     0.0000     0.0000     0.0000     0.0000     0.0000     0.0000 
    647.00       0.00     0.0000     0.0000     0.0000     0.0000     0.0000     0.0000     0.0000 
    647.50       0.00     0.0000     0.0000     0.0000     0.0000     0.0000     0.0000     0.0000 
    648.00       0.00     0.0000     0.0000     0.0000     0.0000     0.0000     0.0000     0.0000 
    648.50       0.00     0.0000     0.0000     0.0000     0.0000     0.0000     0.0000     0.0000 
    649.00       0.00     0.0000     0.0000     0.0000     0.0000     0.0000     0.0000     0.0000 
    649.50       0.00     0.0000     0.0000     0.0000     0.0000     0.0000     0.0000     0.0000 
    650.00       0.00     0.0000     0.0000     0.0000     0.0000     0.0000     0.0000     0.0000 
    650.50       0.00     0.0000     0.0000     0.0000     0.0000     0.0000     0.0000     0.0000 
    651.00       0.00     0.0000     0.0000     0.0000     0.0000     0.0000     0.0000     0.0000 
    651.50       0.00     0.0000     0.0000     0.0000     0.0000     0.0000     0.0000     0.0000 
    652.00       0.00     0.0000     0.0000     0.0000     0.0000     0.0000     0.0000     0.0000 
    652.50       0.00     0.0000     0.0000     0.0000     0.0000     0.0000     0.0000     0.0000 
    653.00       0.00     0.0000     0.0000     0.0000     0.0000     0.0000     0.0000     0.0000 
    653.50       0.00     0.0000     0.0000     0.0000     0.0000     0.0000     0.0000     0.0000 
    654.00       0.00     0.0000     0.0000     0.0000     0.0000     0.0000     0.0000     0.0000 
    654.50       0.00     0.0000     0.0000     0.0000     0.0000     0.0000     0.0000     0.0000 
    655.00       0.00     0.0000     0.0000     0.0000     0.0000     0.0000     0.0000     0.0000 
    655.50       0.00     0.0000     0.0000     0.0000     0.0000     0.0000     0.0000     0.0000 
    656.00       0.00     0.0000     0.0000     0.0000     0.0000     0.0000     0.0000     0.0000 
    656.50       0.00     0.0000     0.0000     0.0000     0.0000     0.0000     0.0000     0.0000 
    657.00       0.00     0.0000     0.0000     0.0000     0.0000     0.0000     0.0000     0.0000 
    657.50       0.00     0.0000     0.0000     0.0000     0.0000     0.0000     0.0000     0.0000 
    658.00       0.00     0.0000     0.0000     0.0000     0.0000     0.0000     0.0000     0.0000 
    658.50       0.00     0.0000     0.0000     0.0000     0.0000     0.0000     0.0000     0.0000 
    659.00       0.00     0.0000     0.0000     0.0000     0.0000     0.0000     0.0000     0.0000 
    659.50       0.00     0.0000     0.0000     0.0000     0.0000     0.0000     0.0000     0.0000 
