~VERSION INFORMATION
VERS.    2.0:   CWLS LOG ASCII STANDARD - VERSION 2.0
WRAP.     NO:   ONE LINE PER STEP
~WELL INFORMATION BLOCK
#MNEM.UNIT      DATA                  DESCRIPTION OF MNEMONIC
#----   --------             ---------------
STRT.m  620.00                   :START DEPTH
STOP.m  5139.00                   :STOP DEPTH
STEP.m  0.50                   :STEP VALUE
NULL.  -999.25                   :NULL VALUE
COMP.   SHELL                   :COMPANY NAME
WELL.   PRELUDE P1 ST1                   :WELL NAME
FLD .   PRELUDE                   :FIELD NAME
LOC .   BROWSE BASIN                   :LOCATION
PROV.   NORTH WEST SHELF, W.A.                   :PROVINCE
SRVC.   Geoservices                   :SERVICE COMPANY NAME
DATE.   01-10-2015 15:42:38                   :DATE
UWI .                      :UNIQUE WELL IDENTIFIER
~CURVE INFORMATION
#MNEM.UNIT       API CODE        CURVE DESCRIPTION
#----   -------- ------------------
Tot Depth .m        :Tot Depth
THG IN .%        :THG IN
C1 IN .%        :C1 IN
C2 IN .%        :C2 IN
C3 IN .%        :C3 IN
iC4 IN .%        :iC4 IN
nC4 IN .%        :nC4 IN
iC5 IN .%        :iC5 IN
nC5 IN .%        :nC5 IN
#
#-----------------------------------------------------------
# Tot Depth (m)   THG IN (%)   C1 IN (%)   C2 IN (%)   C3 IN (%)   iC4 IN (%)   nC4 IN (%)   iC5 IN (%)   nC5 IN (%)
#-----------------------------------------------------------
~A
# ...
   1500.00       0.00     0.0000     0.0000     0.0000     0.0000     0.0000     0.0000     0.0000 
   1500.50       0.00     0.0000     0.0000     0.0000     0.0000     0.0000     0.0000     0.0000 
   1501.00       0.00     0.0000     0.0000     0.0000     0.0000     0.0000     0.0000     0.0000 
   1501.50       0.00     0.0000     0.0000     0.0000     0.0000     0.0000     0.0000     0.0000 
   1502.00       0.00     0.0000     0.0000     0.0000     0.0000     0.0000     0.0000     0.0000 
   1502.50       0.00     0.0000     0.0000     0.0000     0.0000     0.0000     0.0000     0.0000 
   1503.00       0.00     0.0000     0.0000     0.0000     0.0000     0.0000     0.0000     0.0000 
   1503.50       0.00     0.0000     0.0000     0.0000     0.0000     0.0000     0.0000     0.0000 
   1504.00       0.00     0.0000     0.0000     0.0000     0.0000     0.0000     0.0000     0.0000 
   1504.50       0.00     0.0000     0.0000     0.0000     0.0000     0.0000     0.0000     0.0000 
   1505.00       0.00     0.0000     0.0000     0.0000     0.0000     0.0000     0.0000     0.0000 
   1505.50       0.00     0.0000     0.0000     0.0000     0.0000     0.0000     0.0000     0.0000 
   1506.00       0.00     0.0000     0.0000     0.0000     0.0000     0.0000     0.0000     0.0000 
   1506.50       0.00     0.0000     0.0000     0.0000     0.0000     0.0000     0.0000     0.0000 
   1507.00       0.00     0.0000     0.0000     0.0000     0.0000     0.0000     0.0000     0.0000 
   1507.50       0.00     0.0000     0.0000     0.0000     0.0000     0.0000     0.0000     0.0000 
   1508.00       0.00     0.0000     0.0000     0.0000     0.0000     0.0000     0.0000     0.0000 
   1508.50       0.00     0.0000     0.0000     0.0000     0.0000     0.0000     0.0000     0.0000 
   1509.00       0.00     0.0000     0.0000     0.0000     0.0000     0.0000     0.0000     0.0000 
   1509.50       0.00     0.0000     0.0000     0.0000     0.0000     0.0000     0.0000     0.0000 
   1510.00       0.00     0.0000     0.0000     0.0000     0.0000     0.0000     0.0000     0.0000 
   1510.50       0.00     0.0000     0.0000     0.0000     0.0000     0.0000     0.0000     0.0000 
   1511.00       0.00     0.0000     0.0000     0.0000     0.0000     0.0000     0.0000     0.0000 
   1511.50       0.00     0.0000     0.0000     0.0000     0.0000     0.0000     0.0000     0.0000 
   1512.00       0.00     0.0000     0.0000     0.0000     0.0000     0.0000     0.0000     0.0000 
   1512.50       0.00     0.0000     0.0000     0.0000     0.0000     0.0000     0.0000     0.0000 
   1513.00       0.00     0.0000     0.0000     0.0000     0.0000     0.0000     0.0000     0.0000 
   1513.50       0.00     0.0000     0.0000     0.0000     0.0000     0.0000     0.0000     0.0000 
   1514.00       0.00     0.0000     0.0000     0.0000     0.0000     0.0000     0.0000     0.0000 
   1514.50       0.00     0.0000     0.0000     0.0000     0.0000     0.0000     0.0000     0.0000 
   1515.00       0.00     0.0000     0.0000     0.0000     0.0000     0.0000     0.0000     0.0000 
   1515.50       0.00     0.0000     0.0000     0.0000     0.0000     0.0000     0.0000     0.0000 
   1516.00       0.00     0.0000     0.0000     0.0000     0.0000     0.0000     0.0000     0.0000 
   1516.50       0.00     0.0000     0.0000     0.0000     0.0000     0.0000     0.0000     0.0000 
   1517.00       0.00     0.0000     0.0000     0.0000     0.0000     0.0000     0.0000     0.0000 
   1517.50       0.00     0.0000     0.0000     0.0000     0.0000     0.0000     0.0000     0.0000 
   1518.00       0.00     0.0000     0.0000     0.0000     0.0000     0.0000     0.0000     0.0000 
   1518.50       0.00     0.0000     0.0000     0.0000     0.0000     0.0000     0.0000     0.0000 
   1519.00       0.00     0.0000     0.0000     0.0000     0.0000     0.0000     0.0000     0.0000 
   1519.50       0.00     0.0000     0.0000     0.0000     0.0000     0.0000     0.0000     0.0000 
   1520.00       0.00     0.0000     0.0000     0.0000     0.0000     0.0000     0.0000     0.0000 
   1520.50       0.00     0.0000     0.0000     0.0000     0.0000     0.0000     0.0000     0.0000 
   1521.00       0.00     0.0000     0.0000     0.0000     0.0000     0.0000     0.0000     0.0000 
   1521.50       0.00     0.0000     0.0000     0.0000     0.0000     0.0000     0.0000     0.0000 
   1522.00       0.00     0.0000     0.0000     0.0000     0.0000     0.0000     0.0000     0.0000 
   1522.50       0.00     0.0000     0.0000     0.0000     0.0000     0.0000     0.0000     0.0000 
   1523.00       0.00     0.0000     0.0000     0.0000     0.0000     0.0000     0.0000     0.0000 
   1523.50       0.00     0.0000     0.0000     0.0000     0.0000     0.0000     0.0000     0.0000 
   1524.00       0.00     0.0000     0.0000     0.0000     0.0000     0.0000     0.0000     0.0000 
   1524.50       0.00     0.0000     0.0000     0.0000     0.0000     0.0000     0.0000     0.0000 
   1525.00       0.00     0.0000     0.0000     0.0000     0.0000     0.0000     0.0000     0.0000 
   1525.50       0.00     0.0000     0.0000     0.0000     0.0000     0.0000     0.0000     0.0000 
   1526.00       0.00     0.0000     0.0000     0.0000     0.0000     0.0000     0.0000     0.0000 
   1526.50       0.00     0.0000     0.0000     0.0000     0.0000     0.0000     0.0000     0.0000 
   1527.00       0.00     0.0000     0.0000     0.0000     0.0000     0.0000     0.0000     0.0000 
   1527.50       0.00     0.0000     0.0000     0.0000     0.0000     0.0000     0.0000     0.0000 
   1528.00       0.00     0.0000     0.0000     0.0000     0.0000     0.0000     0.0000     0.0000 
   1528.50       0.00     0.0000     0.0000     0.0000     0.0000     0.0000     0.0000     0.0000 
   1529.00       0.00     0.0000     0.0000     0.0000     0.0000     0.0000     0.0000     0.0000 
   1529.50       0.00     0.0000     0.0000     0.0000     0.0000     0.0000     0.0000     0.0000 
   1530.00       0.00     0.0000     0.0000     0.0000     0.0000     0.0000     0.0000     0.0000 
   1530.50       0.00     0.0000     0.0000     0.0000     0.0000     0.0000     0.0000     0.0000 
   1531.00       0.00     0.0000     0.0000     0.0000     0.0000     0.0000     0.0000     0.0000 
   1531.50       0.00     0.0000     0.0000     0.0000     0.0000     0.0000     0.0000     0.0000 
   1532.00       0.00     0.0000     0.0000     0.0000     0.0000     0.0000     0.0000     0.0000 
   1532.50       0.00     0.0000     0.0000     0.0000     0.0000     0.0000     0.0000     0.0000 
   1533.00       0.00     0.0000     0.0000     0.0000     0.0000     0.0000     0.0000     0.0000 
   1533.50       0.00     0.0000     0.0000     0.0000     0.0000     0.0000     0.0000     0.0000 
   1534.00       0.00     0.0000     0.0000     0.0000     0.0000     0.0000     0.0000     0.0000 
   1534.50       0.00     0.0000     0.0000     0.0000     0.0000     0.0000     0.0000     0.0000 
   1535.00       0.00     0.0000     0.0000     0.0000     0.0000     0.0000     0.0000     0.0000 
   1535.50       0.00     0.0000     0.0000     0.0000     0.0000     0.0000     0.0000     0.0000 
   1536.00       0.00     0.0000     0.0000     0.0000     0.0000     0.0000     0.0000     0.0000 
   1536.50       0.00     0.0000     0.0000     0.0000     0.0000     0.0000     0.0000     0.0000 
   1537.00       0.00     0.0000     0.0000     0.0000     0.0000     0.0000     0.0000     0.0000 
   1537.50       0.00     0.0000     0.0000     0.0000     0.0000     0.0000     0.0000     0.0000 
   1538.00       0.00     0.0000     0.0000     0.0000     0.0000     0.0000     0.0000     0.0000 
   1538.50       0.00     0.0000     0.0000     0.0000     0.0000     0.0000     0.0000     0.0000 
   1539.00       0.00     0.0000     0.0000     0.0000     0.0000     0.0000     0.0000     0.0000 
   1539.50       0.00     0.0000     0.0000     0.0000     0.0000     0.0000     0.0000     0.0000 
