~VERSION INFORMATION
VERS.    2.0:   CWLS LOG ASCII STANDARD - VERSION 2.0
WRAP.     NO:   ONE LINE PER STEP
~WELL INFORMATION BLOCK
#MNEM.UNIT      DATA                  DESCRIPTION OF MNEMONIC
#----   --------             ---------------
STRT.m  620.00                   :START DEPTH
STOP.m  5139.00                   :STOP DEPTH
STEP.m  0.50                   :STEP VALUE
NULL.  -999.25                   :NULL VALUE
COMP.   SHELL                   :COMPANY NAME
WELL.   PRELUDE P1 ST1                   :WELL NAME
FLD .   PRELUDE                   :FIELD NAME
LOC .   BROWSE BASIN                   :LOCATION
PROV.   NORTH WEST SHELF, W.A.                   :PROVINCE
SRVC.   Geoservices                   :SERVICE COMPANY NAME
DATE.   01-10-2015 15:42:38                   :DATE
UWI .                      :UNIQUE WELL IDENTIFIER
~CURVE INFORMATION
#MNEM.UNIT       API CODE        CURVE DESCRIPTION
#----   -------- ------------------
Tot Depth .m        :Tot Depth
THG IN .%        :THG IN
C1 IN .%        :C1 IN
C2 IN .%        :C2 IN
C3 IN .%        :C3 IN
iC4 IN .%        :iC4 IN
nC4 IN .%        :nC4 IN
iC5 IN .%        :iC5 IN
nC5 IN .%        :nC5 IN
#
#-----------------------------------------------------------
# Tot Depth (m)   THG IN (%)   C1 IN (%)   C2 IN (%)   C3 IN (%)   iC4 IN (%)   nC4 IN (%)   iC5 IN (%)   nC5 IN (%)
#-----------------------------------------------------------
~A
# ...
   3620.00       0.26     0.1121     0.0224     0.0186     0.0031     0.0059     0.0013     0.0013 
   3620.50       0.26     0.1121     0.0224     0.0186     0.0031     0.0059     0.0013     0.0013 
   3621.00       0.27     0.1174     0.0235     0.0195     0.0032     0.0061     0.0014     0.0014 
   3621.50       0.27     0.1174     0.0235     0.0195     0.0032     0.0061     0.0014     0.0014 
   3622.00       0.27     0.1174     0.0235     0.0195     0.0032     0.0061     0.0014     0.0014 
   3622.50       0.27     0.1174     0.0235     0.0195     0.0032     0.0061     0.0014     0.0014 
   3623.00       0.28     0.1174     0.0235     0.0196     0.0032     0.0062     0.0015     0.0014 
   3623.50       0.28     0.1168     0.0235     0.0196     0.0032     0.0062     0.0015     0.0014 
   3624.00       0.28     0.1168     0.0235     0.0196     0.0032     0.0062     0.0015     0.0014 
   3624.50       0.28     0.1168     0.0235     0.0196     0.0032     0.0062     0.0015     0.0014 
   3625.00       0.28     0.1168     0.0235     0.0196     0.0033     0.0062     0.0015     0.0014 
   3625.50       0.30     0.1390     0.0259     0.0202     0.0033     0.0063     0.0014     0.0015 
   3626.00       0.30     0.1390     0.0259     0.0202     0.0033     0.0063     0.0014     0.0014 
   3626.50       0.32     0.1525     0.0273     0.0210     0.0034     0.0065     0.0014     0.0014 
   3627.00       0.32     0.1525     0.0273     0.0210     0.0034     0.0065     0.0014     0.0014 
   3627.50       0.32     0.1525     0.0273     0.0210     0.0034     0.0065     0.0014     0.0014 
   3628.00       0.32     0.1525     0.0273     0.0211     0.0034     0.0065     0.0014     0.0014 
   3628.50       0.32     0.1525     0.0273     0.0211     0.0034     0.0065     0.0014     0.0014 
   3629.00       0.32     0.1512     0.0273     0.0211     0.0034     0.0065     0.0014     0.0014 
   3629.50       0.32     0.1512     0.0273     0.0211     0.0034     0.0065     0.0014     0.0014 
   3630.00       0.32     0.1512     0.0273     0.0211     0.0034     0.0065     0.0015     0.0015 
   3630.50       0.31     0.1423     0.0265     0.0208     0.0034     0.0065     0.0015     0.0015 
   3631.00       0.31     0.1423     0.0265     0.0208     0.0034     0.0065     0.0015     0.0015 
   3631.50       0.31     0.1423     0.0265     0.0208     0.0034     0.0065     0.0015     0.0015 
   3632.00       0.31     0.1379     0.0259     0.0205     0.0033     0.0064     0.0015     0.0014 
   3632.50       0.31     0.1379     0.0259     0.0205     0.0033     0.0064     0.0015     0.0014 
   3633.00       0.31     0.1379     0.0259     0.0205     0.0033     0.0064     0.0015     0.0014 
   3633.50       0.31     0.1379     0.0259     0.0205     0.0034     0.0065     0.0015     0.0014 
   3634.00       0.30     0.1351     0.0255     0.0203     0.0034     0.0065     0.0015     0.0014 
   3634.50       0.30     0.1351     0.0255     0.0203     0.0034     0.0065     0.0015     0.0014 
   3635.00       0.30     0.1351     0.0255     0.0205     0.0034     0.0065     0.0015     0.0015 
   3635.50       0.30     0.1346     0.0255     0.0205     0.0034     0.0065     0.0014     0.0015 
   3636.00       0.30     0.1346     0.0255     0.0205     0.0034     0.0065     0.0014     0.0015 
   3636.50       0.30     0.1354     0.0258     0.0206     0.0034     0.0065     0.0014     0.0015 
   3637.00       0.30     0.1354     0.0258     0.0206     0.0034     0.0065     0.0014     0.0015 
   3637.50       0.30     0.1354     0.0258     0.0206     0.0034     0.0065     0.0014     0.0015 
   3638.00       0.30     0.1354     0.0258     0.0206     0.0034     0.0065     0.0014     0.0015 
   3638.50       0.31     0.1406     0.0265     0.0210     0.0034     0.0067     0.0014     0.0015 
   3639.00       0.31     0.1406     0.0265     0.0210     0.0034     0.0067     0.0014     0.0015 
   3639.50       0.31     0.1406     0.0265     0.0210     0.0034     0.0067     0.0014     0.0015 
   3640.00       0.31     0.1406     0.0265     0.0210     0.0034     0.0067     0.0014     0.0015 
   3640.50       0.31     0.1406     0.0265     0.0210     0.0034     0.0067     0.0014     0.0015 
   3641.00       0.33     0.1489     0.0278     0.0218     0.0035     0.0068     0.0015     0.0016 
   3641.50       0.33     0.1489     0.0278     0.0218     0.0035     0.0068     0.0015     0.0016 
   3642.00       0.33     0.1489     0.0278     0.0218     0.0035     0.0068     0.0015     0.0016 
   3642.50       0.33     0.1489     0.0278     0.0218     0.0035     0.0068     0.0015     0.0016 
   3643.00       0.34     0.1549     0.0287     0.0222     0.0035     0.0069     0.0015     0.0016 
   3643.50       0.34     0.1549     0.0287     0.0222     0.0035     0.0069     0.0015     0.0016 
   3644.00       0.34     0.1549     0.0287     0.0222     0.0035     0.0069     0.0015     0.0016 
   3644.50       0.34     0.1549     0.0287     0.0222     0.0035     0.0069     0.0015     0.0016 
   3645.00       0.36     0.1671     0.0303     0.0231     0.0035     0.0071     0.0016     0.0016 
   3645.50       0.36     0.1671     0.0303     0.0231     0.0035     0.0071     0.0016     0.0015 
   3646.00       0.38     0.1830     0.0322     0.0239     0.0036     0.0073     0.0016     0.0017 
   3646.50       0.38     0.1830     0.0322     0.0239     0.0036     0.0073     0.0016     0.0017 
   3647.00       0.38     0.1830     0.0322     0.0239     0.0036     0.0073     0.0016     0.0017 
   3647.50       0.37     0.1776     0.0311     0.0229     0.0035     0.0071     0.0015     0.0016 
   3648.00       0.39     0.1912     0.0334     0.0243     0.0037     0.0074     0.0016     0.0017 
   3648.50       0.39     0.1912     0.0334     0.0243     0.0037     0.0074     0.0016     0.0017 
   3649.00       0.42     0.2102     0.0358     0.0255     0.0038     0.0077     0.0016     0.0017 
   3649.50       0.42     0.2102     0.0358     0.0255     0.0038     0.0077     0.0015     0.0016 
   3650.00       0.43     0.2137     0.0366     0.0260     0.0038     0.0080     0.0015     0.0017 
   3650.50       0.43     0.2137     0.0366     0.0260     0.0038     0.0080     0.0015     0.0017 
   3651.00       0.43     0.2137     0.0366     0.0260     0.0038     0.0080     0.0015     0.0017 
   3651.50       0.43     0.2137     0.0366     0.0260     0.0038     0.0080     0.0015     0.0017 
   3652.00       0.43     0.2137     0.0366     0.0260     0.0038     0.0080     0.0017     0.0018 
   3652.50       0.42     0.2033     0.0358     0.0257     0.0038     0.0080     0.0017     0.0018 
   3653.00       0.42     0.2033     0.0358     0.0257     0.0038     0.0080     0.0017     0.0018 
   3653.50       0.42     0.2033     0.0358     0.0257     0.0038     0.0080     0.0017     0.0018 
   3654.00       0.42     0.2033     0.0358     0.0257     0.0038     0.0080     0.0017     0.0018 
   3654.50       0.41     0.1975     0.0353     0.0256     0.0038     0.0079     0.0017     0.0018 
   3655.00       0.41     0.1975     0.0353     0.0256     0.0038     0.0079     0.0017     0.0018 
   3655.50       0.41     0.1975     0.0353     0.0256     0.0038     0.0079     0.0017     0.0018 
   3656.00       0.37     0.1722     0.0315     0.0234     0.0037     0.0074     0.0016     0.0017 
   3656.50       0.37     0.1722     0.0315     0.0234     0.0037     0.0074     0.0016     0.0017 
   3657.00       0.37     0.1722     0.0315     0.0234     0.0037     0.0074     0.0016     0.0018 
   3657.50       0.35     0.1626     0.0302     0.0228     0.0036     0.0073     0.0016     0.0018 
   3658.00       0.35     0.1626     0.0302     0.0228     0.0036     0.0073     0.0016     0.0018 
   3658.50       0.35     0.1626     0.0302     0.0228     0.0036     0.0073     0.0016     0.0018 
   3659.00       0.35     0.1626     0.0302     0.0228     0.0036     0.0073     0.0017     0.0018 
   3659.50       0.33     0.1503     0.0285     0.0219     0.0036     0.0071     0.0017     0.0017 
