~VERSION INFORMATION
VERS.    2.0:   CWLS LOG ASCII STANDARD - VERSION 2.0
WRAP.     NO:   ONE LINE PER STEP
~WELL INFORMATION BLOCK
#MNEM.UNIT      DATA                  DESCRIPTION OF MNEMONIC
#----   --------             ---------------
STRT.m  620.00                   :START DEPTH
STOP.m  5139.00                   :STOP DEPTH
STEP.m  0.50                   :STEP VALUE
NULL.  -9999                   :NULL VALUE
COMP.   SHELL                   :COMPANY NAME
WELL.   PRELUDE P1 ST1                   :WELL NAME
FLD .   PRELUDE                   :FIELD NAME
LOC .   BROWSE BASIN                   :LOCATION
PROV.   NORTH WEST SHELF, W.A.                   :PROVINCE
SRVC.   Geoservices                   :SERVICE COMPANY NAME
DATE.   01-10-2015 15:42:04                   :DATE
UWI .                      :UNIQUE WELL IDENTIFIER
~CURVE INFORMATION
#MNEM.UNIT       API CODE        CURVE DESCRIPTION
#----   -------- ------------------
Tot Depth .m        :Tot Depth
T GAS main .%        :T GAS main
C1  main .%        :C1  main
C2  main .%        :C2  main
C3  main .%        :C3  main
iC4 main .%        :iC4 main
nC4 main .%        :nC4 main
iC5 main .%        :iC5 main
nC5 main .%        :nC5 main
C02 .ppm        :C02
MW IN .kg/l        :MW IN
#
#-----------------------------------------------------------
# Tot Depth (m)   T GAS main (%)   C1  main (%)   C2  main (%)   C3  main (%)   iC4 main (%)   nC4 main (%)   iC5 main (%)   nC5 main (%)   C02 (ppm)   MW IN (kg/l)
#-----------------------------------------------------------
~A
# ...
   4514.00       5.97     5.1146     0.3444     0.0670     0.0085     0.0088     0.0019     0.0011          1       1.19 
   4514.50       5.32     4.5636     0.3051     0.0592     0.0079     0.0079     0.0018     0.0011          1       1.19 
   4515.00       4.92     4.1522     0.2789     0.0548     0.0076     0.0074     0.0017     0.0010          1       1.19 
   4515.50       4.75     4.0362     0.2752     0.0544     0.0076     0.0073     0.0017     0.0010          1       1.19 
   4516.00       5.20     4.3796     0.2992     0.0589     0.0090     0.0079     0.0019     0.0011          1       1.19 
   4516.50       5.77     4.7709     0.3258     0.0632     0.0089     0.0083     0.0018     0.0010          1       1.19 
   4517.00       5.81     4.7709     0.3258     0.0632     0.0085     0.0083     0.0018     0.0009          1       1.19 
   4517.50       5.77     5.0079     0.3380     0.0653     0.0086     0.0086     0.0018     0.0010          1       1.19 
   4518.00       6.10     5.1787     0.3498     0.0675     0.0086     0.0089     0.0019     0.0011          1       1.19 
   4518.50       6.37     5.4542     0.3660     0.0703     0.0089     0.0093     0.0021     0.0012          1       1.19 
   4519.00       6.30     5.4542     0.3660     0.0703     0.0089     0.0093     0.0021     0.0012          1       1.19 
   4519.50       5.95     5.1056     0.3390     0.0650     0.0088     0.0086     0.0020     0.0012          1       1.19 
   4520.00       5.33     4.7636     0.3145     0.0605     0.0083     0.0081     0.0021     0.0012          1       1.19 
   4520.50       4.95     4.1463     0.2753     0.0536     0.0077     0.0073     0.0017     0.0010          1       1.19 
   4521.00       4.57     4.1463     0.2753     0.0536     0.0077     0.0073     0.0018     0.0010          1       1.19 
   4521.50       4.87     4.0534     0.2753     0.0540     0.0077     0.0074     0.0018     0.0010          1       1.19 
   4522.00       5.29     4.4950     0.3041     0.0589     0.0082     0.0080     0.0021     0.0011          1       1.19 
   4522.50       5.81     4.8309     0.3270     0.0631     0.0088     0.0085     0.0021     0.0011          1       1.19 
   4523.00       5.62     4.8024     0.3197     0.0615     0.0083     0.0082     0.0020     0.0010          1       1.19 
   4523.50       5.71     4.8024     0.3197     0.0615     0.0083     0.0083     0.0020     0.0011          1       1.19 
   4524.00       5.17     4.5025     0.2972     0.0571     0.0080     0.0078     0.0018     0.0013          1       1.19 
   4524.50       4.08     3.6749     0.2424     0.0476     0.0072     0.0067     0.0017     0.0011          1       1.19 
   4525.00       3.11     2.4561     0.1662     0.0344     0.0061     0.0052     0.0015     0.0008          1       1.19 
   4525.50       3.15     2.4545     0.1893     0.0410     0.0069     0.0062     0.0017     0.0009          1       1.19 
   4526.00       4.26     3.3447     0.2547     0.0536     0.0080     0.0079     0.0027     0.0011          1       1.19 
   4526.50       4.87     3.9320     0.2904     0.0601     0.0090     0.0086     0.0021     0.0013          1       1.19 
   4527.00       4.92     4.0332     0.2938     0.0609     0.0090     0.0087     0.0023     0.0013          1       1.19 
   4527.50       4.77     3.9800     0.2894     0.0598     0.0087     0.0086     0.0021     0.0013          1       1.19 
   4528.00       4.29     3.6421     0.2659     0.0556     0.0082     0.0081     0.0020     0.0012          1       1.19 
   4528.50       3.90     3.1691     0.2381     0.0516     0.0080     0.0077     0.0020     0.0012          1       1.19 
   4529.00       4.04     3.2171     0.2443     0.0526     0.0083     0.0078     0.0020     0.0012          1       1.19 
   4529.50       3.44     2.7006     0.2173     0.0483     0.0081     0.0074     0.0020     0.0012          1       1.20 
   4530.00       3.68     2.8316     0.2253     0.0499     0.0083     0.0076     0.0020     0.0012          1       1.20 
   4530.50       4.32     3.4035     0.2631     0.0568     0.0085     0.0084     0.0021     0.0013          1       1.20 
   4531.00       4.55     3.6449     0.2765     0.0589     0.0088     0.0087     0.0022     0.0013          1       1.20 
   4531.50       4.51     3.6329     0.2765     0.0589     0.0086     0.0087     0.0022     0.0013          1       1.20 
   4532.00       4.10     3.4154     0.2593     0.0557     0.0085     0.0083     0.0022     0.0013          1       1.20 
   4532.50       4.31     3.5051     0.2644     0.0568     0.0091     0.0085     0.0023     0.0013          1       1.19 
   4533.00       4.34     3.5051     0.2644     0.0568     0.0091     0.0085     0.0022     0.0012          1       1.19 
   4533.50       3.98     3.2588     0.2464     0.0534     0.0085     0.0081     0.0022     0.0012          1       1.19 
   4534.00       3.97     3.1598     0.2405     0.0525     0.0084     0.0081     0.0022     0.0013          1       1.19 
   4534.50       4.16     3.2988     0.2543     0.0554     0.0088     0.0084     0.0023     0.0013          1       1.19 
   4535.00       4.45     3.5520     0.2707     0.0587     0.0091     0.0088     0.0024     0.0015          1       1.19 
   4535.50       4.57     3.7128     0.2831     0.0613     0.0095     0.0091     0.0025     0.0015          1       1.20 
   4536.00       3.86     3.6459     0.2819     0.0613     0.0095     0.0091     0.0025     0.0015          1       1.19 
   4536.50       3.50     3.2934     0.2644     0.0594     0.0088     0.0083     0.0023     0.0013          1       1.19 
   4537.00       3.80     2.9917     0.2424     0.0546     0.0084     0.0082     0.0020     0.0013          1       1.19 
   4537.50       3.93     3.0446     0.2418     0.0538     0.0080     0.0081     0.0021     0.0013          1       1.19 
   4538.00       4.35     3.4378     0.2636     0.0572     0.0085     0.0084     0.0022     0.0014          1       1.19 
   4538.50       4.24     3.4378     0.2636     0.0572     0.0085     0.0084     0.0022     0.0013          1       1.19 
   4539.00       3.69     3.1185     0.2370     0.0521     0.0081     0.0078     0.0021     0.0012          1       1.19 
   4539.50       3.02     2.4291     0.1907     0.0436     0.0073     0.0067     0.0018     0.0011          1       1.19 
   4540.00       2.75     2.0799     0.1675     0.0395     0.0067     0.0063     0.0018     0.0010          1       1.19 
   4540.50       3.04     2.2779     0.1829     0.0423     0.0068     0.0066     0.0018     0.0010          1       1.19 
   4541.00       3.51     2.7686     0.2163     0.0482     0.0073     0.0072     0.0019     0.0012          1       1.19 
   4541.50       4.36     3.4892     0.2684     0.0576     0.0082     0.0084     0.0022     0.0013          1       1.19 
   4542.00       4.81     3.9195     0.2927     0.0616     0.0089     0.0089     0.0025     0.0014          1       1.19 
   4542.50       4.81     3.9252     0.2912     0.0614     0.0088     0.0089     0.0022     0.0014          1       1.19 
   4543.00       4.86     3.9653     0.2931     0.0621     0.0085     0.0090     0.0022     0.0014          1       1.19 
   4543.50       4.83     3.9848     0.2959     0.0625     0.0085     0.0090     0.0022     0.0014          1       1.19 
   4544.00       4.93     3.9989     0.2949     0.0624     0.0084     0.0089     0.0023     0.0014          1       1.19 
   4544.50       4.42     3.7673     0.2749     0.0580     0.0080     0.0083     0.0021     0.0012          1       1.19 
   4545.00       3.78     3.0294     0.2249     0.0490     0.0077     0.0074     0.0020     0.0012          1       1.19 
   4545.50       3.78     3.0557     0.2276     0.0495     0.0078     0.0076     0.0020     0.0012          1       1.19 
   4546.00       3.97     3.1982     0.2363     0.0511     0.0078     0.0076     0.0020     0.0013          1       1.19 
   4546.50       4.33     3.4563     0.2549     0.0543     0.0079     0.0080     0.0021     0.0013          1       1.19 
