~VERSION INFORMATION
VERS.    2.0:   CWLS LOG ASCII STANDARD - VERSION 2.0
WRAP.     NO:   ONE LINE PER STEP
~WELL INFORMATION BLOCK
#MNEM.UNIT      DATA                  DESCRIPTION OF MNEMONIC
#----   --------             ---------------
STRT.m  620.00                   :START DEPTH
STOP.m  5139.00                   :STOP DEPTH
STEP.m  0.50                   :STEP VALUE
NULL.  -9999                   :NULL VALUE
COMP.   SHELL                   :COMPANY NAME
WELL.   PRELUDE P1 ST1                   :WELL NAME
FLD .   PRELUDE                   :FIELD NAME
LOC .   BROWSE BASIN                   :LOCATION
PROV.   NORTH WEST SHELF, W.A.                   :PROVINCE
SRVC.   Geoservices                   :SERVICE COMPANY NAME
DATE.   01-10-2015 15:42:04                   :DATE
UWI .                      :UNIQUE WELL IDENTIFIER
~CURVE INFORMATION
#MNEM.UNIT       API CODE        CURVE DESCRIPTION
#----   -------- ------------------
Tot Depth .m        :Tot Depth
T GAS main .%        :T GAS main
C1  main .%        :C1  main
C2  main .%        :C2  main
C3  main .%        :C3  main
iC4 main .%        :iC4 main
nC4 main .%        :nC4 main
iC5 main .%        :iC5 main
nC5 main .%        :nC5 main
C02 .ppm        :C02
MW IN .kg/l        :MW IN
#
#-----------------------------------------------------------
# Tot Depth (m)   T GAS main (%)   C1  main (%)   C2  main (%)   C3  main (%)   iC4 main (%)   nC4 main (%)   iC5 main (%)   nC5 main (%)   C02 (ppm)   MW IN (kg/l)
#-----------------------------------------------------------
~A
# ...
   3623.00       1.58     1.0452     0.1198     0.0663     0.0089     0.0177     0.0034     0.0037          1       1.44 
   3623.50       1.58     1.0562     0.1209     0.0672     0.0089     0.0180     0.0034     0.0037          1       1.44 
   3624.00       1.58     1.0562     0.1217     0.0677     0.0090     0.0181     0.0034     0.0036          1       1.44 
   3624.50       1.59     1.0398     0.1222     0.0679     0.0090     0.0181     0.0033     0.0036          1       1.44 
   3625.00       1.57     1.0398     0.1222     0.0679     0.0091     0.0181     0.0033     0.0037          1       1.44 
   3625.50       1.58     1.0417     0.1225     0.0677     0.0091     0.0181     0.0034     0.0036          1       1.44 
   3626.00       0.83     0.3920     0.0591     0.0401     0.0071     0.0121     0.0026     0.0026          1       1.44 
   3626.50       0.93     0.4714     0.0698     0.0452     0.0075     0.0132     0.0028     0.0029          1       1.44 
   3627.00       1.04     0.5929     0.0836     0.0512     0.0079     0.0144     0.0029     0.0031          1       1.44 
   3627.50       1.16     0.6525     0.0896     0.0534     0.0080     0.0150     0.0029     0.0032          1       1.44 
   3628.00       1.16     0.7229     0.0942     0.0547     0.0081     0.0152     0.0030     0.0033          1       1.44 
   3628.50       1.22     0.7524     0.0973     0.0557     0.0081     0.0154     0.0031     0.0033          1       1.44 
   3629.00       1.22     0.7524     0.0973     0.0557     0.0081     0.0154     0.0031     0.0033          1       1.44 
   3629.50       1.20     0.7413     0.0971     0.0557     0.0081     0.0154     0.0031     0.0033          1       1.44 
   3630.00       1.22     0.7573     0.0954     0.0532     0.0078     0.0145     0.0029     0.0031          1       1.44 
   3630.50       1.17     0.7368     0.0916     0.0509     0.0076     0.0139     0.0028     0.0030          1       1.44 
   3631.00       1.27     0.7734     0.0947     0.0528     0.0077     0.0141     0.0027     0.0029          1       1.44 
   3631.50       1.34     0.7734     0.0947     0.0528     0.0077     0.0141     0.0027     0.0029          1       1.44 
   3632.00       1.39     0.9185     0.1120     0.0616     0.0084     0.0163     0.0031     0.0034          1       1.44 
   3632.50       1.45     0.9463     0.1157     0.0625     0.0084     0.0165     0.0031     0.0034          1       1.44 
   3633.00       1.54     0.9915     0.1210     0.0652     0.0087     0.0172     0.0032     0.0035          1       1.44 
   3633.50       1.55     0.9915     0.1210     0.0652     0.0087     0.0172     0.0032     0.0035          1       1.44 
   3634.00       1.55     1.0111     0.1234     0.0660     0.0087     0.0175     0.0033     0.0036          1       1.44 
   3634.50       1.50     0.9911     0.1207     0.0646     0.0086     0.0172     0.0033     0.0036          1       1.44 
   3635.00       1.50     0.9743     0.1182     0.0633     0.0085     0.0168     0.0034     0.0036          1       1.44 
   3635.50       1.47     0.9724     0.1184     0.0633     0.0085     0.0168     0.0034     0.0036          1       1.44 
   3636.00       1.49     0.9833     0.1184     0.0633     0.0086     0.0168     0.0032     0.0035          1       1.44 
   3636.50       1.51     0.9833     0.1179     0.0632     0.0086     0.0168     0.0032     0.0035          1       1.44 
   3637.00       1.47     0.9833     0.1179     0.0633     0.0086     0.0169     0.0033     0.0035          1       1.44 
   3637.50       1.47     0.9812     0.1181     0.0634     0.0086     0.0171     0.0033     0.0036          1       1.44 
   3638.00       1.52     0.9858     0.1186     0.0636     0.0086     0.0171     0.0033     0.0036          1       1.44 
   3638.50       1.52     0.9858     0.1186     0.0636     0.0086     0.0170     0.0033     0.0036          1       1.44 
   3639.00       1.48     0.9858     0.1197     0.0643     0.0088     0.0172     0.0039     0.0036          1       1.44 
   3639.50       1.48     0.9827     0.1197     0.0643     0.0088     0.0173     0.0039     0.0035          1       1.44 
   3640.00       1.50     0.9533     0.1197     0.0646     0.0088     0.0173     0.0032     0.0035          1       1.44 
   3640.50       1.52     0.9526     0.1197     0.0646     0.0088     0.0173     0.0031     0.0035          1       1.44 
   3641.00       1.67     0.9561     0.1224     0.0663     0.0089     0.0178     0.0032     0.0036          1       1.44 
   3641.50       1.69     1.1648     0.1309     0.0683     0.0090     0.0178     0.0032     0.0036          1       1.44 
   3642.00       1.69     1.1648     0.1309     0.0683     0.0090     0.0178     0.0032     0.0036          1       1.44 
   3642.50       1.69     1.1648     0.1309     0.0683     0.0090     0.0178     0.0032     0.0036          1       1.44 
   3643.00       1.48     0.9243     0.1237     0.0661     0.0089     0.0177     0.0033     0.0038          1       1.44 
   3643.50       1.48     0.9243     0.1237     0.0661     0.0089     0.0177     0.0033     0.0038          1       1.44 
   3644.00       1.43     0.9243     0.1237     0.0661     0.0090     0.0177     0.0033     0.0038          1       1.44 
   3644.50       1.43     0.9243     0.1237     0.0661     0.0090     0.0177     0.0033     0.0038          1       1.44 
   3645.00       1.41     0.7195     0.1054     0.0590     0.0083     0.0164     0.0029     0.0032          1       1.44 
   3645.50       1.41     0.7195     0.1054     0.0590     0.0083     0.0164     0.0029     0.0032          1       1.44 
   3646.00       1.48     0.9243     0.1237     0.0661     0.0089     0.0177     0.0033     0.0038          1       1.44 
   3646.50       1.43     0.9243     0.1237     0.0661     0.0090     0.0177     0.0033     0.0038          1       1.44 
   3647.00       1.34     0.8704     0.1152     0.0625     0.0088     0.0170     0.0033     0.0037          1       1.44 
   3647.50       1.32     0.8238     0.1103     0.0605     0.0086     0.0170     0.0035     0.0036          1       1.44 
   3648.00       1.34     0.8188     0.1094     0.0604     0.0087     0.0166     0.0033     0.0036          1       1.44 
   3648.50       1.29     0.8137     0.1081     0.0601     0.0088     0.0166     0.0034     0.0036          1       1.44 
   3649.00       1.23     0.7468     0.0994     0.0564     0.0085     0.0158     0.0032     0.0035          1       1.44 
   3649.50       1.12     0.6778     0.0921     0.0538     0.0083     0.0155     0.0032     0.0035          1       1.44 
   3650.00       1.06     0.6343     0.0879     0.0523     0.0083     0.0153     0.0031     0.0035          1       1.44 
   3650.50       1.12     0.6159     0.0861     0.0515     0.0081     0.0152     0.0031     0.0035          1       1.44 
   3651.00       1.16     0.6659     0.0910     0.0535     0.0082     0.0155     0.0031     0.0035          1       1.44 
   3651.50       1.18     0.6659     0.0910     0.0535     0.0082     0.0155     0.0031     0.0034          1       1.44 
   3652.00       1.27     0.7319     0.0994     0.0568     0.0084     0.0162     0.0032     0.0036          1       1.44 
   3652.50       1.42     0.7861     0.1064     0.0599     0.0087     0.0168     0.0033     0.0037          1       1.44 
   3653.00       1.61     0.8788     0.1191     0.0659     0.0093     0.0182     0.0035     0.0039          1       1.44 
   3653.50       1.99     1.0154     0.1390     0.0757     0.0100     0.0202     0.0037     0.0042          1       1.44 
   3654.00       2.13     1.4539     0.2063     0.1099     0.0131     0.0283     0.0049     0.0053          1       1.44 
   3654.50       2.91     1.7525     0.2522     0.1324     0.0153     0.0334     0.0070     0.0065          1       1.44 
   3655.00       3.63     2.3155     0.3313     0.1704     0.0186     0.0417     0.0072     0.0082          1       1.44 
   3655.50       3.74     2.4485     0.3407     0.1728     0.0188     0.0425     0.0074     0.0087          1       1.44 
