~VERSION INFORMATION
VERS.    2.0:   CWLS LOG ASCII STANDARD - VERSION 2.0
WRAP.     NO:   ONE LINE PER STEP
~WELL INFORMATION BLOCK
#MNEM.UNIT      DATA                  DESCRIPTION OF MNEMONIC
#----   --------             ---------------
STRT.m  620.00                   :START DEPTH
STOP.m  5139.00                   :STOP DEPTH
STEP.m  0.50                   :STEP VALUE
NULL.  -9999                   :NULL VALUE
COMP.   SHELL                   :COMPANY NAME
WELL.   PRELUDE P1 ST1                   :WELL NAME
FLD .   PRELUDE                   :FIELD NAME
LOC .   BROWSE BASIN                   :LOCATION
PROV.   NORTH WEST SHELF, W.A.                   :PROVINCE
SRVC.   Geoservices                   :SERVICE COMPANY NAME
DATE.   01-10-2015 15:42:04                   :DATE
UWI .                      :UNIQUE WELL IDENTIFIER
~CURVE INFORMATION
#MNEM.UNIT       API CODE        CURVE DESCRIPTION
#----   -------- ------------------
Tot Depth .m        :Tot Depth
T GAS main .%        :T GAS main
C1  main .%        :C1  main
C2  main .%        :C2  main
C3  main .%        :C3  main
iC4 main .%        :iC4 main
nC4 main .%        :nC4 main
iC5 main .%        :iC5 main
nC5 main .%        :nC5 main
C02 .ppm        :C02
MW IN .kg/l        :MW IN
#
#-----------------------------------------------------------
# Tot Depth (m)   T GAS main (%)   C1  main (%)   C2  main (%)   C3  main (%)   iC4 main (%)   nC4 main (%)   iC5 main (%)   nC5 main (%)   C02 (ppm)   MW IN (kg/l)
#-----------------------------------------------------------
~A
# ...
   2402.00       0.14     0.1120     0.0016     0.0006     0.0004     0.0000     0.0001     0.0001          1       1.07 
   2402.50       0.15     0.1209     0.0017     0.0007     0.0004     0.0004     0.0001     0.0002          1       1.07 
   2403.00       0.16     0.1235     0.0017     0.0007     0.0004     0.0001     0.0001     0.0001          1       1.07 
   2403.50       0.17     0.1359     0.0018     0.0007     0.0004     0.0002     0.0000     0.0001          1       1.07 
   2404.00       0.16     0.1359     0.0018     0.0007     0.0004     0.0002     0.0000     0.0001          1       1.07 
   2404.50       0.16     0.1290     0.0017     0.0006     0.0005     0.0003     0.0001     0.0001          1       1.07 
   2405.00       0.18     0.1454     0.0019     0.0008     0.0005     0.0002     0.0001     0.0001          1       1.07 
   2405.50       0.18     0.1454     0.0019     0.0008     0.0005     0.0002     0.0001     0.0001          1       1.07 
   2406.00       0.20     0.1611     0.0022     0.0008     0.0006     0.0002     0.0001     0.0001          1       1.07 
   2406.50       0.20     0.1611     0.0022     0.0008     0.0006     0.0002     0.0001     0.0001          1       1.07 
   2407.00       0.19     0.1512     0.0019     0.0006     0.0003     0.0001     0.0001     0.0001          1       1.07 
   2407.50       0.03     0.0002     0.0001     0.0000     0.0002     0.0001     0.0003     0.0000          1       1.38 
   2408.00       0.04     0.0003     0.0001     0.0000     0.0003     0.0000     0.0001     0.0000          1       1.38 
   2408.50       0.07     0.0014     0.0002     0.0000     0.0003     0.0000     0.0000     0.0000          1       1.38 
   2409.00       0.15     0.1161     0.0009     0.0006     0.0004     0.0003     0.0002     0.0001          1       1.38 
   2409.50       0.14     0.1161     0.0009     0.0006     0.0005     0.0004     0.0003     0.0002          1       1.38 
   2410.00       0.10     0.0567     0.0007     0.0006     0.0005     0.0004     0.0003     0.0002          1       1.38 
   2410.50       0.10     0.0567     0.0007     0.0006     0.0005     0.0004     0.0002     0.0002          1       1.38 
   2411.00       0.10     0.0566     0.0007     0.0006     0.0005     0.0004     0.0002     0.0002          1       1.38 
   2411.50       0.10     0.0510     0.0007     0.0006     0.0005     0.0004     0.0002     0.0002          1       1.38 
   2412.00       0.09     0.0479     0.0006     0.0006     0.0005     0.0004     0.0002     0.0002          1       1.38 
   2412.50       0.09     0.0438     0.0006     0.0006     0.0012     0.0005     0.0005     0.0003          1       1.38 
   2413.00       0.07     0.0175     0.0004     0.0004     0.0012     0.0003     0.0003     0.0001          1       1.42 
   2413.50       0.06     0.0167     0.0004     0.0004     0.0012     0.0003     0.0003     0.0001          1       1.41 
   2414.00       0.06     0.0157     0.0004     0.0004     0.0012     0.0003     0.0003     0.0001          1       1.42 
   2414.50       0.07     0.0171     0.0004     0.0004     0.0012     0.0003     0.0003     0.0001          1       1.42 
   2415.00       0.08     0.0319     0.0004     0.0004     0.0012     0.0003     0.0003     0.0001          1       1.42 
   2415.50       0.11     0.0441     0.0005     0.0004     0.0012     0.0003     0.0004     0.0001          1       1.42 
   2416.00       0.12     0.0500     0.0005     0.0004     0.0012     0.0003     0.0004     0.0001          1       1.42 
   2416.50       0.13     0.0632     0.0006     0.0004     0.0013     0.0003     0.0004     0.0001          1       1.42 
   2417.00       0.15     0.0761     0.0006     0.0004     0.0013     0.0003     0.0003     0.0001          1       1.42 
   2417.50       0.15     0.0774     0.0006     0.0004     0.0013     0.0002     0.0003     0.0001          1       1.42 
   2418.00       0.16     0.0774     0.0006     0.0004     0.0013     0.0003     0.0003     0.0001          1       1.42 
   2418.50       0.16     0.0797     0.0006     0.0004     0.0013     0.0003     0.0004     0.0001          1       1.42 
   2419.00       0.16     0.0809     0.0006     0.0004     0.0013     0.0002     0.0003     0.0001          1       1.42 
   2419.50       0.16     0.0809     0.0006     0.0004     0.0013     0.0003     0.0005     0.0001          1       1.42 
   2420.00       0.16     0.0813     0.0006     0.0004     0.0013     0.0002     0.0005     0.0001          1       1.42 
   2420.50       0.16     0.0813     0.0006     0.0003     0.0013     0.0003     0.0004     0.0002          1       1.42 
   2421.00       0.17     0.0782     0.0006     0.0004     0.0013     0.0003     0.0004     0.0001          1       1.42 
   2421.50       0.16     0.0768     0.0006     0.0004     0.0013     0.0002     0.0003     0.0001          1       1.42 
   2422.00       0.16     0.0731     0.0006     0.0003     0.0014     0.0002     0.0004     0.0001          1       1.42 
   2422.50       0.15     0.0713     0.0006     0.0004     0.0013     0.0002     0.0004     0.0001          1       1.42 
   2423.00       0.15     0.0721     0.0006     0.0004     0.0014     0.0002     0.0004     0.0001          1       1.42 
   2423.50       0.16     0.0724     0.0006     0.0004     0.0014     0.0002     0.0003     0.0001          1       1.42 
   2424.00       0.16     0.0745     0.0006     0.0003     0.0014     0.0002     0.0004     0.0001          1       1.42 
   2424.50       0.16     0.0745     0.0006     0.0004     0.0016     0.0004     0.0005     0.0002          1       1.42 
   2425.00       0.16     0.0733     0.0006     0.0004     0.0016     0.0004     0.0006     0.0002          1       1.42 
   2425.50       0.15     0.0729     0.0006     0.0004     0.0015     0.0003     0.0006     0.0002          1       1.42 
   2426.00       0.15     0.0721     0.0007     0.0004     0.0015     0.0002     0.0004     0.0001          1       1.42 
   2426.50       0.15     0.0721     0.0008     0.0004     0.0015     0.0003     0.0004     0.0001          1       1.42 
   2427.00       0.15     0.0700     0.0006     0.0004     0.0016     0.0002     0.0004     0.0001          1       1.42 
   2427.50       0.13     0.0644     0.0005     0.0003     0.0017     0.0002     0.0004     0.0001          1       1.42 
   2428.00       0.09     0.0276     0.0005     0.0003     0.0017     0.0002     0.0004     0.0001          1       1.42 
   2428.50       0.11     0.0444     0.0005     0.0004     0.0017     0.0002     0.0004     0.0001          1       1.42 
   2429.00       0.13     0.0539     0.0006     0.0004     0.0017     0.0002     0.0004     0.0001          1       1.42 
   2429.50       0.15     0.0643     0.0006     0.0004     0.0017     0.0003     0.0004     0.0001          1       1.42 
   2430.00       0.17     0.0741     0.0007     0.0004     0.0018     0.0003     0.0004     0.0001          1       1.43 
   2430.50       0.17     0.0741     0.0007     0.0004     0.0018     0.0002     0.0004     0.0001          1       1.43 
   2431.00       0.19     0.0962     0.0009     0.0005     0.0018     0.0003     0.0004     0.0001          1       1.43 
   2431.50       0.19     0.1010     0.0009     0.0005     0.0018     0.0003     0.0004     0.0001          1       1.43 
   2432.00       0.21     0.1058     0.0009     0.0005     0.0018     0.0003     0.0004     0.0001          1       1.43 
   2432.50       0.21     0.1058     0.0009     0.0005     0.0018     0.0003     0.0004     0.0001          1       1.43 
   2433.00       0.21     0.1148     0.0010     0.0006     0.0018     0.0003     0.0004     0.0001          1       1.43 
   2433.50       0.22     0.1178     0.0010     0.0006     0.0018     0.0003     0.0004     0.0001          1       1.43 
   2434.00       0.23     0.1224     0.0010     0.0006     0.0018     0.0003     0.0005     0.0001          1       1.43 
   2434.50       0.24     0.1262     0.0011     0.0007     0.0019     0.0003     0.0005     0.0001          1       1.43 
