~VERSION INFORMATION
VERS.    2.0:   CWLS LOG ASCII STANDARD - VERSION 2.0
WRAP.     NO:   ONE LINE PER STEP
~WELL INFORMATION BLOCK
#MNEM.UNIT      DATA                  DESCRIPTION OF MNEMONIC
#----   --------             ---------------
STRT.m  620.00                   :START DEPTH
STOP.m  5139.00                   :STOP DEPTH
STEP.m  0.50                   :STEP VALUE
NULL.  -9999                   :NULL VALUE
COMP.   SHELL                   :COMPANY NAME
WELL.   PRELUDE P1 ST1                   :WELL NAME
FLD .   PRELUDE                   :FIELD NAME
LOC .   BROWSE BASIN                   :LOCATION
PROV.   NORTH WEST SHELF, W.A.                   :PROVINCE
SRVC.   Geoservices                   :SERVICE COMPANY NAME
DATE.   01-10-2015 15:42:04                   :DATE
UWI .                      :UNIQUE WELL IDENTIFIER
~CURVE INFORMATION
#MNEM.UNIT       API CODE        CURVE DESCRIPTION
#----   -------- ------------------
Tot Depth .m        :Tot Depth
T GAS main .%        :T GAS main
C1  main .%        :C1  main
C2  main .%        :C2  main
C3  main .%        :C3  main
iC4 main .%        :iC4 main
nC4 main .%        :nC4 main
iC5 main .%        :iC5 main
nC5 main .%        :nC5 main
C02 .ppm        :C02
MW IN .kg/l        :MW IN
#
#-----------------------------------------------------------
# Tot Depth (m)   T GAS main (%)   C1  main (%)   C2  main (%)   C3  main (%)   iC4 main (%)   nC4 main (%)   iC5 main (%)   nC5 main (%)   C02 (ppm)   MW IN (kg/l)
#-----------------------------------------------------------
~A
# ...
   3326.00       0.37     0.1820     0.0101     0.0044     0.0032     0.0011     0.0005     0.0003          1       1.44 
   3326.50       0.37     0.1820     0.0101     0.0044     0.0032     0.0011     0.0005     0.0002          1       1.44 
   3327.00       0.37     0.1836     0.0104     0.0042     0.0032     0.0011     0.0004     0.0002          1       1.44 
   3327.50       0.38     0.1889     0.0104     0.0043     0.0033     0.0011     0.0005     0.0002          1       1.44 
   3328.00       0.38     0.1867     0.0101     0.0043     0.0034     0.0011     0.0005     0.0002          1       1.44 
   3328.50       0.32     0.1422     0.0080     0.0036     0.0036     0.0009     0.0005     0.0001          1       1.44 
   3329.00       0.37     0.1626     0.0092     0.0042     0.0040     0.0010     0.0005     0.0001          1       1.44 
   3329.50       0.39     0.1870     0.0115     0.0052     0.0040     0.0012     0.0005     0.0002          1       1.44 
   3330.00       0.40     0.1997     0.0122     0.0053     0.0039     0.0012     0.0005     0.0003          1       1.44 
   3330.50       0.42     0.2117     0.0125     0.0053     0.0037     0.0013     0.0005     0.0003          1       1.44 
   3331.00       0.42     0.2228     0.0130     0.0054     0.0035     0.0013     0.0005     0.0002          1       1.44 
   3331.50       0.42     0.2228     0.0130     0.0054     0.0034     0.0013     0.0004     0.0002          1       1.44 
   3332.00       0.42     0.2168     0.0127     0.0052     0.0033     0.0012     0.0004     0.0002          1       1.44 
   3332.50       0.42     0.2165     0.0129     0.0054     0.0033     0.0013     0.0004     0.0002          1       1.44 
   3333.00       0.42     0.2141     0.0128     0.0054     0.0033     0.0013     0.0005     0.0002          1       1.44 
   3333.50       0.40     0.2004     0.0121     0.0051     0.0032     0.0012     0.0005     0.0002          1       1.44 
   3334.00       0.41     0.2047     0.0137     0.0056     0.0032     0.0013     0.0005     0.0002          1       1.44 
   3334.50       0.40     0.1918     0.0133     0.0053     0.0032     0.0012     0.0005     0.0002          1       1.44 
   3335.00       0.41     0.2006     0.0143     0.0059     0.0031     0.0013     0.0004     0.0002          1       1.44 
   3335.50       0.42     0.2060     0.0147     0.0061     0.0032     0.0014     0.0005     0.0002          1       1.44 
   3336.00       0.43     0.2154     0.0149     0.0064     0.0032     0.0015     0.0006     0.0002          1       1.44 
   3336.50       0.43     0.2163     0.0149     0.0064     0.0032     0.0015     0.0006     0.0002          1       1.44 
   3337.00       0.42     0.2128     0.0136     0.0059     0.0032     0.0014     0.0005     0.0002          1       1.44 
   3337.50       0.43     0.2186     0.0129     0.0058     0.0033     0.0014     0.0005     0.0002          1       1.45 
   3338.00       0.42     0.2198     0.0127     0.0058     0.0033     0.0014     0.0005     0.0002          1       1.45 
   3338.50       0.43     0.2198     0.0119     0.0056     0.0034     0.0014     0.0005     0.0002          1       1.45 
   3339.00       0.28     0.1019     0.0067     0.0031     0.0034     0.0009     0.0004     0.0001          1       1.45 
   3339.50       0.31     0.1143     0.0070     0.0035     0.0037     0.0010     0.0005     0.0001          1       1.45 
   3340.00       0.37     0.1455     0.0091     0.0046     0.0040     0.0012     0.0006     0.0002          1       1.44 
   3340.50       0.40     0.1731     0.0108     0.0056     0.0042     0.0014     0.0006     0.0002          1       1.44 
   3341.00       0.41     0.1909     0.0116     0.0058     0.0044     0.0014     0.0005     0.0002          1       1.45 
   3341.50       0.40     0.1841     0.0109     0.0052     0.0043     0.0012     0.0007     0.0003          1       1.44 
   3342.00       0.38     0.1785     0.0108     0.0046     0.0043     0.0012     0.0007     0.0003          1       1.44 
   3342.50       0.39     0.1721     0.0111     0.0050     0.0036     0.0013     0.0004     0.0002          1       1.44 
   3343.00       0.42     0.2030     0.0128     0.0057     0.0037     0.0013     0.0005     0.0002          1       1.44 
   3343.50       0.42     0.2030     0.0137     0.0057     0.0038     0.0013     0.0005     0.0002          1       1.44 
   3344.00       0.41     0.1918     0.0138     0.0056     0.0037     0.0013     0.0007     0.0002          1       1.44 
   3344.50       0.42     0.2030     0.0146     0.0059     0.0037     0.0014     0.0007     0.0002          1       1.44 
   3345.00       0.45     0.2214     0.0160     0.0064     0.0036     0.0014     0.0005     0.0003          1       1.44 
   3345.50       0.45     0.2318     0.0163     0.0065     0.0036     0.0015     0.0005     0.0002          1       1.44 
   3346.00       0.45     0.2318     0.0162     0.0065     0.0035     0.0015     0.0005     0.0003          1       1.44 
   3346.50       0.44     0.2234     0.0146     0.0059     0.0034     0.0014     0.0005     0.0003          1       1.44 
   3347.00       0.44     0.2216     0.0146     0.0059     0.0033     0.0014     0.0005     0.0003          1       1.44 
   3347.50       0.44     0.2190     0.0145     0.0059     0.0033     0.0014     0.0005     0.0002          1       1.45 
   3348.00       0.42     0.2159     0.0142     0.0058     0.0032     0.0014     0.0004     0.0002          1       1.45 
   3348.50       0.40     0.1934     0.0133     0.0053     0.0031     0.0013     0.0004     0.0002          1       1.45 
   3349.00       0.40     0.1770     0.0133     0.0054     0.0031     0.0013     0.0004     0.0002          1       1.45 
   3349.50       0.39     0.1774     0.0133     0.0054     0.0031     0.0013     0.0004     0.0002          1       1.45 
   3350.00       0.40     0.1756     0.0118     0.0050     0.0031     0.0013     0.0004     0.0002          1       1.45 
   3350.50       0.39     0.1731     0.0113     0.0049     0.0031     0.0012     0.0005     0.0002          1       1.44 
   3351.00       0.38     0.1583     0.0114     0.0048     0.0030     0.0012     0.0005     0.0002          1       1.44 
   3351.50       0.37     0.1444     0.0120     0.0051     0.0029     0.0012     0.0003     0.0002          1       1.45 
   3352.00       0.38     0.1512     0.0124     0.0053     0.0030     0.0013     0.0005     0.0002          1       1.45 
   3352.50       0.40     0.1783     0.0123     0.0055     0.0031     0.0014     0.0006     0.0003          1       1.45 
   3353.00       0.38     0.1723     0.0114     0.0049     0.0030     0.0012     0.0004     0.0002          1       1.45 
   3353.50       0.37     0.1570     0.0104     0.0045     0.0030     0.0011     0.0005     0.0002          1       1.44 
   3354.00       0.37     0.1568     0.0116     0.0045     0.0030     0.0011     0.0004     0.0002          1       1.44 
   3354.50       0.37     0.1490     0.0116     0.0047     0.0031     0.0011     0.0004     0.0002          1       1.44 
   3355.00       0.37     0.1482     0.0120     0.0049     0.0032     0.0012     0.0005     0.0003          1       1.44 
   3355.50       0.39     0.1681     0.0130     0.0053     0.0030     0.0013     0.0005     0.0001          1       1.44 
   3356.00       0.41     0.1902     0.0142     0.0056     0.0031     0.0013     0.0005     0.0002          1       1.44 
   3356.50       0.40     0.1902     0.0134     0.0053     0.0031     0.0013     0.0004     0.0003          1       1.44 
   3357.00       0.40     0.1796     0.0144     0.0054     0.0036     0.0013     0.0005     0.0002          1       1.44 
   3357.50       0.39     0.1736     0.0120     0.0047     0.0037     0.0011     0.0004     0.0002          1       1.44 
   3358.00       0.39     0.1712     0.0122     0.0050     0.0032     0.0011     0.0004     0.0002          1       1.45 
   3358.50       0.39     0.1750     0.0128     0.0051     0.0032     0.0012     0.0004     0.0002          1       1.45 
