~VERSION INFORMATION
VERS.    2.0:   CWLS LOG ASCII STANDARD - VERSION 2.0
WRAP.     NO:   ONE LINE PER STEP
~WELL INFORMATION BLOCK
#MNEM.UNIT      DATA                  DESCRIPTION OF MNEMONIC
#----   --------             ---------------
STRT.m  620.00                   :START DEPTH
STOP.m  5139.00                   :STOP DEPTH
STEP.m  0.50                   :STEP VALUE
NULL.  -999.25                   :NULL VALUE
COMP.   SHELL                   :COMPANY NAME
WELL.   PRELUDE P1 ST1                   :WELL NAME
FLD .   PRELUDE                   :FIELD NAME
LOC .   BROWSE BASIN                   :LOCATION
PROV.   NORTH WEST SHELF, W.A.                   :PROVINCE
SRVC.   Geoservices                   :SERVICE COMPANY NAME
DATE.   01-10-2015 15:42:38                   :DATE
UWI .                      :UNIQUE WELL IDENTIFIER
~CURVE INFORMATION
#MNEM.UNIT       API CODE        CURVE DESCRIPTION
#----   -------- ------------------
Tot Depth .m        :Tot Depth
THG IN .%        :THG IN
C1 IN .%        :C1 IN
C2 IN .%        :C2 IN
C3 IN .%        :C3 IN
iC4 IN .%        :iC4 IN
nC4 IN .%        :nC4 IN
iC5 IN .%        :iC5 IN
nC5 IN .%        :nC5 IN
#
#-----------------------------------------------------------
# Tot Depth (m)   THG IN (%)   C1 IN (%)   C2 IN (%)   C3 IN (%)   iC4 IN (%)   nC4 IN (%)   iC5 IN (%)   nC5 IN (%)
#-----------------------------------------------------------
~A
# ...
   5100.00       0.28     0.1898     0.0246     0.0076     0.0019     0.0015     0.0005     0.0002 
   5100.50       0.28     0.1898     0.0246     0.0076     0.0019     0.0015     0.0005     0.0002 
   5101.00       0.30     0.2076     0.0263     0.0080     0.0018     0.0016     0.0006     0.0003 
   5101.50       0.33     0.2219     0.0295     0.0093     0.0020     0.0020     0.0006     0.0004 
   5102.00       0.33     0.2194     0.0302     0.0094     0.0020     0.0019     0.0006     0.0003 
   5102.50       0.33     0.2194     0.0302     0.0094     0.0020     0.0019     0.0006     0.0003 
   5103.00       0.36     0.2433     0.0317     0.0096     0.0020     0.0019     0.0007     0.0003 
   5103.50       0.36     0.2473     0.0319     0.0096     0.0020     0.0019     0.0007     0.0003 
   5104.00       0.33     0.2278     0.0289     0.0087     0.0019     0.0017     0.0006     0.0003 
   5104.50       0.33     0.2278     0.0288     0.0086     0.0019     0.0017     0.0005     0.0003 
   5105.00       0.40     0.2781     0.0337     0.0097     0.0020     0.0019     0.0008     0.0005 
   5105.50       0.40     0.2771     0.0328     0.0095     0.0020     0.0018     0.0008     0.0003 
   5106.00       0.39     0.2771     0.0328     0.0095     0.0020     0.0018     0.0006     0.0003 
   5106.50       0.44     0.3092     0.0362     0.0104     0.0021     0.0020     0.0007     0.0003 
   5107.00       0.45     0.3161     0.0375     0.0107     0.0021     0.0021     0.0008     0.0003 
   5107.50       0.47     0.3385     0.0385     0.0108     0.0021     0.0021     0.0008     0.0003 
   5108.00       0.50     0.3661     0.0391     0.0108     0.0021     0.0020     0.0007     0.0004 
   5108.50       0.53     0.3900     0.0420     0.0115     0.0022     0.0021     0.0006     0.0004 
   5109.00       0.54     0.3958     0.0431     0.0118     0.0023     0.0022     0.0006     0.0007 
   5109.50       0.58     0.4242     0.0457     0.0125     0.0023     0.0023     0.0007     0.0007 
   5110.00       0.55     0.3991     0.0441     0.0123     0.0023     0.0023     0.0007     0.0004 
   5110.50       0.49     0.3543     0.0396     0.0111     0.0021     0.0020     0.0007     0.0004 
   5111.00       0.38     0.2797     0.0290     0.0079     0.0018     0.0014     0.0005     0.0002 
   5111.50       0.38     0.2797     0.0290     0.0079     0.0018     0.0014     0.0005     0.0002 
   5112.00       0.29     0.2122     0.0215     0.0058     0.0015     0.0012     0.0004     0.0002 
   5112.50       0.31     0.2276     0.0229     0.0061     0.0016     0.0011     0.0003     0.0002 
   5113.00       0.31     0.2276     0.0229     0.0061     0.0016     0.0011     0.0005     0.0003 
   5113.50       0.29     0.2099     0.0219     0.0059     0.0015     0.0011     0.0005     0.0003 
   5114.00       0.27     0.1972     0.0214     0.0059     0.0016     0.0011     0.0004     0.0001 
   5114.50       0.28     0.1995     0.0238     0.0068     0.0016     0.0012     0.0004     0.0001 
   5115.00       0.28     0.1995     0.0238     0.0068     0.0017     0.0013     0.0004     0.0002 
   5115.50       0.27     0.1887     0.0235     0.0068     0.0017     0.0013     0.0005     0.0002 
   5116.00       0.25     0.1703     0.0208     0.0059     0.0016     0.0011     0.0005     0.0001 
   5116.50       0.25     0.1703     0.0208     0.0059     0.0016     0.0011     0.0004     0.0002 
   5117.00       0.24     0.1646     0.0201     0.0057     0.0015     0.0010     0.0004     0.0002 
   5117.50       0.26     0.1835     0.0214     0.0060     0.0016     0.0011     0.0004     0.0002 
   5118.00       0.26     0.1835     0.0214     0.0060     0.0016     0.0011     0.0004     0.0002 
   5118.50       0.25     0.1756     0.0204     0.0057     0.0015     0.0010     0.0003     0.0002 
   5119.00       0.24     0.1747     0.0201     0.0056     0.0015     0.0010     0.0003     0.0002 
   5119.50       0.19     0.1310     0.0156     0.0043     0.0013     0.0011     0.0002     0.0001 
   5120.00       0.19     0.1310     0.0156     0.0043     0.0014     0.0012     0.0004     0.0001 
   5120.50       0.17     0.1173     0.0143     0.0040     0.0014     0.0011     0.0002     0.0001 
   5121.00       0.17     0.1173     0.0140     0.0039     0.0013     0.0010     0.0003     0.0000 
   5121.50       0.18     0.1235     0.0175     0.0031     0.0012     0.0009     0.0002     0.0000 
   5122.00       0.18     0.1209     0.0185     0.0034     0.0014     0.0010     0.0003     0.0000 
   5122.50       0.19     0.1307     0.0191     0.0039     0.0015     0.0011     0.0002     0.0000 
   5123.00       0.19     0.1316     0.0194     0.0029     0.0013     0.0012     0.0003     0.0000 
   5123.50       0.18     0.1215     0.0171     0.0036     0.0012     0.0013     0.0004     0.0000 
   5124.00       0.19     0.1244     0.0183     0.0055     0.0011     0.0010     0.0003     0.0000 
   5124.50       0.18     0.1222     0.0170     0.0053     0.0013     0.0009     0.0002     0.0000 
   5125.00       0.20     0.1345     0.0201     0.0060     0.0012     0.0010     0.0003     0.0000 
   5125.50       0.22     0.1453     0.0211     0.0068     0.0011     0.0012     0.0004     0.0000 
   5126.00       0.23     0.1493     0.0228     0.0073     0.0013     0.0014     0.0002     0.0000 
   5126.50       0.23     0.1543     0.0221     0.0062     0.0018     0.0016     0.0003     0.0000 
   5127.00       0.23     0.1563     0.0231     0.0056     0.0016     0.0014     0.0002     0.0000 
   5127.50       0.23     0.1582     0.0229     0.0057     0.0015     0.0010     0.0003     0.0001 
   5128.00       0.25     0.1582     0.0230     0.0079     0.0018     0.0016     0.0005     0.0003 
   5128.50       0.23     0.1371     0.0230     0.0079     0.0019     0.0017     0.0006     0.0003 
   5129.00       0.22     0.1281     0.0225     0.0079     0.0019     0.0017     0.0006     0.0002 
   5129.50       0.22     0.1298     0.0228     0.0081     0.0019     0.0017     0.0006     0.0003 
   5130.00       0.22     0.1298     0.0228     0.0082     0.0019     0.0018     0.0006     0.0003 
   5130.50       0.22     0.1285     0.0227     0.0082     0.0019     0.0018     0.0006     0.0003 
   5131.00       0.22     0.1264     0.0224     0.0080     0.0019     0.0018     0.0005     0.0003 
   5131.50       0.22     0.1264     0.0224     0.0080     0.0019     0.0018     0.0006     0.0003 
   5132.00       0.22     0.1311     0.0227     0.0081     0.0019     0.0018     0.0007     0.0003 
   5132.50       0.22     0.1311     0.0227     0.0081     0.0019     0.0018     0.0006     0.0003 
   5133.00       0.23     0.1367     0.0226     0.0079     0.0018     0.0018     0.0006     0.0003 
   5133.50       0.23     0.1367     0.0226     0.0079     0.0018     0.0017     0.0006     0.0003 
   5134.00       0.23     0.1439     0.0232     0.0080     0.0018     0.0017     0.0006     0.0003 
   5134.50       0.23     0.1439     0.0232     0.0080     0.0018     0.0018     0.0006     0.0004 
   5135.00       0.23     0.1397     0.0227     0.0078     0.0018     0.0018     0.0006     0.0004 
   5135.50       0.23     0.1397     0.0227     0.0078     0.0018     0.0017     0.0006     0.0003 
   5136.00       0.23     0.1379     0.0224     0.0077     0.0018     0.0017     0.0006     0.0004 
   5136.50       0.24     0.1459     0.0230     0.0079     0.0018     0.0018     0.0006     0.0004 
   5137.00       0.24     0.1459     0.0230     0.0079     0.0018     0.0018     0.0006     0.0004 
   5137.50       0.23     0.1438     0.0225     0.0078     0.0018     0.0018     0.0006     0.0004 
   5138.00       0.23     0.1438     0.0225     0.0078     0.0018     0.0017     0.0006     0.0003 
   5138.50       0.26     0.1680     0.0243     0.0080     0.0018     0.0018     0.0006     0.0003 
   5139.00       0.26     0.1706     0.0245     0.0081     0.0019     0.0018     0.0006     0.0003 
