~VERSION INFORMATION
VERS.    2.0:   CWLS LOG ASCII STANDARD - VERSION 2.0
WRAP.     NO:   ONE LINE PER STEP
~WELL INFORMATION BLOCK
#MNEM.UNIT      DATA                  DESCRIPTION OF MNEMONIC
#----   --------             ---------------
STRT.m  620.00                   :START DEPTH
STOP.m  5139.00                   :STOP DEPTH
STEP.m  0.50                   :STEP VALUE
NULL.  -9999                   :NULL VALUE
COMP.   SHELL                   :COMPANY NAME
WELL.   PRELUDE P1 ST1                   :WELL NAME
FLD .   PRELUDE                   :FIELD NAME
LOC .   BROWSE BASIN                   :LOCATION
PROV.   NORTH WEST SHELF, W.A.                   :PROVINCE
SRVC.   Geoservices                   :SERVICE COMPANY NAME
DATE.   01-10-2015 15:42:04                   :DATE
UWI .                      :UNIQUE WELL IDENTIFIER
~CURVE INFORMATION
#MNEM.UNIT       API CODE        CURVE DESCRIPTION
#----   -------- ------------------
Tot Depth .m        :Tot Depth
T GAS main .%        :T GAS main
C1  main .%        :C1  main
C2  main .%        :C2  main
C3  main .%        :C3  main
iC4 main .%        :iC4 main
nC4 main .%        :nC4 main
iC5 main .%        :iC5 main
nC5 main .%        :nC5 main
C02 .ppm        :C02
MW IN .kg/l        :MW IN
#
#-----------------------------------------------------------
# Tot Depth (m)   T GAS main (%)   C1  main (%)   C2  main (%)   C3  main (%)   iC4 main (%)   nC4 main (%)   iC5 main (%)   nC5 main (%)   C02 (ppm)   MW IN (kg/l)
#-----------------------------------------------------------
~A
# ...
   2105.00       0.01     0.0077     0.0006     0.0002     0.0000     0.0000     0.0000     0.0000          1       1.06 
   2105.50       0.01     0.0063     0.0001     0.0001     0.0000     0.0000     0.0000     0.0000          1       1.06 
   2106.00       0.01     0.0056     0.0001     0.0000     0.0000     0.0000     0.0000     0.0000          1       1.06 
   2106.50       0.01     0.0056     0.0001     0.0000     0.0000     0.0000     0.0000     0.0000          1       1.06 
   2107.00       0.01     0.0055     0.0001     0.0000     0.0000     0.0000     0.0000     0.0000          1       1.06 
   2107.50       0.01     0.0058     0.0001     0.0000     0.0000     0.0000     0.0000     0.0000          1       1.06 
   2108.00       0.01     0.0059     0.0001     0.0000     0.0000     0.0000     0.0000     0.0000          1       1.06 
   2108.50       0.01     0.0066     0.0001     0.0000     0.0000     0.0000     0.0000     0.0000          1       1.06 
   2109.00       0.01     0.0059     0.0001     0.0001     0.0000     0.0000     0.0000     0.0000          1       1.06 
   2109.50       0.01     0.0058     0.0001     0.0001     0.0000     0.0000     0.0000     0.0000          1       1.06 
   2110.00       0.01     0.0059     0.0001     0.0001     0.0000     0.0000     0.0000     0.0000          1       1.06 
   2110.50       0.01     0.0059     0.0001     0.0000     0.0000     0.0000     0.0000     0.0000          1       1.06 
   2111.00       0.01     0.0062     0.0001     0.0001     0.0000     0.0000     0.0000     0.0000          1       1.06 
   2111.50       0.01     0.0057     0.0001     0.0000     0.0000     0.0000     0.0000     0.0000          1       1.06 
   2112.00       0.01     0.0055     0.0000     0.0000     0.0000     0.0000     0.0000     0.0000          1       1.06 
   2112.50       0.01     0.0053     0.0000     0.0000     0.0000     0.0000     0.0000     0.0000          1       1.06 
   2113.00       0.01     0.0051     0.0005     0.0002     0.0000     0.0000     0.0000     0.0000          1       1.06 
   2113.50       0.01     0.0051     0.0005     0.0002     0.0000     0.0000     0.0000     0.0000          1       1.06 
   2114.00       0.01     0.0067     0.0002     0.0001     0.0000     0.0000     0.0000     0.0000          1       1.06 
   2114.50       0.01     0.0074     0.0002     0.0001     0.0000     0.0000     0.0000     0.0000          1       1.06 
   2115.00       0.01     0.0074     0.0001     0.0000     0.0000     0.0000     0.0000     0.0000          1       1.06 
   2115.50       0.01     0.0067     0.0002     0.0000     0.0000     0.0000     0.0000     0.0000          1       1.06 
   2116.00       0.01     0.0070     0.0002     0.0000     0.0000     0.0000     0.0000     0.0000          1       1.06 
   2116.50       0.01     0.0073     0.0001     0.0001     0.0000     0.0000     0.0000     0.0000          1       1.06 
   2117.00       0.01     0.0078     0.0001     0.0001     0.0000     0.0000     0.0000     0.0000          1       1.06 
   2117.50       0.01     0.0084     0.0001     0.0001     0.0000     0.0000     0.0000     0.0000          1       1.06 
   2118.00       0.01     0.0084     0.0001     0.0000     0.0000     0.0000     0.0000     0.0000          1       1.06 
   2118.50       0.01     0.0083     0.0002     0.0001     0.0000     0.0000     0.0000     0.0000          1       1.06 
   2119.00       0.01     0.0085     0.0002     0.0001     0.0000     0.0000     0.0000     0.0000          1       1.06 
   2119.50       0.01     0.0088     0.0002     0.0001     0.0000     0.0000     0.0000     0.0000          1       1.06 
   2120.00       0.01     0.0087     0.0001     0.0001     0.0000     0.0000     0.0000     0.0000          1       1.06 
   2120.50       0.01     0.0093     0.0001     0.0000     0.0000     0.0000     0.0000     0.0000          1       1.06 
   2121.00       0.01     0.0094     0.0001     0.0000     0.0000     0.0000     0.0000     0.0000          1       1.06 
   2121.50       0.01     0.0095     0.0001     0.0001     0.0000     0.0000     0.0000     0.0000          1       1.06 
   2122.00       0.01     0.0101     0.0002     0.0001     0.0000     0.0000     0.0000     0.0000          1       1.06 
   2122.50       0.01     0.0101     0.0002     0.0001     0.0000     0.0000     0.0000     0.0000          1       1.06 
   2123.00       0.01     0.0100     0.0002     0.0000     0.0000     0.0000     0.0000     0.0000          1       1.06 
   2123.50       0.01     0.0101     0.0003     0.0001     0.0000     0.0000     0.0000     0.0000          1       1.06 
   2124.00       0.01     0.0100     0.0002     0.0001     0.0000     0.0000     0.0000     0.0000          1       1.06 
   2124.50       0.01     0.0096     0.0002     0.0001     0.0000     0.0000     0.0000     0.0000          1       1.06 
   2125.00       0.01     0.0102     0.0001     0.0000     0.0000     0.0000     0.0000     0.0000          1       1.06 
   2125.50       0.01     0.0094     0.0001     0.0000     0.0000     0.0000     0.0000     0.0000          1       1.06 
   2126.00       0.01     0.0119     0.0001     0.0001     0.0000     0.0000     0.0000     0.0000          1       1.06 
   2126.50       0.01     0.0119     0.0007     0.0002     0.0000     0.0000     0.0000     0.0000          1       1.06 
   2127.00       0.01     0.0120     0.0002     0.0002     0.0000     0.0000     0.0000     0.0000          1       1.06 
   2127.50       0.01     0.0112     0.0002     0.0001     0.0000     0.0000     0.0000     0.0000          1       1.06 
   2128.00       0.01     0.0112     0.0002     0.0001     0.0000     0.0000     0.0000     0.0000          1       1.06 
   2128.50       0.01     0.0129     0.0004     0.0002     0.0000     0.0000     0.0000     0.0000          1       1.06 
   2129.00       0.01     0.0112     0.0001     0.0001     0.0000     0.0000     0.0000     0.0000          1       1.06 
   2129.50       0.01     0.0112     0.0005     0.0003     0.0000     0.0000     0.0000     0.0000          1       1.06 
   2130.00       0.01     0.0112     0.0002     0.0001     0.0000     0.0000     0.0000     0.0000          1       1.06 
   2130.50       0.01     0.0117     0.0002     0.0002     0.0000     0.0000     0.0000     0.0000          1       1.06 
   2131.00       0.01     0.0116     0.0002     0.0001     0.0000     0.0000     0.0000     0.0000          1       1.06 
   2131.50       0.01     0.0117     0.0002     0.0001     0.0000     0.0000     0.0000     0.0000          1       1.06 
   2132.00       0.01     0.0117     0.0002     0.0000     0.0000     0.0000     0.0000     0.0000          1       1.06 
   2132.50       0.01     0.0117     0.0002     0.0002     0.0000     0.0000     0.0000     0.0000          1       1.06 
   2133.00       0.02     0.0115     0.0002     0.0002     0.0000     0.0000     0.0000     0.0000          1       1.06 
   2133.50       0.02     0.0115     0.0001     0.0001     0.0000     0.0000     0.0000     0.0000          1       1.06 
   2134.00       0.02     0.0120     0.0002     0.0001     0.0000     0.0000     0.0000     0.0000          1       1.06 
   2134.50       0.02     0.0124     0.0002     0.0002     0.0000     0.0000     0.0000     0.0000          1       1.06 
   2135.00       0.02     0.0124     0.0007     0.0003     0.0000     0.0000     0.0000     0.0000          1       1.06 
   2135.50       0.01     0.0104     0.0002     0.0001     0.0000     0.0000     0.0000     0.0000          1       1.06 
   2136.00       0.01     0.0096     0.0003     0.0001     0.0000     0.0000     0.0000     0.0000          1       1.06 
   2136.50       0.01     0.0093     0.0003     0.0001     0.0000     0.0000     0.0000     0.0000          1       1.06 
   2137.00       0.01     0.0098     0.0008     0.0000     0.0000     0.0000     0.0000     0.0000          1       1.05 
   2137.50       0.01     0.0089     0.0003     0.0001     0.0000     0.0000     0.0000     0.0000          1       1.05 
