~VERSION INFORMATION
VERS.    2.0:   CWLS LOG ASCII STANDARD - VERSION 2.0
WRAP.     NO:   ONE LINE PER STEP
~WELL INFORMATION BLOCK
#MNEM.UNIT      DATA                  DESCRIPTION OF MNEMONIC
#----   --------             ---------------
STRT.m  620.00                   :START DEPTH
STOP.m  5139.00                   :STOP DEPTH
STEP.m  0.50                   :STEP VALUE
NULL.  -9999                   :NULL VALUE
COMP.   SHELL                   :COMPANY NAME
WELL.   PRELUDE P1 ST1                   :WELL NAME
FLD .   PRELUDE                   :FIELD NAME
LOC .   BROWSE BASIN                   :LOCATION
PROV.   NORTH WEST SHELF, W.A.                   :PROVINCE
SRVC.   Geoservices                   :SERVICE COMPANY NAME
DATE.   01-10-2015 15:42:04                   :DATE
UWI .                      :UNIQUE WELL IDENTIFIER
~CURVE INFORMATION
#MNEM.UNIT       API CODE        CURVE DESCRIPTION
#----   -------- ------------------
Tot Depth .m        :Tot Depth
T GAS main .%        :T GAS main
C1  main .%        :C1  main
C2  main .%        :C2  main
C3  main .%        :C3  main
iC4 main .%        :iC4 main
nC4 main .%        :nC4 main
iC5 main .%        :iC5 main
nC5 main .%        :nC5 main
C02 .ppm        :C02
MW IN .kg/l        :MW IN
#
#-----------------------------------------------------------
# Tot Depth (m)   T GAS main (%)   C1  main (%)   C2  main (%)   C3  main (%)   iC4 main (%)   nC4 main (%)   iC5 main (%)   nC5 main (%)   C02 (ppm)   MW IN (kg/l)
#-----------------------------------------------------------
~A
# ...
   2699.00       0.40     0.2142     0.0029     0.0006     0.0050     0.0000     0.0006     0.0000          1       1.44 
   2699.50       0.44     0.2528     0.0033     0.0007     0.0050     0.0000     0.0006     0.0000          1       1.44 
   2700.00       0.47     0.2695     0.0033     0.0007     0.0050     0.0000     0.0006     0.0000          1       1.44 
   2700.50       0.47     0.2695     0.0033     0.0007     0.0050     0.0000     0.0006     0.0000          1       1.44 
   2701.00       0.49     0.2964     0.0036     0.0008     0.0050     0.0001     0.0006     0.0000          1       1.44 
   2701.50       0.51     0.3074     0.0037     0.0008     0.0050     0.0001     0.0006     0.0000          1       1.44 
   2702.00       0.53     0.3374     0.0040     0.0008     0.0051     0.0000     0.0006     0.0000          1       1.44 
   2702.50       0.53     0.3374     0.0039     0.0008     0.0051     0.0000     0.0006     0.0000          1       1.44 
   2703.00       0.53     0.3597     0.0042     0.0009     0.0051     0.0000     0.0006     0.0000          1       1.44 
   2703.50       0.55     0.3708     0.0043     0.0009     0.0050     0.0000     0.0006     0.0000          1       1.44 
   2704.00       0.57     0.3866     0.0045     0.0009     0.0050     0.0000     0.0006     0.0000          1       1.44 
   2704.50       0.58     0.3993     0.0046     0.0009     0.0050     0.0000     0.0006     0.0000          1       1.44 
   2705.00       0.58     0.3993     0.0046     0.0009     0.0050     0.0000     0.0006     0.0000          1       1.44 
   2705.50       0.57     0.4114     0.0046     0.0010     0.0050     0.0000     0.0006     0.0000          1       1.44 
   2706.00       0.60     0.4197     0.0047     0.0010     0.0050     0.0001     0.0006     0.0001          1       1.44 
   2706.50       0.60     0.4290     0.0048     0.0010     0.0050     0.0001     0.0006     0.0001          1       1.44 
   2707.00       0.61     0.4306     0.0049     0.0010     0.0050     0.0000     0.0006     0.0000          1       1.44 
   2707.50       0.61     0.4306     0.0049     0.0010     0.0050     0.0000     0.0006     0.0000          1       1.44 
   2708.00       0.59     0.4325     0.0049     0.0010     0.0050     0.0002     0.0008     0.0001          1       1.44 
   2708.50       0.60     0.4325     0.0048     0.0009     0.0049     0.0002     0.0008     0.0001          1       1.44 
   2709.00       0.60     0.4324     0.0049     0.0011     0.0049     0.0001     0.0007     0.0000          1       1.44 
   2709.50       0.61     0.4326     0.0049     0.0011     0.0050     0.0002     0.0007     0.0000          1       1.44 
   2710.00       0.61     0.4326     0.0047     0.0010     0.0050     0.0002     0.0006     0.0000          1       1.44 
   2710.50       0.59     0.4326     0.0048     0.0010     0.0050     0.0002     0.0006     0.0000          1       1.44 
   2711.00       0.60     0.4319     0.0048     0.0010     0.0049     0.0001     0.0006     0.0000          1       1.44 
   2711.50       0.60     0.4319     0.0048     0.0010     0.0049     0.0000     0.0006     0.0000          1       1.44 
   2712.00       0.60     0.4441     0.0051     0.0013     0.0049     0.0000     0.0006     0.0000          1       1.44 
   2712.50       0.62     0.4509     0.0052     0.0011     0.0050     0.0000     0.0005     0.0000          1       1.44 
   2713.00       0.62     0.4565     0.0052     0.0011     0.0050     0.0000     0.0006     0.0000          1       1.44 
   2713.50       0.64     0.4616     0.0052     0.0011     0.0050     0.0000     0.0006     0.0000          1       1.44 
   2714.00       0.64     0.4616     0.0052     0.0011     0.0050     0.0000     0.0006     0.0000          1       1.44 
   2714.50       0.62     0.4624     0.0053     0.0011     0.0050     0.0000     0.0006     0.0000          1       1.44 
   2715.00       0.63     0.4624     0.0053     0.0011     0.0049     0.0000     0.0006     0.0000          1       1.44 
   2715.50       0.65     0.4674     0.0055     0.0011     0.0050     0.0000     0.0005     0.0000          1       1.44 
   2716.00       0.65     0.4731     0.0055     0.0011     0.0051     0.0000     0.0006     0.0000          1       1.44 
   2716.50       0.65     0.4754     0.0055     0.0011     0.0051     0.0001     0.0006     0.0000          1       1.44 
   2717.00       0.65     0.4754     0.0055     0.0011     0.0051     0.0001     0.0006     0.0000          1       1.44 
   2717.50       0.63     0.4754     0.0055     0.0011     0.0051     0.0001     0.0006     0.0000          1       1.44 
   2718.00       0.64     0.4751     0.0055     0.0011     0.0051     0.0001     0.0006     0.0001          1       1.44 
   2718.50       0.64     0.4773     0.0055     0.0011     0.0051     0.0001     0.0005     0.0001          1       1.44 
   2719.00       0.65     0.4773     0.0054     0.0011     0.0051     0.0001     0.0006     0.0001          1       1.44 
   2719.50       0.65     0.4731     0.0053     0.0011     0.0051     0.0000     0.0006     0.0000          1       1.44 
   2720.00       0.63     0.4731     0.0053     0.0011     0.0051     0.0000     0.0006     0.0000          1       1.44 
   2720.50       0.63     0.4731     0.0053     0.0011     0.0051     0.0000     0.0006     0.0001          1       1.44 
   2721.00       0.63     0.4682     0.0053     0.0011     0.0051     0.0000     0.0006     0.0001          1       1.44 
   2721.50       0.64     0.4673     0.0053     0.0011     0.0052     0.0000     0.0006     0.0001          1       1.44 
   2722.00       0.65     0.4680     0.0054     0.0011     0.0052     0.0000     0.0006     0.0000          1       1.44 
   2722.50       0.64     0.4680     0.0054     0.0011     0.0052     0.0000     0.0006     0.0000          1       1.44 
   2723.00       0.63     0.4680     0.0054     0.0011     0.0052     0.0000     0.0007     0.0000          1       1.44 
   2723.50       0.63     0.4671     0.0053     0.0011     0.0051     0.0001     0.0007     0.0000          1       1.44 
   2724.00       0.63     0.4661     0.0053     0.0011     0.0051     0.0001     0.0006     0.0000          1       1.44 
   2724.50       0.64     0.4661     0.0053     0.0011     0.0052     0.0001     0.0006     0.0000          1       1.44 
   2725.00       0.64     0.4624     0.0053     0.0011     0.0052     0.0001     0.0006     0.0000          1       1.44 
   2725.50       0.61     0.4624     0.0053     0.0011     0.0052     0.0001     0.0006     0.0000          1       1.44 
   2726.00       0.59     0.4624     0.0053     0.0011     0.0052     0.0001     0.0006     0.0000          1       1.44 
   2726.50       0.57     0.4205     0.0048     0.0010     0.0053     0.0001     0.0006     0.0001          1       1.44 
   2727.00       0.47     0.2458     0.0034     0.0008     0.0052     0.0000     0.0006     0.0000          1       1.44 
   2727.50       0.52     0.3406     0.0045     0.0010     0.0053     0.0000     0.0006     0.0001          1       1.44 
   2728.00       0.55     0.3629     0.0048     0.0012     0.0054     0.0002     0.0006     0.0001          1       1.44 
   2728.50       0.49     0.3423     0.0048     0.0012     0.0053     0.0003     0.0006     0.0000          1       1.44 
   2729.00       0.46     0.2680     0.0042     0.0012     0.0052     0.0003     0.0006     0.0001          1       1.44 
   2729.50       0.45     0.2417     0.0035     0.0011     0.0052     0.0003     0.0006     0.0001          1       1.44 
   2730.00       0.50     0.2880     0.0039     0.0010     0.0052     0.0002     0.0006     0.0001          1       1.44 
   2730.50       0.52     0.2880     0.0039     0.0010     0.0052     0.0002     0.0006     0.0001          1       1.44 
   2731.00       0.53     0.3618     0.0046     0.0011     0.0052     0.0002     0.0006     0.0001          1       1.44 
   2731.50       0.56     0.3851     0.0050     0.0011     0.0053     0.0000     0.0006     0.0001          1       1.44 
