~VERSION INFORMATION
VERS.    2.0:   CWLS LOG ASCII STANDARD - VERSION 2.0
WRAP.     NO:   ONE LINE PER STEP
~WELL INFORMATION BLOCK
#MNEM.UNIT      DATA                  DESCRIPTION OF MNEMONIC
#----   --------             ---------------
STRT.m  620.00                   :START DEPTH
STOP.m  5139.00                   :STOP DEPTH
STEP.m  0.50                   :STEP VALUE
NULL.  -999.25                   :NULL VALUE
COMP.   SHELL                   :COMPANY NAME
WELL.   PRELUDE P1 ST1                   :WELL NAME
FLD .   PRELUDE                   :FIELD NAME
LOC .   BROWSE BASIN                   :LOCATION
PROV.   NORTH WEST SHELF, W.A.                   :PROVINCE
SRVC.   Geoservices                   :SERVICE COMPANY NAME
DATE.   01-10-2015 15:42:38                   :DATE
UWI .                      :UNIQUE WELL IDENTIFIER
~CURVE INFORMATION
#MNEM.UNIT       API CODE        CURVE DESCRIPTION
#----   -------- ------------------
Tot Depth .m        :Tot Depth
THG IN .%        :THG IN
C1 IN .%        :C1 IN
C2 IN .%        :C2 IN
C3 IN .%        :C3 IN
iC4 IN .%        :iC4 IN
nC4 IN .%        :nC4 IN
iC5 IN .%        :iC5 IN
nC5 IN .%        :nC5 IN
#
#-----------------------------------------------------------
# Tot Depth (m)   THG IN (%)   C1 IN (%)   C2 IN (%)   C3 IN (%)   iC4 IN (%)   nC4 IN (%)   iC5 IN (%)   nC5 IN (%)
#-----------------------------------------------------------
~A
# ...
    900.00       0.00     0.0000     0.0000     0.0000     0.0000     0.0000     0.0000     0.0000 
    900.50       0.00     0.0000     0.0000     0.0000     0.0000     0.0000     0.0000     0.0000 
    901.00       0.00     0.0000     0.0000     0.0000     0.0000     0.0000     0.0000     0.0000 
    901.50       0.00     0.0000     0.0000     0.0000     0.0000     0.0000     0.0000     0.0000 
    902.00       0.00     0.0000     0.0000     0.0000     0.0000     0.0000     0.0000     0.0000 
    902.50       0.00     0.0000     0.0000     0.0000     0.0000     0.0000     0.0000     0.0000 
    903.00       0.00     0.0000     0.0000     0.0000     0.0000     0.0000     0.0000     0.0000 
    903.50       0.00     0.0000     0.0000     0.0000     0.0000     0.0000     0.0000     0.0000 
    904.00       0.00     0.0000     0.0000     0.0000     0.0000     0.0000     0.0000     0.0000 
    904.50       0.00     0.0000     0.0000     0.0000     0.0000     0.0000     0.0000     0.0000 
    905.00       0.00     0.0000     0.0000     0.0000     0.0000     0.0000     0.0000     0.0000 
    905.50       0.00     0.0000     0.0000     0.0000     0.0000     0.0000     0.0000     0.0000 
    906.00       0.00     0.0000     0.0000     0.0000     0.0000     0.0000     0.0000     0.0000 
    906.50       0.00     0.0000     0.0000     0.0000     0.0000     0.0000     0.0000     0.0000 
    907.00       0.00     0.0000     0.0000     0.0000     0.0000     0.0000     0.0000     0.0000 
    907.50       0.00     0.0000     0.0000     0.0000     0.0000     0.0000     0.0000     0.0000 
    908.00       0.00     0.0000     0.0000     0.0000     0.0000     0.0000     0.0000     0.0000 
    908.50       0.00     0.0000     0.0000     0.0000     0.0000     0.0000     0.0000     0.0000 
    909.00       0.00     0.0000     0.0000     0.0000     0.0000     0.0000     0.0000     0.0000 
    909.50       0.00     0.0000     0.0000     0.0000     0.0000     0.0000     0.0000     0.0000 
    910.00       0.00     0.0000     0.0000     0.0000     0.0000     0.0000     0.0000     0.0000 
    910.50       0.00     0.0000     0.0000     0.0000     0.0000     0.0000     0.0000     0.0000 
    911.00       0.00     0.0000     0.0000     0.0000     0.0000     0.0000     0.0000     0.0000 
    911.50       0.00     0.0000     0.0000     0.0000     0.0000     0.0000     0.0000     0.0000 
    912.00       0.00     0.0000     0.0000     0.0000     0.0000     0.0000     0.0000     0.0000 
    912.50       0.00     0.0000     0.0000     0.0000     0.0000     0.0000     0.0000     0.0000 
    913.00       0.00     0.0000     0.0000     0.0000     0.0000     0.0000     0.0000     0.0000 
    913.50       0.00     0.0000     0.0000     0.0000     0.0000     0.0000     0.0000     0.0000 
    914.00       0.00     0.0000     0.0000     0.0000     0.0000     0.0000     0.0000     0.0000 
    914.50       0.00     0.0000     0.0000     0.0000     0.0000     0.0000     0.0000     0.0000 
    915.00       0.00     0.0000     0.0000     0.0000     0.0000     0.0000     0.0000     0.0000 
    915.50       0.00     0.0000     0.0000     0.0000     0.0000     0.0000     0.0000     0.0000 
    916.00       0.00     0.0000     0.0000     0.0000     0.0000     0.0000     0.0000     0.0000 
    916.50       0.00     0.0000     0.0000     0.0000     0.0000     0.0000     0.0000     0.0000 
    917.00       0.00     0.0000     0.0000     0.0000     0.0000     0.0000     0.0000     0.0000 
    917.50       0.00     0.0000     0.0000     0.0000     0.0000     0.0000     0.0000     0.0000 
    918.00       0.00     0.0000     0.0000     0.0000     0.0000     0.0000     0.0000     0.0000 
    918.50       0.00     0.0000     0.0000     0.0000     0.0000     0.0000     0.0000     0.0000 
    919.00       0.00     0.0000     0.0000     0.0000     0.0000     0.0000     0.0000     0.0000 
    919.50       0.00     0.0000     0.0000     0.0000     0.0000     0.0000     0.0000     0.0000 
    920.00       0.00     0.0000     0.0000     0.0000     0.0000     0.0000     0.0000     0.0000 
    920.50       0.00     0.0000     0.0000     0.0000     0.0000     0.0000     0.0000     0.0000 
    921.00       0.00     0.0000     0.0000     0.0000     0.0000     0.0000     0.0000     0.0000 
    921.50       0.00     0.0000     0.0000     0.0000     0.0000     0.0000     0.0000     0.0000 
    922.00       0.00     0.0000     0.0000     0.0000     0.0000     0.0000     0.0000     0.0000 
    922.50       0.00     0.0000     0.0000     0.0000     0.0000     0.0000     0.0000     0.0000 
    923.00       0.00     0.0000     0.0000     0.0000     0.0000     0.0000     0.0000     0.0000 
    923.50       0.00     0.0000     0.0000     0.0000     0.0000     0.0000     0.0000     0.0000 
    924.00       0.00     0.0000     0.0000     0.0000     0.0000     0.0000     0.0000     0.0000 
    924.50       0.00     0.0000     0.0000     0.0000     0.0000     0.0000     0.0000     0.0000 
    925.00       0.00     0.0000     0.0000     0.0000     0.0000     0.0000     0.0000     0.0000 
    925.50       0.00     0.0000     0.0000     0.0000     0.0000     0.0000     0.0000     0.0000 
    926.00       0.00     0.0000     0.0000     0.0000     0.0000     0.0000     0.0000     0.0000 
    926.50       0.00     0.0000     0.0000     0.0000     0.0000     0.0000     0.0000     0.0000 
    927.00       0.00     0.0000     0.0000     0.0000     0.0000     0.0000     0.0000     0.0000 
    927.50       0.00     0.0000     0.0000     0.0000     0.0000     0.0000     0.0000     0.0000 
    928.00       0.00     0.0000     0.0000     0.0000     0.0000     0.0000     0.0000     0.0000 
    928.50       0.00     0.0000     0.0000     0.0000     0.0000     0.0000     0.0000     0.0000 
    929.00       0.00     0.0000     0.0000     0.0000     0.0000     0.0000     0.0000     0.0000 
    929.50       0.00     0.0000     0.0000     0.0000     0.0000     0.0000     0.0000     0.0000 
    930.00       0.00     0.0000     0.0000     0.0000     0.0000     0.0000     0.0000     0.0000 
    930.50       0.00     0.0000     0.0000     0.0000     0.0000     0.0000     0.0000     0.0000 
    931.00       0.00     0.0000     0.0000     0.0000     0.0000     0.0000     0.0000     0.0000 
    931.50       0.00     0.0000     0.0000     0.0000     0.0000     0.0000     0.0000     0.0000 
    932.00       0.00     0.0000     0.0000     0.0000     0.0000     0.0000     0.0000     0.0000 
    932.50       0.00     0.0000     0.0000     0.0000     0.0000     0.0000     0.0000     0.0000 
    933.00       0.00     0.0000     0.0000     0.0000     0.0000     0.0000     0.0000     0.0000 
    933.50       0.00     0.0000     0.0000     0.0000     0.0000     0.0000     0.0000     0.0000 
    934.00       0.00     0.0000     0.0000     0.0000     0.0000     0.0000     0.0000     0.0000 
    934.50       0.00     0.0000     0.0000     0.0000     0.0000     0.0000     0.0000     0.0000 
    935.00       0.00     0.0000     0.0000     0.0000     0.0000     0.0000     0.0000     0.0000 
    935.50       0.00     0.0000     0.0000     0.0000     0.0000     0.0000     0.0000     0.0000 
    936.00       0.00     0.0000     0.0000     0.0000     0.0000     0.0000     0.0000     0.0000 
    936.50       0.00     0.0000     0.0000     0.0000     0.0000     0.0000     0.0000     0.0000 
    937.00       0.00     0.0000     0.0000     0.0000     0.0000     0.0000     0.0000     0.0000 
    937.50       0.00     0.0000     0.0000     0.0000     0.0000     0.0000     0.0000     0.0000 
    938.00       0.00     0.0000     0.0000     0.0000     0.0000     0.0000     0.0000     0.0000 
    938.50       0.00     0.0000     0.0000     0.0000     0.0000     0.0000     0.0000     0.0000 
    939.00       0.00     0.0000     0.0000     0.0000     0.0000     0.0000     0.0000     0.0000 
    939.50       0.00     0.0000     0.0000     0.0000     0.0000     0.0000     0.0000     0.0000 
