~VERSION INFORMATION
VERS.    2.0:   CWLS LOG ASCII STANDARD - VERSION 2.0
WRAP.     NO:   ONE LINE PER STEP
~WELL INFORMATION BLOCK
#MNEM.UNIT      DATA                  DESCRIPTION OF MNEMONIC
#----   --------             ---------------
STRT.m  620.00                   :START DEPTH
STOP.m  5139.00                   :STOP DEPTH
STEP.m  0.50                   :STEP VALUE
NULL.  -9999                   :NULL VALUE
COMP.   SHELL                   :COMPANY NAME
WELL.   PRELUDE P1 ST1                   :WELL NAME
FLD .   PRELUDE                   :FIELD NAME
LOC .   BROWSE BASIN                   :LOCATION
PROV.   NORTH WEST SHELF, W.A.                   :PROVINCE
SRVC.   Geoservices                   :SERVICE COMPANY NAME
DATE.   01-10-2015 15:42:04                   :DATE
UWI .                      :UNIQUE WELL IDENTIFIER
~CURVE INFORMATION
#MNEM.UNIT       API CODE        CURVE DESCRIPTION
#----   -------- ------------------
Tot Depth .m        :Tot Depth
T GAS main .%        :T GAS main
C1  main .%        :C1  main
C2  main .%        :C2  main
C3  main .%        :C3  main
iC4 main .%        :iC4 main
nC4 main .%        :nC4 main
iC5 main .%        :iC5 main
nC5 main .%        :nC5 main
C02 .ppm        :C02
MW IN .kg/l        :MW IN
#
#-----------------------------------------------------------
# Tot Depth (m)   T GAS main (%)   C1  main (%)   C2  main (%)   C3  main (%)   iC4 main (%)   nC4 main (%)   iC5 main (%)   nC5 main (%)   C02 (ppm)   MW IN (kg/l)
#-----------------------------------------------------------
~A
# ...
   1511.00       0.00     0.0005     0.0000     0.0001     0.0000     0.0000     0.0000     0.0000          1       1.06 
   1511.50       0.00     0.0005     0.0000     0.0000     0.0000     0.0000     0.0000     0.0000          1       1.06 
   1512.00       0.00     0.0003     0.0000     0.0000     0.0000     0.0000     0.0000     0.0000          1       1.06 
   1512.50       0.00     0.0011     0.0000     0.0000     0.0000     0.0000     0.0000     0.0000          1       1.06 
   1513.00       0.00     0.0005     0.0000     0.0000     0.0000     0.0000     0.0000     0.0000          1       1.06 
   1513.50       0.00     0.0003     0.0000     0.0001     0.0000     0.0000     0.0000     0.0000          1       1.06 
   1514.00       0.00     0.0004     0.0000     0.0000     0.0000     0.0000     0.0000     0.0000          1       1.06 
   1514.50       0.00     0.0004     0.0000     0.0001     0.0000     0.0000     0.0000     0.0000          1       1.06 
   1515.00       0.00     0.0005     0.0000     0.0001     0.0000     0.0000     0.0000     0.0000          1       1.06 
   1515.50       0.00     0.0003     0.0000     0.0000     0.0000     0.0000     0.0000     0.0000          1       1.06 
   1516.00       0.00     0.0007     0.0000     0.0000     0.0000     0.0000     0.0000     0.0000          1       1.06 
   1516.50       0.00     0.0007     0.0000     0.0000     0.0000     0.0000     0.0000     0.0000          1       1.06 
   1517.00       0.00     0.0002     0.0000     0.0000     0.0000     0.0000     0.0000     0.0000          1       1.06 
   1517.50       0.00     0.0005     0.0000     0.0001     0.0000     0.0000     0.0000     0.0000          1       1.06 
   1518.00       0.00     0.0005     0.0000     0.0001     0.0000     0.0000     0.0000     0.0000          1       1.06 
   1518.50       0.00     0.0004     0.0000     0.0001     0.0000     0.0000     0.0000     0.0000          1       1.06 
   1519.00       0.00     0.0004     0.0000     0.0000     0.0000     0.0000     0.0000     0.0000          1       1.06 
   1519.50       0.00     0.0003     0.0000     0.0001     0.0000     0.0000     0.0000     0.0000          1       1.06 
   1520.00       0.00     0.0009     0.0000     0.0000     0.0000     0.0000     0.0000     0.0000          1       1.05 
   1520.50       0.00     0.0005     0.0000     0.0001     0.0000     0.0000     0.0000     0.0000          1       1.05 
   1521.00       0.00     0.0004     0.0000     0.0000     0.0000     0.0000     0.0000     0.0000          1       1.06 
   1521.50       0.00     0.0003     0.0000     0.0000     0.0000     0.0000     0.0000     0.0000          1       1.06 
   1522.00       0.00     0.0003     0.0001     0.0000     0.0000     0.0000     0.0000     0.0000          1       1.06 
   1522.50       0.00     0.0005     0.0001     0.0001     0.0000     0.0000     0.0000     0.0000          1       1.06 
   1523.00       0.00     0.0005     0.0000     0.0001     0.0000     0.0000     0.0000     0.0000          1       1.06 
   1523.50       0.00     0.0011     0.0001     0.0001     0.0000     0.0000     0.0000     0.0000          1       1.06 
   1524.00       0.00     0.0003     0.0000     0.0000     0.0000     0.0000     0.0000     0.0000          1       1.06 
   1524.50       0.00     0.0003     0.0000     0.0000     0.0000     0.0000     0.0000     0.0000          1       1.06 
   1525.00       0.00     0.0003     0.0000     0.0001     0.0000     0.0000     0.0000     0.0000          1       1.06 
   1525.50       0.00     0.0003     0.0000     0.0001     0.0000     0.0000     0.0000     0.0000          1       1.06 
   1526.00       0.00     0.0003     0.0000     0.0000     0.0000     0.0000     0.0000     0.0000          1       1.06 
   1526.50       0.00     0.0003     0.0000     0.0000     0.0000     0.0000     0.0000     0.0000          1       1.06 
   1527.00       0.00     0.0003     0.0000     0.0000     0.0000     0.0000     0.0000     0.0000          1       1.06 
   1527.50       0.00     0.0007     0.0000     0.0001     0.0000     0.0000     0.0000     0.0000          1       1.06 
   1528.00       0.00     0.0003     0.0000     0.0000     0.0000     0.0000     0.0000     0.0000          1       1.06 
   1528.50       0.00     0.0003     0.0000     0.0000     0.0000     0.0000     0.0000     0.0000          1       1.06 
   1529.00       0.00     0.0003     0.0000     0.0000     0.0000     0.0000     0.0000     0.0000          1       1.06 
   1529.50       0.00     0.0008     0.0000     0.0001     0.0000     0.0000     0.0000     0.0000          1       1.06 
   1530.00       0.00     0.0007     0.0001     0.0000     0.0000     0.0000     0.0000     0.0000          1       1.06 
   1530.50       0.00     0.0011     0.0002     0.0000     0.0000     0.0000     0.0000     0.0000          1       1.06 
   1531.00       0.00     0.0011     0.0002     0.0000     0.0000     0.0000     0.0000     0.0000          1       1.06 
   1531.50       0.00     0.0004     0.0000     0.0001     0.0000     0.0000     0.0000     0.0000          1       1.06 
   1532.00       0.00     0.0004     0.0000     0.0000     0.0000     0.0000     0.0000     0.0000          1       1.06 
   1532.50       0.00     0.0004     0.0000     0.0001     0.0000     0.0000     0.0000     0.0000          1       1.06 
   1533.00       0.00     0.0003     0.0000     0.0000     0.0000     0.0000     0.0000     0.0000          1       1.06 
   1533.50       0.00     0.0003     0.0000     0.0000     0.0000     0.0000     0.0000     0.0000          1       1.06 
   1534.00       0.00     0.0003     0.0000     0.0000     0.0000     0.0000     0.0000     0.0000          1       1.06 
   1534.50       0.00     0.0003     0.0000     0.0000     0.0000     0.0000     0.0000     0.0000          1       1.06 
   1535.00       0.00     0.0003     0.0000     0.0000     0.0000     0.0000     0.0000     0.0000          1       1.06 
   1535.50       0.00     0.0006     0.0002     0.0001     0.0000     0.0000     0.0000     0.0000          1       1.06 
   1536.00       0.00     0.0006     0.0002     0.0000     0.0000     0.0000     0.0000     0.0000          1       1.06 
   1536.50       0.00     0.0003     0.0001     0.0000     0.0000     0.0000     0.0000     0.0000          1       1.06 
   1537.00       0.00     0.0040     0.0001     0.0000     0.0000     0.0000     0.0000     0.0000          1       1.06 
   1537.50       0.00     0.0004     0.0000     0.0000     0.0000     0.0000     0.0000     0.0000          1       1.06 
   1538.00       0.00     0.0004     0.0000     0.0000     0.0000     0.0000     0.0000     0.0000          1       1.06 
   1538.50       0.00     0.0004     0.0000     0.0001     0.0000     0.0000     0.0000     0.0000          1       1.06 
   1539.00       0.00     0.0002     0.0000     0.0001     0.0000     0.0000     0.0000     0.0000          1       1.06 
   1539.50       0.00     0.0003     0.0000     0.0000     0.0000     0.0000     0.0000     0.0000          1       1.06 
   1540.00       0.00     0.0010     0.0003     0.0000     0.0000     0.0000     0.0000     0.0000          1       1.06 
   1540.50       0.00     0.0012     0.0003     0.0000     0.0000     0.0000     0.0000     0.0000          1       1.06 
   1541.00       0.00     0.0012     0.0000     0.0000     0.0000     0.0000     0.0000     0.0000          1       1.06 
   1541.50       0.00     0.0002     0.0000     0.0000     0.0000     0.0000     0.0000     0.0000          1       1.06 
   1542.00       0.00     0.0003     0.0000     0.0000     0.0000     0.0000     0.0000     0.0000          1       1.06 
   1542.50       0.00     0.0003     0.0000     0.0000     0.0000     0.0000     0.0000     0.0000          1       1.06 
   1543.00       0.00     0.0003     0.0001     0.0000     0.0000     0.0000     0.0000     0.0000          1       1.06 
   1543.50       0.00     0.0003     0.0001     0.0001     0.0000     0.0000     0.0000     0.0000          1       1.06 
