~VERSION INFORMATION
VERS.    2.0:   CWLS LOG ASCII STANDARD - VERSION 2.0
WRAP.     NO:   ONE LINE PER STEP
~WELL INFORMATION BLOCK
#MNEM.UNIT      DATA                  DESCRIPTION OF MNEMONIC
#----   --------             ---------------
STRT.m  620.00                   :START DEPTH
STOP.m  5139.00                   :STOP DEPTH
STEP.m  0.50                   :STEP VALUE
NULL.  -999.25                   :NULL VALUE
COMP.   SHELL                   :COMPANY NAME
WELL.   PRELUDE P1 ST1                   :WELL NAME
FLD .   PRELUDE                   :FIELD NAME
LOC .   BROWSE BASIN                   :LOCATION
PROV.   NORTH WEST SHELF, W.A.                   :PROVINCE
SRVC.   Geoservices                   :SERVICE COMPANY NAME
DATE.   01-10-2015 15:42:38                   :DATE
UWI .                      :UNIQUE WELL IDENTIFIER
~CURVE INFORMATION
#MNEM.UNIT       API CODE        CURVE DESCRIPTION
#----   -------- ------------------
Tot Depth .m        :Tot Depth
THG IN .%        :THG IN
C1 IN .%        :C1 IN
C2 IN .%        :C2 IN
C3 IN .%        :C3 IN
iC4 IN .%        :iC4 IN
nC4 IN .%        :nC4 IN
iC5 IN .%        :iC5 IN
nC5 IN .%        :nC5 IN
#
#-----------------------------------------------------------
# Tot Depth (m)   THG IN (%)   C1 IN (%)   C2 IN (%)   C3 IN (%)   iC4 IN (%)   nC4 IN (%)   iC5 IN (%)   nC5 IN (%)
#-----------------------------------------------------------
~A
# ...
   4220.00       0.11     0.0323     0.0112     0.0074     0.0021     0.0027     0.0011     0.0010 
   4220.50       0.11     0.0323     0.0112     0.0074     0.0021     0.0027     0.0011     0.0010 
   4221.00       0.11     0.0326     0.0112     0.0074     0.0021     0.0027     0.0011     0.0010 
   4221.50       0.11     0.0326     0.0112     0.0074     0.0021     0.0027     0.0011     0.0009 
   4222.00       0.11     0.0336     0.0114     0.0074     0.0021     0.0027     0.0011     0.0010 
   4222.50       0.11     0.0336     0.0114     0.0074     0.0021     0.0027     0.0011     0.0010 
   4223.00       0.10     0.0314     0.0108     0.0071     0.0021     0.0025     0.0011     0.0009 
   4223.50       0.10     0.0314     0.0108     0.0071     0.0021     0.0025     0.0011     0.0009 
   4224.00       0.11     0.0334     0.0114     0.0074     0.0021     0.0026     0.0011     0.0010 
   4224.50       0.11     0.0334     0.0114     0.0074     0.0021     0.0026     0.0010     0.0010 
   4225.00       0.11     0.0334     0.0114     0.0074     0.0021     0.0026     0.0010     0.0010 
   4225.50       0.12     0.0389     0.0127     0.0080     0.0022     0.0028     0.0011     0.0010 
   4226.00       0.12     0.0389     0.0127     0.0080     0.0022     0.0028     0.0011     0.0009 
   4226.50       0.12     0.0389     0.0127     0.0080     0.0022     0.0028     0.0011     0.0009 
   4227.00       0.13     0.0411     0.0132     0.0083     0.0022     0.0029     0.0012     0.0010 
   4227.50       0.13     0.0411     0.0132     0.0083     0.0022     0.0029     0.0012     0.0010 
   4228.00       0.13     0.0411     0.0132     0.0083     0.0022     0.0029     0.0012     0.0010 
   4228.50       0.13     0.0430     0.0136     0.0083     0.0023     0.0029     0.0012     0.0010 
   4229.00       0.13     0.0430     0.0136     0.0083     0.0023     0.0029     0.0012     0.0010 
   4229.50       0.13     0.0431     0.0136     0.0083     0.0023     0.0029     0.0012     0.0010 
   4230.00       0.13     0.0431     0.0134     0.0082     0.0022     0.0029     0.0011     0.0010 
   4230.50       0.13     0.0431     0.0134     0.0082     0.0022     0.0029     0.0011     0.0010 
   4231.00       0.13     0.0431     0.0134     0.0082     0.0022     0.0029     0.0011     0.0010 
   4231.50       0.12     0.0411     0.0128     0.0079     0.0022     0.0028     0.0011     0.0010 
   4232.00       0.12     0.0416     0.0128     0.0079     0.0022     0.0028     0.0013     0.0010 
   4232.50       0.12     0.0416     0.0127     0.0079     0.0021     0.0027     0.0012     0.0010 
   4233.00       0.12     0.0416     0.0127     0.0079     0.0022     0.0027     0.0012     0.0010 
   4233.50       0.12     0.0413     0.0126     0.0079     0.0022     0.0027     0.0011     0.0010 
   4234.00       0.12     0.0413     0.0126     0.0079     0.0022     0.0027     0.0012     0.0011 
   4234.50       0.11     0.0357     0.0113     0.0074     0.0021     0.0026     0.0012     0.0011 
   4235.00       0.10     0.0288     0.0096     0.0064     0.0020     0.0024     0.0011     0.0009 
   4235.50       0.09     0.0269     0.0092     0.0062     0.0020     0.0024     0.0010     0.0009 
   4236.00       0.09     0.0269     0.0092     0.0062     0.0020     0.0024     0.0010     0.0009 
   4236.50       0.09     0.0274     0.0093     0.0062     0.0020     0.0024     0.0010     0.0009 
   4237.00       0.09     0.0274     0.0093     0.0062     0.0020     0.0024     0.0010     0.0009 
   4237.50       0.09     0.0274     0.0093     0.0062     0.0020     0.0024     0.0010     0.0009 
   4238.00       0.10     0.0319     0.0102     0.0066     0.0021     0.0024     0.0010     0.0009 
   4238.50       0.10     0.0319     0.0102     0.0066     0.0021     0.0024     0.0010     0.0009 
   4239.00       0.11     0.0351     0.0109     0.0069     0.0021     0.0025     0.0011     0.0009 
   4239.50       0.11     0.0351     0.0109     0.0069     0.0021     0.0025     0.0011     0.0009 
   4240.00       0.11     0.0351     0.0109     0.0069     0.0021     0.0025     0.0011     0.0009 
   4240.50       0.12     0.0401     0.0120     0.0074     0.0021     0.0026     0.0011     0.0009 
   4241.00       0.12     0.0401     0.0120     0.0074     0.0021     0.0026     0.0011     0.0009 
   4241.50       0.12     0.0401     0.0120     0.0074     0.0021     0.0026     0.0011     0.0009 
   4242.00       0.12     0.0424     0.0125     0.0075     0.0021     0.0026     0.0011     0.0009 
   4242.50       0.12     0.0424     0.0125     0.0075     0.0021     0.0026     0.0011     0.0009 
   4243.00       0.12     0.0424     0.0125     0.0075     0.0021     0.0026     0.0011     0.0009 
   4243.50       0.12     0.0444     0.0130     0.0077     0.0022     0.0026     0.0011     0.0010 
   4244.00       0.12     0.0444     0.0130     0.0077     0.0022     0.0026     0.0011     0.0010 
   4244.50       0.13     0.0461     0.0135     0.0080     0.0022     0.0027     0.0012     0.0010 
   4245.00       0.13     0.0461     0.0135     0.0080     0.0022     0.0027     0.0012     0.0009 
   4245.50       0.13     0.0461     0.0135     0.0080     0.0022     0.0027     0.0012     0.0009 
   4246.00       0.13     0.0461     0.0135     0.0080     0.0022     0.0027     0.0012     0.0010 
   4246.50       0.13     0.0448     0.0131     0.0078     0.0022     0.0027     0.0012     0.0010 
   4247.00       0.13     0.0448     0.0131     0.0078     0.0022     0.0027     0.0012     0.0010 
   4247.50       0.13     0.0450     0.0133     0.0080     0.0022     0.0028     0.0012     0.0010 
   4248.00       0.13     0.0459     0.0134     0.0080     0.0022     0.0028     0.0012     0.0010 
   4248.50       0.13     0.0471     0.0135     0.0080     0.0022     0.0028     0.0012     0.0010 
   4249.00       0.13     0.0471     0.0135     0.0079     0.0022     0.0027     0.0012     0.0009 
   4249.50       0.13     0.0471     0.0135     0.0079     0.0022     0.0027     0.0012     0.0009 
   4250.00       0.13     0.0471     0.0135     0.0079     0.0022     0.0027     0.0012     0.0009 
   4250.50       0.13     0.0469     0.0134     0.0079     0.0022     0.0027     0.0011     0.0009 
   4251.00       0.13     0.0469     0.0134     0.0079     0.0022     0.0027     0.0011     0.0010 
   4251.50       0.12     0.0431     0.0126     0.0077     0.0022     0.0027     0.0011     0.0010 
   4252.00       0.12     0.0431     0.0126     0.0077     0.0022     0.0027     0.0011     0.0010 
   4252.50       0.12     0.0431     0.0126     0.0077     0.0022     0.0027     0.0011     0.0010 
   4253.00       0.12     0.0401     0.0118     0.0073     0.0022     0.0025     0.0011     0.0009 
   4253.50       0.12     0.0401     0.0118     0.0073     0.0022     0.0025     0.0011     0.0009 
   4254.00       0.11     0.0373     0.0111     0.0069     0.0021     0.0025     0.0011     0.0009 
   4254.50       0.11     0.0383     0.0109     0.0067     0.0021     0.0024     0.0010     0.0009 
   4255.00       0.10     0.0383     0.0105     0.0062     0.0020     0.0022     0.0009     0.0008 
   4255.50       0.10     0.0383     0.0105     0.0062     0.0020     0.0022     0.0009     0.0008 
   4256.00       0.10     0.0383     0.0105     0.0062     0.0020     0.0022     0.0009     0.0008 
   4256.50       0.10     0.0390     0.0105     0.0062     0.0020     0.0022     0.0009     0.0008 
   4257.00       0.10     0.0390     0.0101     0.0057     0.0019     0.0020     0.0009     0.0007 
   4257.50       0.11     0.0438     0.0110     0.0062     0.0019     0.0021     0.0009     0.0007 
   4258.00       0.12     0.0491     0.0119     0.0066     0.0020     0.0022     0.0009     0.0007 
   4258.50       0.12     0.0511     0.0122     0.0068     0.0020     0.0023     0.0010     0.0008 
   4259.00       0.12     0.0511     0.0122     0.0068     0.0020     0.0023     0.0010     0.0008 
   4259.50       0.12     0.0475     0.0116     0.0066     0.0020     0.0022     0.0010     0.0008 
