~VERSION INFORMATION
VERS.    2.0:   CWLS LOG ASCII STANDARD - VERSION 2.0
WRAP.     NO:   ONE LINE PER STEP
~WELL INFORMATION BLOCK
#MNEM.UNIT      DATA                  DESCRIPTION OF MNEMONIC
#----   --------             ---------------
STRT.m  620.00                   :START DEPTH
STOP.m  5139.00                   :STOP DEPTH
STEP.m  0.50                   :STEP VALUE
NULL.  -9999                   :NULL VALUE
COMP.   SHELL                   :COMPANY NAME
WELL.   PRELUDE P1 ST1                   :WELL NAME
FLD .   PRELUDE                   :FIELD NAME
LOC .   BROWSE BASIN                   :LOCATION
PROV.   NORTH WEST SHELF, W.A.                   :PROVINCE
SRVC.   Geoservices                   :SERVICE COMPANY NAME
DATE.   01-10-2015 15:42:04                   :DATE
UWI .                      :UNIQUE WELL IDENTIFIER
~CURVE INFORMATION
#MNEM.UNIT       API CODE        CURVE DESCRIPTION
#----   -------- ------------------
Tot Depth .m        :Tot Depth
T GAS main .%        :T GAS main
C1  main .%        :C1  main
C2  main .%        :C2  main
C3  main .%        :C3  main
iC4 main .%        :iC4 main
nC4 main .%        :nC4 main
iC5 main .%        :iC5 main
nC5 main .%        :nC5 main
C02 .ppm        :C02
MW IN .kg/l        :MW IN
#
#-----------------------------------------------------------
# Tot Depth (m)   T GAS main (%)   C1  main (%)   C2  main (%)   C3  main (%)   iC4 main (%)   nC4 main (%)   iC5 main (%)   nC5 main (%)   C02 (ppm)   MW IN (kg/l)
#-----------------------------------------------------------
~A
# ...
    917.00       0.00     0.0005     0.0000     0.0000     0.0000     0.0000     0.0000     0.0000          1       1.09 
    917.50       0.00     0.0005     0.0000     0.0000     0.0000     0.0000     0.0000     0.0001          1       1.09 
    918.00       0.00     0.0006     0.0000     0.0000     0.0000     0.0000     0.0000     0.0001          1       1.09 
    918.50       0.00     0.0007     0.0001     0.0000     0.0001     0.0003     0.0000     0.0000          1       1.09 
    919.00       0.00     0.0007     0.0000     0.0000     0.0000     0.0000     0.0000     0.0000          1       1.09 
    919.50       0.00     0.0015     0.0003     0.0004     0.0004     0.0003     0.0000     0.0001          1       1.09 
    920.00       0.00     0.0010     0.0001     0.0001     0.0000     0.0000     0.0000     0.0001          1       1.09 
    920.50       0.00     0.0013     0.0001     0.0002     0.0000     0.0000     0.0000     0.0001          1       1.09 
    921.00       0.00     0.0013     0.0000     0.0002     0.0000     0.0000     0.0000     0.0001          1       1.09 
    921.50       0.00     0.0007     0.0000     0.0001     0.0000     0.0001     0.0000     0.0001          1       1.09 
    922.00       0.00     0.0006     0.0000     0.0001     0.0000     0.0000     0.0000     0.0000          1       1.09 
    922.50       0.00     0.0008     0.0001     0.0001     0.0001     0.0001     0.0000     0.0001          1       1.09 
    923.00       0.00     0.0018     0.0004     0.0002     0.0007     0.0002     0.0000     0.0006          1       1.09 
    923.50       0.00     0.0012     0.0000     0.0002     0.0004     0.0002     0.0000     0.0001          1       1.09 
    924.00       0.00     0.0005     0.0000     0.0000     0.0000     0.0000     0.0000     0.0000          1       1.09 
    924.50       0.00     0.0007     0.0001     0.0000     0.0001     0.0000     0.0000     0.0001          1       1.09 
    925.00       0.00     0.0005     0.0000     0.0000     0.0000     0.0000     0.0000     0.0001          1       1.09 
    925.50       0.00     0.0006     0.0000     0.0000     0.0001     0.0000     0.0000     0.0001          1       1.09 
    926.00       0.00     0.0005     0.0000     0.0000     0.0001     0.0001     0.0000     0.0001          1       1.09 
    926.50       0.00     0.0007     0.0001     0.0001     0.0001     0.0001     0.0000     0.0001          1       1.09 
    927.00       0.00     0.0007     0.0001     0.0001     0.0000     0.0001     0.0000     0.0000          1       1.09 
    927.50       0.00     0.0006     0.0000     0.0000     0.0000     0.0000     0.0000     0.0000          1       1.09 
    928.00       0.00     0.0006     0.0001     0.0000     0.0000     0.0001     0.0000     0.0000          1       1.09 
    928.50       0.00     0.0006     0.0001     0.0001     0.0001     0.0001     0.0000     0.0000          1       1.09 
    929.00       0.00     0.0005     0.0000     0.0000     0.0000     0.0000     0.0000     0.0000          1       1.09 
    929.50       0.00     0.0005     0.0000     0.0000     0.0000     0.0000     0.0000     0.0000          1       1.09 
    930.00       0.00     0.0005     0.0000     0.0000     0.0000     0.0000     0.0000     0.0000          1       1.09 
    930.50       0.00     0.0007     0.0001     0.0001     0.0001     0.0001     0.0000     0.0000          1       1.09 
    931.00       0.00     0.0001     0.0000     0.0000     0.0000     0.0000     0.0000     0.0000          1       1.09 
    931.50       0.00     0.0001     0.0000     0.0000     0.0001     0.0000     0.0000     0.0000          1       1.09 
    932.00       0.00     0.0002     0.0000     0.0001     0.0000     0.0000     0.0000     0.0001          1       1.09 
    932.50       0.00     0.0003     0.0000     0.0000     0.0000     0.0000     0.0000     0.0000          1       1.09 
    933.00       0.00     0.0004     0.0000     0.0000     0.0000     0.0000     0.0000     0.0000          1       1.09 
    933.50       0.00     0.0007     0.0003     0.0001     0.0000     0.0000     0.0000     0.0001          1       1.09 
    934.00       0.00     0.0007     0.0001     0.0001     0.0001     0.0000     0.0000     0.0001          1       1.09 
    934.50       0.00     0.0007     0.0001     0.0001     0.0001     0.0000     0.0000     0.0001          1       1.09 
    935.00       0.00     0.0006     0.0000     0.0000     0.0001     0.0000     0.0000     0.0000          1       1.09 
    935.50       0.00     0.0006     0.0000     0.0000     0.0001     0.0000     0.0000     0.0000          1       1.09 
    936.00       0.00     0.0005     0.0000     0.0000     0.0000     0.0000     0.0000     0.0000          1       1.09 
    936.50       0.00     0.0001     0.0000     0.0000     0.0000     0.0000     0.0000     0.0000          1       1.09 
    937.00       0.00     0.0007     0.0001     0.0000     0.0000     0.0000     0.0000     0.0000          1       1.09 
    937.50       0.00     0.0008     0.0001     0.0000     0.0001     0.0000     0.0000     0.0001          1       1.09 
    938.00       0.00     0.0008     0.0000     0.0000     0.0000     0.0000     0.0000     0.0000          1       1.09 
    938.50       0.00     0.0010     0.0001     0.0001     0.0000     0.0000     0.0000     0.0001          1       1.09 
    939.00       0.00     0.0010     0.0001     0.0001     0.0000     0.0000     0.0000     0.0001          1       1.09 
    939.50       0.00     0.0006     0.0000     0.0000     0.0001     0.0000     0.0000     0.0001          1       1.09 
    940.00       0.00     0.0007     0.0000     0.0000     0.0000     0.0000     0.0000     0.0001          1       1.09 
    940.50       0.00     0.0007     0.0000     0.0001     0.0001     0.0000     0.0000     0.0003          1       1.09 
    941.00       0.00     0.0007     0.0000     0.0001     0.0001     0.0000     0.0000     0.0003          1       1.09 
    941.50       0.00     0.0015     0.0002     0.0001     0.0001     0.0000     0.0000     0.0002          1       1.09 
    942.00       0.00     0.0015     0.0002     0.0001     0.0001     0.0000     0.0000     0.0002          1       1.09 
    942.50       0.00     0.0012     0.0000     0.0001     0.0001     0.0000     0.0000     0.0002          1       1.09 
    943.00       0.00     0.0014     0.0002     0.0001     0.0003     0.0001     0.0000     0.0003          1       1.09 
    943.50       0.00     0.0014     0.0002     0.0001     0.0003     0.0001     0.0000     0.0000          1       1.09 
    944.00       0.00     0.0005     0.0001     0.0002     0.0000     0.0001     0.0000     0.0000          1       1.09 
    944.50       0.00     0.0005     0.0003     0.0001     0.0000     0.0000     0.0000     0.0001          1       1.09 
    945.00       0.00     0.0005     0.0000     0.0001     0.0000     0.0001     0.0000     0.0000          1       1.09 
    945.50       0.00     0.0006     0.0001     0.0001     0.0001     0.0001     0.0000     0.0000          1       1.09 
    946.00       0.00     0.0005     0.0000     0.0001     0.0001     0.0000     0.0000     0.0001          1       1.09 
    946.50       0.00     0.0006     0.0000     0.0001     0.0001     0.0000     0.0000     0.0001          1       1.09 
    947.00       0.00     0.0011     0.0002     0.0003     0.0004     0.0000     0.0000     0.0004          1       1.09 
    947.50       0.00     0.0006     0.0001     0.0002     0.0001     0.0000     0.0000     0.0001          1       1.09 
    948.00       0.00     0.0006     0.0001     0.0002     0.0003     0.0002     0.0000     0.0002          1       1.09 
    948.50       0.00     0.0007     0.0001     0.0002     0.0003     0.0002     0.0000     0.0002          1       1.09 
    949.00       0.00     0.0005     0.0000     0.0000     0.0001     0.0001     0.0000     0.0000          1       1.09 
    949.50       0.00     0.0016     0.0003     0.0003     0.0001     0.0000     0.0000     0.0004          1       1.09 
