~VERSION INFORMATION
VERS.    2.0:   CWLS LOG ASCII STANDARD - VERSION 2.0
WRAP.     NO:   ONE LINE PER STEP
~WELL INFORMATION BLOCK
#MNEM.UNIT      DATA                  DESCRIPTION OF MNEMONIC
#----   --------             ---------------
STRT.m  620.00                   :START DEPTH
STOP.m  5139.00                   :STOP DEPTH
STEP.m  0.50                   :STEP VALUE
NULL.  -999.25                   :NULL VALUE
COMP.   SHELL                   :COMPANY NAME
WELL.   PRELUDE P1 ST1                   :WELL NAME
FLD .   PRELUDE                   :FIELD NAME
LOC .   BROWSE BASIN                   :LOCATION
PROV.   NORTH WEST SHELF, W.A.                   :PROVINCE
SRVC.   Geoservices                   :SERVICE COMPANY NAME
DATE.   01-10-2015 15:42:38                   :DATE
UWI .                      :UNIQUE WELL IDENTIFIER
~CURVE INFORMATION
#MNEM.UNIT       API CODE        CURVE DESCRIPTION
#----   -------- ------------------
Tot Depth .m        :Tot Depth
THG IN .%        :THG IN
C1 IN .%        :C1 IN
C2 IN .%        :C2 IN
C3 IN .%        :C3 IN
iC4 IN .%        :iC4 IN
nC4 IN .%        :nC4 IN
iC5 IN .%        :iC5 IN
nC5 IN .%        :nC5 IN
#
#-----------------------------------------------------------
# Tot Depth (m)   THG IN (%)   C1 IN (%)   C2 IN (%)   C3 IN (%)   iC4 IN (%)   nC4 IN (%)   iC5 IN (%)   nC5 IN (%)
#-----------------------------------------------------------
~A
# ...
   1820.00       0.00     0.0000     0.0000     0.0000     0.0000     0.0000     0.0000     0.0000 
   1820.50       0.00     0.0000     0.0000     0.0000     0.0000     0.0000     0.0000     0.0000 
   1821.00       0.00     0.0000     0.0000     0.0000     0.0000     0.0000     0.0000     0.0000 
   1821.50       0.00     0.0000     0.0000     0.0000     0.0000     0.0000     0.0000     0.0000 
   1822.00       0.00     0.0000     0.0000     0.0000     0.0000     0.0000     0.0000     0.0000 
   1822.50       0.00     0.0000     0.0000     0.0000     0.0000     0.0000     0.0000     0.0000 
   1823.00       0.00     0.0000     0.0000     0.0000     0.0000     0.0000     0.0000     0.0000 
   1823.50       0.00     0.0000     0.0000     0.0000     0.0000     0.0000     0.0000     0.0000 
   1824.00       0.00     0.0000     0.0000     0.0000     0.0000     0.0000     0.0000     0.0000 
   1824.50       0.00     0.0000     0.0000     0.0000     0.0000     0.0000     0.0000     0.0000 
   1825.00       0.00     0.0000     0.0000     0.0000     0.0000     0.0000     0.0000     0.0000 
   1825.50       0.00     0.0000     0.0000     0.0000     0.0000     0.0000     0.0000     0.0000 
   1826.00       0.00     0.0000     0.0000     0.0000     0.0000     0.0000     0.0000     0.0000 
   1826.50       0.00     0.0000     0.0000     0.0000     0.0000     0.0000     0.0000     0.0000 
   1827.00       0.00     0.0000     0.0000     0.0000     0.0000     0.0000     0.0000     0.0000 
   1827.50       0.00     0.0000     0.0000     0.0000     0.0000     0.0000     0.0000     0.0000 
   1828.00       0.00     0.0000     0.0000     0.0000     0.0000     0.0000     0.0000     0.0000 
   1828.50       0.00     0.0000     0.0000     0.0000     0.0000     0.0000     0.0000     0.0000 
   1829.00       0.00     0.0000     0.0000     0.0000     0.0000     0.0000     0.0000     0.0000 
   1829.50       0.00     0.0000     0.0000     0.0000     0.0000     0.0000     0.0000     0.0000 
   1830.00       0.00     0.0000     0.0000     0.0000     0.0000     0.0000     0.0000     0.0000 
   1830.50       0.00     0.0000     0.0000     0.0000     0.0000     0.0000     0.0000     0.0000 
   1831.00       0.00     0.0000     0.0000     0.0000     0.0000     0.0000     0.0000     0.0000 
   1831.50       0.00     0.0000     0.0000     0.0000     0.0000     0.0000     0.0000     0.0000 
   1832.00       0.00     0.0000     0.0000     0.0000     0.0000     0.0000     0.0000     0.0000 
   1832.50       0.00     0.0000     0.0000     0.0000     0.0000     0.0000     0.0000     0.0000 
   1833.00       0.00     0.0000     0.0000     0.0000     0.0000     0.0000     0.0000     0.0000 
   1833.50       0.00     0.0000     0.0000     0.0000     0.0000     0.0000     0.0000     0.0000 
   1834.00       0.00     0.0000     0.0000     0.0000     0.0000     0.0000     0.0000     0.0000 
   1834.50       0.00     0.0000     0.0000     0.0000     0.0000     0.0000     0.0000     0.0000 
   1835.00       0.00     0.0000     0.0000     0.0000     0.0000     0.0000     0.0000     0.0000 
   1835.50       0.00     0.0000     0.0000     0.0000     0.0000     0.0000     0.0000     0.0000 
   1836.00       0.00     0.0000     0.0000     0.0000     0.0000     0.0000     0.0000     0.0000 
   1836.50       0.00     0.0000     0.0000     0.0000     0.0000     0.0000     0.0000     0.0000 
   1837.00       0.00     0.0000     0.0000     0.0000     0.0000     0.0000     0.0000     0.0000 
   1837.50       0.00     0.0000     0.0000     0.0000     0.0000     0.0000     0.0000     0.0000 
   1838.00       0.00     0.0000     0.0000     0.0000     0.0000     0.0000     0.0000     0.0000 
   1838.50       0.00     0.0000     0.0000     0.0000     0.0000     0.0000     0.0000     0.0000 
   1839.00       0.00     0.0000     0.0000     0.0000     0.0000     0.0000     0.0000     0.0000 
   1839.50       0.00     0.0000     0.0000     0.0000     0.0000     0.0000     0.0000     0.0000 
   1840.00       0.00     0.0000     0.0000     0.0000     0.0000     0.0000     0.0000     0.0000 
   1840.50       0.00     0.0000     0.0000     0.0000     0.0000     0.0000     0.0000     0.0000 
   1841.00       0.00     0.0000     0.0000     0.0000     0.0000     0.0000     0.0000     0.0000 
   1841.50       0.00     0.0000     0.0000     0.0000     0.0000     0.0000     0.0000     0.0000 
   1842.00       0.00     0.0000     0.0000     0.0000     0.0000     0.0000     0.0000     0.0000 
   1842.50       0.00     0.0000     0.0000     0.0000     0.0000     0.0000     0.0000     0.0000 
   1843.00       0.00     0.0000     0.0000     0.0000     0.0000     0.0000     0.0000     0.0000 
   1843.50       0.00     0.0000     0.0000     0.0000     0.0000     0.0000     0.0000     0.0000 
   1844.00       0.00     0.0000     0.0000     0.0000     0.0000     0.0000     0.0000     0.0000 
   1844.50       0.00     0.0000     0.0000     0.0000     0.0000     0.0000     0.0000     0.0000 
   1845.00       0.00     0.0000     0.0000     0.0000     0.0000     0.0000     0.0000     0.0000 
   1845.50       0.00     0.0000     0.0000     0.0000     0.0000     0.0000     0.0000     0.0000 
   1846.00       0.00     0.0000     0.0000     0.0000     0.0000     0.0000     0.0000     0.0000 
   1846.50       0.00     0.0000     0.0000     0.0000     0.0000     0.0000     0.0000     0.0000 
   1847.00       0.00     0.0000     0.0000     0.0000     0.0000     0.0000     0.0000     0.0000 
   1847.50       0.00     0.0000     0.0000     0.0000     0.0000     0.0000     0.0000     0.0000 
   1848.00       0.00     0.0000     0.0000     0.0000     0.0000     0.0000     0.0000     0.0000 
   1848.50       0.00     0.0000     0.0000     0.0000     0.0000     0.0000     0.0000     0.0000 
   1849.00       0.00     0.0000     0.0000     0.0000     0.0000     0.0000     0.0000     0.0000 
   1849.50       0.00     0.0000     0.0000     0.0000     0.0000     0.0000     0.0000     0.0000 
   1850.00       0.00     0.0000     0.0000     0.0000     0.0000     0.0000     0.0000     0.0000 
   1850.50       0.00     0.0000     0.0000     0.0000     0.0000     0.0000     0.0000     0.0000 
   1851.00       0.00     0.0000     0.0000     0.0000     0.0000     0.0000     0.0000     0.0000 
   1851.50       0.00     0.0000     0.0000     0.0000     0.0000     0.0000     0.0000     0.0000 
   1852.00       0.00     0.0000     0.0000     0.0000     0.0000     0.0000     0.0000     0.0000 
   1852.50       0.00     0.0000     0.0000     0.0000     0.0000     0.0000     0.0000     0.0000 
   1853.00       0.00     0.0000     0.0000     0.0000     0.0000     0.0000     0.0000     0.0000 
   1853.50       0.00     0.0000     0.0000     0.0000     0.0000     0.0000     0.0000     0.0000 
   1854.00       0.00     0.0000     0.0000     0.0000     0.0000     0.0000     0.0000     0.0000 
   1854.50       0.00     0.0000     0.0000     0.0000     0.0000     0.0000     0.0000     0.0000 
   1855.00       0.00     0.0000     0.0000     0.0000     0.0000     0.0000     0.0000     0.0000 
   1855.50       0.00     0.0000     0.0000     0.0000     0.0000     0.0000     0.0000     0.0000 
   1856.00       0.00     0.0000     0.0000     0.0000     0.0000     0.0000     0.0000     0.0000 
   1856.50       0.00     0.0000     0.0000     0.0000     0.0000     0.0000     0.0000     0.0000 
   1857.00       0.00     0.0000     0.0000     0.0000     0.0000     0.0000     0.0000     0.0000 
   1857.50       0.00     0.0000     0.0000     0.0000     0.0000     0.0000     0.0000     0.0000 
   1858.00       0.00     0.0000     0.0000     0.0000     0.0000     0.0000     0.0000     0.0000 
   1858.50       0.00     0.0000     0.0000     0.0000     0.0000     0.0000     0.0000     0.0000 
   1859.00       0.00     0.0000     0.0000     0.0000     0.0000     0.0000     0.0000     0.0000 
   1859.50       0.00     0.0000     0.0000     0.0000     0.0000     0.0000     0.0000     0.0000 
