~VERSION INFORMATION
VERS.    2.0:   CWLS LOG ASCII STANDARD - VERSION 2.0
WRAP.     NO:   ONE LINE PER STEP
~WELL INFORMATION BLOCK
#MNEM.UNIT      DATA                  DESCRIPTION OF MNEMONIC
#----   --------             ---------------
STRT.m  620.00                   :START DEPTH
STOP.m  5139.00                   :STOP DEPTH
STEP.m  0.50                   :STEP VALUE
NULL.  -9999                   :NULL VALUE
COMP.   SHELL                   :COMPANY NAME
WELL.   PRELUDE P1 ST1                   :WELL NAME
FLD .   PRELUDE                   :FIELD NAME
LOC .   BROWSE BASIN                   :LOCATION
PROV.   NORTH WEST SHELF, W.A.                   :PROVINCE
SRVC.   Geoservices                   :SERVICE COMPANY NAME
DATE.   01-10-2015 15:42:04                   :DATE
UWI .                      :UNIQUE WELL IDENTIFIER
~CURVE INFORMATION
#MNEM.UNIT       API CODE        CURVE DESCRIPTION
#----   -------- ------------------
Tot Depth .m        :Tot Depth
T GAS main .%        :T GAS main
C1  main .%        :C1  main
C2  main .%        :C2  main
C3  main .%        :C3  main
iC4 main .%        :iC4 main
nC4 main .%        :nC4 main
iC5 main .%        :iC5 main
nC5 main .%        :nC5 main
C02 .ppm        :C02
MW IN .kg/l        :MW IN
#
#-----------------------------------------------------------
# Tot Depth (m)   T GAS main (%)   C1  main (%)   C2  main (%)   C3  main (%)   iC4 main (%)   nC4 main (%)   iC5 main (%)   nC5 main (%)   C02 (ppm)   MW IN (kg/l)
#-----------------------------------------------------------
~A
# ...
   3029.00       0.60     0.3986     0.0095     0.0042     0.0060     0.0004     0.0006     0.0000          1       1.44 
   3029.50       0.59     0.3764     0.0091     0.0042     0.0060     0.0004     0.0006     0.0001          1       1.44 
   3030.00       0.61     0.3746     0.0098     0.0046     0.0060     0.0005     0.0006     0.0001          1       1.44 
   3030.50       0.64     0.4091     0.0103     0.0049     0.0061     0.0006     0.0006     0.0001          1       1.44 
   3031.00       0.66     0.4354     0.0110     0.0051     0.0061     0.0006     0.0006     0.0000          1       1.44 
   3031.50       0.65     0.4354     0.0110     0.0051     0.0060     0.0005     0.0006     0.0000          1       1.44 
   3032.00       0.65     0.4473     0.0111     0.0051     0.0060     0.0006     0.0006     0.0000          1       1.44 
   3032.50       0.66     0.4483     0.0111     0.0051     0.0060     0.0006     0.0006     0.0001          1       1.44 
   3033.00       0.66     0.4506     0.0113     0.0051     0.0060     0.0005     0.0006     0.0001          1       1.44 
   3033.50       0.67     0.4506     0.0113     0.0051     0.0060     0.0005     0.0006     0.0001          1       1.44 
   3034.00       0.66     0.4559     0.0114     0.0053     0.0060     0.0006     0.0006     0.0001          1       1.44 
   3034.50       0.68     0.4718     0.0120     0.0054     0.0060     0.0006     0.0006     0.0001          1       1.44 
   3035.00       0.71     0.4900     0.0125     0.0057     0.0060     0.0006     0.0006     0.0001          1       1.44 
   3035.50       0.71     0.4900     0.0125     0.0057     0.0060     0.0006     0.0006     0.0001          1       1.44 
   3036.00       0.71     0.5165     0.0132     0.0059     0.0060     0.0006     0.0006     0.0001          1       1.44 
   3036.50       0.73     0.5341     0.0136     0.0060     0.0060     0.0006     0.0006     0.0001          1       1.44 
   3037.00       0.74     0.5471     0.0138     0.0062     0.0061     0.0006     0.0006     0.0001          1       1.44 
   3037.50       0.77     0.5624     0.0141     0.0062     0.0061     0.0006     0.0006     0.0000          1       1.44 
   3038.00       0.77     0.5624     0.0141     0.0058     0.0059     0.0005     0.0004     0.0000          1       1.44 
   3038.50       0.76     0.5624     0.0141     0.0058     0.0059     0.0005     0.0004     0.0000          1       1.44 
   3039.00       0.76     0.5689     0.0144     0.0065     0.0061     0.0006     0.0006     0.0001          1       1.44 
   3039.50       0.76     0.5693     0.0144     0.0065     0.0062     0.0006     0.0006     0.0001          1       1.44 
   3040.00       0.76     0.5693     0.0144     0.0064     0.0062     0.0006     0.0006     0.0000          1       1.44 
   3040.50       0.78     0.5706     0.0143     0.0064     0.0062     0.0006     0.0006     0.0001          1       1.44 
   3041.00       0.77     0.5706     0.0139     0.0064     0.0062     0.0006     0.0006     0.0001          1       1.44 
   3041.50       0.75     0.5706     0.0139     0.0064     0.0062     0.0006     0.0006     0.0001          1       1.44 
   3042.00       0.75     0.5615     0.0139     0.0062     0.0061     0.0006     0.0008     0.0000          1       1.44 
   3042.50       0.75     0.5563     0.0137     0.0061     0.0061     0.0006     0.0008     0.0001          1       1.44 
   3043.00       0.76     0.5549     0.0135     0.0061     0.0061     0.0006     0.0006     0.0001          1       1.44 
   3043.50       0.75     0.5508     0.0134     0.0059     0.0061     0.0006     0.0006     0.0000          1       1.44 
   3044.00       0.72     0.5508     0.0134     0.0059     0.0061     0.0006     0.0006     0.0001          1       1.44 
   3044.50       0.72     0.5192     0.0123     0.0056     0.0061     0.0006     0.0006     0.0001          1       1.44 
   3045.00       0.67     0.4872     0.0119     0.0053     0.0061     0.0006     0.0006     0.0001          1       1.44 
   3045.50       0.56     0.3678     0.0090     0.0041     0.0066     0.0005     0.0006     0.0001          1       1.44 
   3046.00       0.57     0.3601     0.0095     0.0045     0.0066     0.0005     0.0006     0.0001          1       1.44 
   3046.50       0.61     0.3783     0.0098     0.0047     0.0068     0.0005     0.0006     0.0000          1       1.44 
   3047.00       0.63     0.3950     0.0103     0.0048     0.0069     0.0005     0.0006     0.0000          1       1.44 
   3047.50       0.64     0.4082     0.0105     0.0050     0.0069     0.0006     0.0006     0.0000          1       1.43 
   3048.00       0.64     0.4231     0.0108     0.0052     0.0068     0.0006     0.0006     0.0000          1       1.43 
   3048.50       0.65     0.4231     0.0108     0.0052     0.0066     0.0005     0.0005     0.0000          1       1.44 
   3049.00       0.66     0.4275     0.0108     0.0052     0.0066     0.0005     0.0005     0.0000          1       1.44 
   3049.50       0.66     0.4417     0.0110     0.0051     0.0066     0.0006     0.0005     0.0001          1       1.43 
   3050.00       0.66     0.4417     0.0108     0.0050     0.0065     0.0005     0.0004     0.0001          1       1.44 
   3050.50       0.65     0.4459     0.0111     0.0050     0.0065     0.0006     0.0006     0.0001          1       1.44 
   3051.00       0.66     0.4495     0.0112     0.0052     0.0064     0.0006     0.0006     0.0000          1       1.43 
   3051.50       0.67     0.4585     0.0114     0.0052     0.0064     0.0005     0.0006     0.0000          1       1.44 
   3052.00       0.69     0.4686     0.0116     0.0053     0.0064     0.0006     0.0006     0.0000          1       1.44 
   3052.50       0.69     0.4686     0.0116     0.0053     0.0064     0.0006     0.0006     0.0000          1       1.44 
   3053.00       0.69     0.4829     0.0119     0.0054     0.0062     0.0006     0.0006     0.0000          1       1.44 
   3053.50       0.70     0.4876     0.0120     0.0055     0.0063     0.0006     0.0006     0.0000          1       1.44 
   3054.00       0.71     0.4967     0.0122     0.0056     0.0063     0.0006     0.0006     0.0000          1       1.44 
   3054.50       0.72     0.5058     0.0124     0.0057     0.0063     0.0006     0.0005     0.0000          1       1.44 
   3055.00       0.72     0.5058     0.0124     0.0057     0.0063     0.0006     0.0004     0.0000          1       1.44 
   3055.50       0.72     0.5111     0.0126     0.0058     0.0063     0.0006     0.0006     0.0000          1       1.44 
   3056.00       0.72     0.5123     0.0128     0.0059     0.0062     0.0006     0.0006     0.0000          1       1.44 
   3056.50       0.72     0.5185     0.0129     0.0059     0.0063     0.0006     0.0006     0.0001          1       1.44 
   3057.00       0.73     0.5185     0.0129     0.0059     0.0063     0.0006     0.0006     0.0001          1       1.44 
   3057.50       0.73     0.5151     0.0129     0.0059     0.0063     0.0006     0.0006     0.0000          1       1.44 
   3058.00       0.70     0.5151     0.0129     0.0059     0.0063     0.0007     0.0006     0.0001          1       1.44 
   3058.50       0.69     0.4880     0.0123     0.0058     0.0062     0.0007     0.0006     0.0001          1       1.44 
   3059.00       0.68     0.4751     0.0122     0.0057     0.0062     0.0006     0.0006     0.0001          1       1.44 
   3059.50       0.69     0.4680     0.0123     0.0057     0.0062     0.0006     0.0006     0.0001          1       1.44 
   3060.00       0.68     0.4644     0.0123     0.0057     0.0062     0.0006     0.0006     0.0000          1       1.44 
   3060.50       0.66     0.4644     0.0123     0.0057     0.0062     0.0006     0.0006     0.0000          1       1.44 
   3061.00       0.66     0.4505     0.0119     0.0057     0.0063     0.0006     0.0006     0.0000          1       1.44 
   3061.50       0.68     0.4514     0.0120     0.0057     0.0063     0.0007     0.0006     0.0001          1       1.44 
