~VERSION INFORMATION
VERS.    2.0:   CWLS LOG ASCII STANDARD - VERSION 2.0
WRAP.     NO:   ONE LINE PER STEP
~WELL INFORMATION BLOCK
#MNEM.UNIT      DATA                  DESCRIPTION OF MNEMONIC
#----   --------             ---------------
STRT.m  620.00                   :START DEPTH
STOP.m  5139.00                   :STOP DEPTH
STEP.m  0.50                   :STEP VALUE
NULL.  -9999                   :NULL VALUE
COMP.   SHELL                   :COMPANY NAME
WELL.   PRELUDE P1 ST1                   :WELL NAME
FLD .   PRELUDE                   :FIELD NAME
LOC .   BROWSE BASIN                   :LOCATION
PROV.   NORTH WEST SHELF, W.A.                   :PROVINCE
SRVC.   Geoservices                   :SERVICE COMPANY NAME
DATE.   01-10-2015 15:42:04                   :DATE
UWI .                      :UNIQUE WELL IDENTIFIER
~CURVE INFORMATION
#MNEM.UNIT       API CODE        CURVE DESCRIPTION
#----   -------- ------------------
Tot Depth .m        :Tot Depth
T GAS main .%        :T GAS main
C1  main .%        :C1  main
C2  main .%        :C2  main
C3  main .%        :C3  main
iC4 main .%        :iC4 main
nC4 main .%        :nC4 main
iC5 main .%        :iC5 main
nC5 main .%        :nC5 main
C02 .ppm        :C02
MW IN .kg/l        :MW IN
#
#-----------------------------------------------------------
# Tot Depth (m)   T GAS main (%)   C1  main (%)   C2  main (%)   C3  main (%)   iC4 main (%)   nC4 main (%)   iC5 main (%)   nC5 main (%)   C02 (ppm)   MW IN (kg/l)
#-----------------------------------------------------------
~A
# ...
   5108.00       5.26     2.6088     0.1851     0.0385     0.0059     0.0057     0.0016     0.0010          1       1.18 
   5108.50       4.85     2.5469     0.1800     0.0376     0.0058     0.0056     0.0016     0.0009          1       1.18 
   5109.00       3.29     1.8312     0.1296     0.0284     0.0051     0.0045     0.0015     0.0008          1       1.18 
   5109.50       4.86     2.4436     0.1792     0.0384     0.0059     0.0058     0.0016     0.0009          1       1.18 
   5110.00       4.93     2.4762     0.1822     0.0385     0.0059     0.0058     0.0017     0.0010          1       1.18 
   5110.50       4.19     2.2221     0.1653     0.0357     0.0056     0.0055     0.0016     0.0010          1       1.18 
   5111.00       3.46     1.8795     0.1423     0.0316     0.0052     0.0050     0.0015     0.0009          1       1.18 
   5111.50       1.61     1.0026     0.0883     0.0231     0.0057     0.0042     0.0016     0.0008          1       1.18 
   5112.00       1.29     0.8274     0.0799     0.0212     0.0045     0.0038     0.0013     0.0008          1       1.18 
   5112.50       1.00     0.7110     0.0732     0.0206     0.0047     0.0039     0.0013     0.0008          1       1.18 
   5113.00       0.93     0.6427     0.0727     0.0207     0.0047     0.0039     0.0013     0.0007          1       1.18 
   5113.50       0.91     0.6282     0.0731     0.0207     0.0047     0.0039     0.0013     0.0007          1       1.18 
   5114.00       0.87     0.6206     0.0725     0.0206     0.0047     0.0039     0.0013     0.0007          1       1.18 
   5114.50       0.88     0.6137     0.0701     0.0199     0.0046     0.0038     0.0013     0.0008          1       1.18 
   5115.00       0.92     0.6408     0.0705     0.0199     0.0046     0.0038     0.0013     0.0007          1       1.18 
   5115.50       0.96     0.6669     0.0729     0.0203     0.0045     0.0038     0.0013     0.0008          1       1.18 
   5116.00       0.94     0.6669     0.0726     0.0203     0.0045     0.0038     0.0015     0.0008          1       1.18 
   5116.50       0.88     0.6538     0.0732     0.0206     0.0043     0.0039     0.0012     0.0007          1       1.18 
   5117.00       0.80     0.6288     0.0725     0.0205     0.0042     0.0039     0.0013     0.0007          1       1.18 
   5117.50       0.72     0.5697     0.0668     0.0192     0.0041     0.0037     0.0012     0.0007          1       1.18 
   5118.00       0.67     0.5286     0.0615     0.0178     0.0040     0.0035     0.0012     0.0007          1       1.18 
   5118.50       0.66     0.5288     0.0601     0.0174     0.0040     0.0034     0.0012     0.0007          1       1.18 
   5119.00       0.66     0.5326     0.0592     0.0168     0.0039     0.0033     0.0011     0.0007          1       1.18 
   5119.50       0.66     0.5297     0.0584     0.0165     0.0038     0.0032     0.0011     0.0006          1       1.18 
   5120.00       0.65     0.5280     0.0582     0.0163     0.0038     0.0032     0.0011     0.0006          1       1.18 
   5120.50       0.75     0.5725     0.0611     0.0169     0.0037     0.0032     0.0011     0.0006          1       1.18 
   5121.00       1.24     0.8036     0.0802     0.0208     0.0040     0.0037     0.0012     0.0006          1       1.18 
   5121.50       4.08     2.0833     0.1676     0.0368     0.0052     0.0056     0.0015     0.0010          1       1.18 
   5122.00       4.39     2.2160     0.1760     0.0379     0.0053     0.0058     0.0016     0.0010          1       1.18 
   5122.50       4.78     2.4035     0.1853     0.0395     0.0054     0.0059     0.0016     0.0010          1       1.18 
   5123.00       4.84     2.4380     0.1859     0.0395     0.0055     0.0059     0.0018     0.0012          1       1.18 
   5123.50       6.01     2.9416     0.2158     0.0439     0.0059     0.0063     0.0018     0.0011          1       1.18 
   5124.00       7.47     3.5843     0.2590     0.0520     0.0066     0.0074     0.0020     0.0011          1       1.18 
   5124.50       8.06     3.7476     0.2681     0.0535     0.0068     0.0075     0.0020     0.0012          1       1.18 
   5125.00       8.82     4.1302     0.2936     0.0583     0.0071     0.0081     0.0020     0.0012          1       1.18 
   5125.50      10.25     4.5526     0.3206     0.0631     0.0075     0.0086     0.0021     0.0013          1       1.18 
   5126.00      10.32     4.5526     0.3206     0.0631     0.0075     0.0086     0.0021     0.0013          1       1.18 
   5126.50      12.91     5.6400     0.3631     0.0690     0.0077     0.0091     0.0021     0.0014          1       1.18 
   5127.00      13.81     5.8638     0.3782     0.0715     0.0080     0.0095     0.0022     0.0015          1       1.18 
   5127.50      13.14     5.8638     0.3796     0.0729     0.0082     0.0097     0.0023     0.0014          1       1.18 
   5128.00      13.46     5.7726     0.3830     0.0736     0.0084     0.0100     0.0023     0.0015          1       1.18 
   5128.50      12.89     5.5791     0.3860     0.0758     0.0085     0.0103     0.0024     0.0015          1       1.18 
   5129.00      13.29     5.6677     0.3915     0.0764     0.0085     0.0103     0.0024     0.0015          1       1.18 
   5129.50      13.37     5.7073     0.3931     0.0768     0.0086     0.0104     0.0030     0.0018          1       1.18 
   5130.00      13.34     5.7073     0.3923     0.0764     0.0086     0.0103     0.0024     0.0016          1       1.18 
   5130.50      12.55     5.4666     0.3764     0.0737     0.0084     0.0100     0.0023     0.0016          1       1.16 
   5131.00      11.12     4.9854     0.3434     0.0677     0.0079     0.0098     0.0024     0.0015          1       1.16 
   5131.50       8.83     4.1809     0.2844     0.0569     0.0071     0.0079     0.0021     0.0012          1       1.16 
   5132.00       5.87     2.9417     0.1986     0.0405     0.0059     0.0060     0.0017     0.0010          1       1.16 
   5132.50       6.52     3.1463     0.2297     0.0476     0.0065     0.0069     0.0018     0.0012          1       1.16 
   5133.00       9.30     4.2050     0.2984     0.0603     0.0077     0.0084     0.0021     0.0014          1       1.16 
   5133.50      10.46     4.6127     0.3305     0.0671     0.0083     0.0093     0.0023     0.0015          1       1.16 
   5134.00      10.90     4.7554     0.3356     0.0681     0.0084     0.0095     0.0023     0.0017          1       1.16 
   5134.50      11.32     4.8850     0.3414     0.0686     0.0084     0.0096     0.0024     0.0015          1       1.16 
   5135.00      10.86     4.8253     0.3334     0.0668     0.0082     0.0093     0.0023     0.0016          1       1.16 
   5135.50      10.64     4.7946     0.3227     0.0647     0.0080     0.0091     0.0023     0.0016          1       1.16 
   5136.00      10.36     4.6557     0.3087     0.0613     0.0076     0.0086     0.0021     0.0013          1       1.16 
   5136.50       8.82     4.1109     0.2640     0.0525     0.0069     0.0073     0.0019     0.0011          1       1.16 
   5137.00       6.90     3.5595     0.2305     0.0464     0.0065     0.0066     0.0018     0.0011          1       1.16 
   5137.50       5.15     2.6242     0.1704     0.0356     0.0057     0.0053     0.0016     0.0009          1       1.16 
   5138.00       4.68     2.4066     0.1613     0.0339     0.0056     0.0052     0.0020     0.0009          1       1.16 
   5138.50       4.53     2.3390     0.1623     0.0346     0.0056     0.0058     0.0017     0.0011          1       1.16 
   5139.00       3.56     1.9018     0.1319     0.0290     0.0051     0.0046     0.0015     0.0009          1       1.16 
