~VERSION INFORMATION
VERS.    2.0:   CWLS LOG ASCII STANDARD - VERSION 2.0
WRAP.     NO:   ONE LINE PER STEP
~WELL INFORMATION BLOCK
#MNEM.UNIT      DATA                  DESCRIPTION OF MNEMONIC
#----   --------             ---------------
STRT.m  620.00                   :START DEPTH
STOP.m  5139.00                   :STOP DEPTH
STEP.m  0.50                   :STEP VALUE
NULL.  -999.25                   :NULL VALUE
COMP.   SHELL                   :COMPANY NAME
WELL.   PRELUDE P1 ST1                   :WELL NAME
FLD .   PRELUDE                   :FIELD NAME
LOC .   BROWSE BASIN                   :LOCATION
PROV.   NORTH WEST SHELF, W.A.                   :PROVINCE
SRVC.   Geoservices                   :SERVICE COMPANY NAME
DATE.   01-10-2015 15:42:38                   :DATE
UWI .                      :UNIQUE WELL IDENTIFIER
~CURVE INFORMATION
#MNEM.UNIT       API CODE        CURVE DESCRIPTION
#----   -------- ------------------
Tot Depth .m        :Tot Depth
THG IN .%        :THG IN
C1 IN .%        :C1 IN
C2 IN .%        :C2 IN
C3 IN .%        :C3 IN
iC4 IN .%        :iC4 IN
nC4 IN .%        :nC4 IN
iC5 IN .%        :iC5 IN
nC5 IN .%        :nC5 IN
#
#-----------------------------------------------------------
# Tot Depth (m)   THG IN (%)   C1 IN (%)   C2 IN (%)   C3 IN (%)   iC4 IN (%)   nC4 IN (%)   iC5 IN (%)   nC5 IN (%)
#-----------------------------------------------------------
~A
# ...
   3300.00       0.03     0.0147     0.0012     0.0016     0.0013     0.0006     0.0003     0.0001 
   3300.50       0.03     0.0137     0.0012     0.0014     0.0012     0.0005     0.0002     0.0001 
   3301.00       0.03     0.0131     0.0011     0.0013     0.0012     0.0005     0.0002     0.0001 
   3301.50       0.03     0.0139     0.0012     0.0014     0.0012     0.0005     0.0002     0.0001 
   3302.00       0.03     0.0143     0.0013     0.0014     0.0012     0.0005     0.0002     0.0001 
   3302.50       0.03     0.0143     0.0013     0.0014     0.0012     0.0005     0.0002     0.0001 
   3303.00       0.03     0.0186     0.0014     0.0014     0.0011     0.0004     0.0003     0.0001 
   3303.50       0.04     0.0253     0.0018     0.0017     0.0012     0.0005     0.0003     0.0001 
   3304.00       0.06     0.0384     0.0026     0.0024     0.0013     0.0007     0.0002     0.0001 
   3304.50       0.06     0.0384     0.0026     0.0024     0.0013     0.0007     0.0002     0.0001 
   3305.00       0.06     0.0384     0.0026     0.0024     0.0014     0.0007     0.0002     0.0001 
   3305.50       0.06     0.0354     0.0025     0.0023     0.0014     0.0007     0.0002     0.0001 
   3306.00       0.06     0.0349     0.0025     0.0023     0.0013     0.0007     0.0002     0.0001 
   3306.50       0.06     0.0349     0.0025     0.0023     0.0013     0.0007     0.0002     0.0002 
   3307.00       0.04     0.0212     0.0020     0.0020     0.0013     0.0006     0.0002     0.0002 
   3307.50       0.04     0.0212     0.0020     0.0020     0.0013     0.0007     0.0002     0.0002 
   3308.00       0.04     0.0206     0.0019     0.0020     0.0013     0.0007     0.0002     0.0001 
   3308.50       0.04     0.0204     0.0019     0.0019     0.0013     0.0007     0.0003     0.0001 
   3309.00       0.04     0.0198     0.0018     0.0019     0.0013     0.0006     0.0003     0.0001 
   3309.50       0.04     0.0198     0.0018     0.0019     0.0013     0.0006     0.0003     0.0001 
   3310.00       0.04     0.0190     0.0017     0.0018     0.0013     0.0006     0.0002     0.0001 
   3310.50       0.04     0.0190     0.0017     0.0018     0.0013     0.0006     0.0002     0.0001 
   3311.00       0.04     0.0178     0.0016     0.0018     0.0013     0.0006     0.0002     0.0002 
   3311.50       0.03     0.0174     0.0016     0.0017     0.0013     0.0006     0.0002     0.0002 
   3312.00       0.04     0.0174     0.0016     0.0017     0.0013     0.0006     0.0002     0.0002 
   3312.50       0.04     0.0173     0.0016     0.0017     0.0012     0.0006     0.0002     0.0001 
   3313.00       0.03     0.0154     0.0016     0.0016     0.0013     0.0006     0.0001     0.0002 
   3313.50       0.03     0.0154     0.0014     0.0016     0.0013     0.0006     0.0003     0.0002 
   3314.00       0.04     0.0153     0.0014     0.0015     0.0016     0.0007     0.0005     0.0004 
   3314.50       0.04     0.0153     0.0013     0.0015     0.0016     0.0007     0.0005     0.0004 
   3315.00       0.03     0.0136     0.0013     0.0015     0.0012     0.0006     0.0004     0.0001 
   3315.50       0.03     0.0133     0.0013     0.0015     0.0012     0.0005     0.0004     0.0001 
   3316.00       0.03     0.0139     0.0013     0.0015     0.0013     0.0006     0.0004     0.0001 
   3316.50       0.03     0.0140     0.0013     0.0015     0.0013     0.0006     0.0002     0.0001 
   3317.00       0.03     0.0144     0.0013     0.0015     0.0013     0.0005     0.0003     0.0001 
   3317.50       0.03     0.0144     0.0013     0.0015     0.0013     0.0005     0.0003     0.0001 
   3318.00       0.03     0.0145     0.0013     0.0015     0.0013     0.0005     0.0003     0.0001 
   3318.50       0.03     0.0145     0.0013     0.0015     0.0012     0.0005     0.0002     0.0001 
   3319.00       0.03     0.0136     0.0013     0.0015     0.0013     0.0006     0.0004     0.0001 
   3319.50       0.03     0.0125     0.0012     0.0014     0.0013     0.0006     0.0004     0.0001 
   3320.00       0.03     0.0118     0.0012     0.0014     0.0012     0.0005     0.0002     0.0001 
   3320.50       0.03     0.0118     0.0012     0.0014     0.0012     0.0005     0.0002     0.0001 
   3321.00       0.03     0.0118     0.0012     0.0014     0.0012     0.0005     0.0002     0.0001 
   3321.50       0.03     0.0113     0.0012     0.0014     0.0012     0.0005     0.0002     0.0001 
   3322.00       0.03     0.0113     0.0012     0.0014     0.0012     0.0006     0.0002     0.0001 
   3322.50       0.03     0.0109     0.0012     0.0014     0.0013     0.0006     0.0002     0.0001 
   3323.00       0.03     0.0121     0.0013     0.0015     0.0013     0.0006     0.0002     0.0001 
   3323.50       0.03     0.0121     0.0013     0.0015     0.0013     0.0006     0.0002     0.0001 
   3324.00       0.03     0.0114     0.0012     0.0014     0.0013     0.0005     0.0002     0.0001 
   3324.50       0.03     0.0114     0.0012     0.0014     0.0013     0.0005     0.0002     0.0001 
   3325.00       0.03     0.0118     0.0012     0.0014     0.0013     0.0005     0.0002     0.0001 
   3325.50       0.03     0.0123     0.0012     0.0014     0.0013     0.0006     0.0003     0.0002 
   3326.00       0.03     0.0123     0.0012     0.0013     0.0012     0.0006     0.0003     0.0002 
   3326.50       0.03     0.0128     0.0012     0.0014     0.0013     0.0006     0.0003     0.0002 
   3327.00       0.03     0.0130     0.0012     0.0014     0.0013     0.0006     0.0002     0.0001 
   3327.50       0.03     0.0130     0.0012     0.0014     0.0013     0.0006     0.0002     0.0001 
   3328.00       0.03     0.0130     0.0013     0.0014     0.0013     0.0006     0.0002     0.0001 
   3328.50       0.03     0.0127     0.0013     0.0013     0.0012     0.0005     0.0002     0.0001 
   3329.00       0.03     0.0136     0.0014     0.0014     0.0012     0.0005     0.0002     0.0001 
   3329.50       0.03     0.0136     0.0014     0.0014     0.0012     0.0005     0.0002     0.0001 
   3330.00       0.03     0.0144     0.0015     0.0014     0.0012     0.0005     0.0002     0.0001 
   3330.50       0.03     0.0144     0.0015     0.0014     0.0012     0.0006     0.0002     0.0001 
   3331.00       0.03     0.0142     0.0015     0.0014     0.0012     0.0006     0.0002     0.0001 
   3331.50       0.03     0.0149     0.0016     0.0014     0.0013     0.0006     0.0002     0.0001 
   3332.00       0.03     0.0153     0.0016     0.0015     0.0013     0.0006     0.0002     0.0001 
   3332.50       0.03     0.0153     0.0016     0.0015     0.0012     0.0006     0.0002     0.0001 
   3333.00       0.03     0.0157     0.0017     0.0015     0.0012     0.0006     0.0002     0.0001 
   3333.50       0.03     0.0157     0.0018     0.0015     0.0013     0.0006     0.0002     0.0001 
   3334.00       0.03     0.0160     0.0019     0.0016     0.0013     0.0006     0.0002     0.0001 
   3334.50       0.03     0.0160     0.0020     0.0016     0.0013     0.0006     0.0002     0.0001 
   3335.00       0.03     0.0160     0.0020     0.0016     0.0013     0.0006     0.0002     0.0001 
   3335.50       0.03     0.0152     0.0019     0.0016     0.0013     0.0006     0.0002     0.0001 
   3336.00       0.03     0.0156     0.0020     0.0016     0.0013     0.0006     0.0002     0.0001 
   3336.50       0.03     0.0156     0.0020     0.0015     0.0012     0.0005     0.0001     0.0000 
   3337.00       0.03     0.0156     0.0020     0.0015     0.0013     0.0005     0.0002     0.0001 
   3337.50       0.03     0.0153     0.0019     0.0015     0.0013     0.0006     0.0002     0.0001 
   3338.00       0.03     0.0150     0.0019     0.0015     0.0012     0.0006     0.0002     0.0001 
   3338.50       0.03     0.0153     0.0019     0.0015     0.0013     0.0006     0.0002     0.0001 
   3339.00       0.03     0.0149     0.0018     0.0015     0.0013     0.0005     0.0002     0.0001 
   3339.50       0.03     0.0147     0.0018     0.0015     0.0013     0.0006     0.0002     0.0001 
