~VERSION INFORMATION
VERS.    2.0:   CWLS LOG ASCII STANDARD - VERSION 2.0
WRAP.     NO:   ONE LINE PER STEP
~WELL INFORMATION BLOCK
#MNEM.UNIT      DATA                  DESCRIPTION OF MNEMONIC
#----   --------             ---------------
STRT.m  620.00                   :START DEPTH
STOP.m  5139.00                   :STOP DEPTH
STEP.m  0.50                   :STEP VALUE
NULL.  -999.25                   :NULL VALUE
COMP.   SHELL                   :COMPANY NAME
WELL.   PRELUDE P1 ST1                   :WELL NAME
FLD .   PRELUDE                   :FIELD NAME
LOC .   BROWSE BASIN                   :LOCATION
PROV.   NORTH WEST SHELF, W.A.                   :PROVINCE
SRVC.   Geoservices                   :SERVICE COMPANY NAME
DATE.   01-10-2015 15:42:38                   :DATE
UWI .                      :UNIQUE WELL IDENTIFIER
~CURVE INFORMATION
#MNEM.UNIT       API CODE        CURVE DESCRIPTION
#----   -------- ------------------
Tot Depth .m        :Tot Depth
THG IN .%        :THG IN
C1 IN .%        :C1 IN
C2 IN .%        :C2 IN
C3 IN .%        :C3 IN
iC4 IN .%        :iC4 IN
nC4 IN .%        :nC4 IN
iC5 IN .%        :iC5 IN
nC5 IN .%        :nC5 IN
#
#-----------------------------------------------------------
# Tot Depth (m)   THG IN (%)   C1 IN (%)   C2 IN (%)   C3 IN (%)   iC4 IN (%)   nC4 IN (%)   iC5 IN (%)   nC5 IN (%)
#-----------------------------------------------------------
~A
# ...
   4820.00       0.63     0.3966     0.0641     0.0211     0.0032     0.0042     0.0011     0.0007 
   4820.50       0.21     0.0877     0.0271     0.0128     0.0026     0.0032     0.0009     0.0003 
   4821.00       0.21     0.0877     0.0271     0.0128     0.0026     0.0032     0.0010     0.0006 
   4821.50       0.21     0.0878     0.0249     0.0121     0.0025     0.0031     0.0010     0.0006 
   4822.00       0.20     0.0892     0.0243     0.0116     0.0025     0.0031     0.0009     0.0006 
   4822.50       0.21     0.0936     0.0239     0.0112     0.0024     0.0030     0.0009     0.0006 
   4823.00       0.21     0.0984     0.0242     0.0111     0.0024     0.0030     0.0009     0.0005 
   4823.50       0.23     0.1129     0.0259     0.0113     0.0024     0.0029     0.0010     0.0005 
   4824.00       0.41     0.2281     0.0463     0.0174     0.0028     0.0038     0.0012     0.0007 
   4824.50       0.03     0.0203     0.0025     0.0005     0.0001     0.0000     0.0000     0.0001 
   4825.00       0.06     0.0400     0.0055     0.0010     0.0005     0.0002     0.0001     0.0001 
   4825.50       0.06     0.0407     0.0055     0.0011     0.0006     0.0002     0.0002     0.0000 
   4826.00       0.12     0.0918     0.0082     0.0023     0.0010     0.0006     0.0003     0.0001 
   4826.50       0.12     0.0918     0.0082     0.0024     0.0010     0.0007     0.0003     0.0001 
   4827.00       0.12     0.0850     0.0082     0.0024     0.0010     0.0007     0.0003     0.0001 
   4827.50       0.10     0.0696     0.0079     0.0026     0.0011     0.0007     0.0003     0.0001 
   4828.00       0.11     0.0708     0.0089     0.0029     0.0011     0.0007     0.0003     0.0001 
   4828.50       0.11     0.0708     0.0089     0.0029     0.0011     0.0008     0.0003     0.0001 
   4829.00       0.09     0.0583     0.0076     0.0027     0.0011     0.0007     0.0003     0.0002 
   4829.50       0.09     0.0583     0.0076     0.0027     0.0012     0.0008     0.0003     0.0002 
   4830.00       0.09     0.0595     0.0076     0.0027     0.0012     0.0008     0.0003     0.0001 
   4830.50       0.10     0.0648     0.0079     0.0027     0.0012     0.0008     0.0003     0.0002 
   4831.00       0.10     0.0687     0.0083     0.0028     0.0012     0.0007     0.0002     0.0001 
   4831.50       0.11     0.0730     0.0086     0.0029     0.0012     0.0007     0.0003     0.0002 
   4832.00       0.12     0.0784     0.0092     0.0030     0.0012     0.0008     0.0003     0.0002 
   4832.50       0.12     0.0795     0.0093     0.0030     0.0012     0.0008     0.0004     0.0002 
   4833.00       0.12     0.0800     0.0094     0.0030     0.0012     0.0007     0.0004     0.0001 
   4833.50       0.12     0.0805     0.0093     0.0030     0.0012     0.0007     0.0004     0.0001 
   4834.00       0.12     0.0806     0.0093     0.0030     0.0012     0.0007     0.0002     0.0001 
   4834.50       0.21     0.1539     0.0144     0.0039     0.0013     0.0008     0.0003     0.0001 
   4835.00       0.28     0.2127     0.0183     0.0047     0.0014     0.0009     0.0003     0.0001 
   4835.50       0.35     0.2739     0.0225     0.0054     0.0014     0.0010     0.0004     0.0001 
   4836.00       0.41     0.3269     0.0258     0.0061     0.0015     0.0011     0.0005     0.0003 
   4836.50       0.47     0.3771     0.0292     0.0068     0.0016     0.0012     0.0005     0.0003 
   4837.00       0.03     0.0176     0.0024     0.0011     0.0009     0.0004     0.0003     0.0001 
   4837.50       0.03     0.0155     0.0024     0.0011     0.0009     0.0004     0.0003     0.0001 
   4838.00       0.03     0.0152     0.0023     0.0011     0.0009     0.0003     0.0002     0.0001 
   4838.50       0.03     0.0151     0.0023     0.0011     0.0009     0.0003     0.0002     0.0001 
   4839.00       0.03     0.0150     0.0023     0.0010     0.0009     0.0003     0.0003     0.0001 
   4839.50       0.03     0.0151     0.0022     0.0010     0.0009     0.0003     0.0002     0.0001 
   4840.00       0.03     0.0153     0.0022     0.0010     0.0009     0.0003     0.0002     0.0001 
   4840.50       0.03     0.0158     0.0022     0.0010     0.0009     0.0003     0.0003     0.0001 
   4841.00       0.03     0.0158     0.0022     0.0010     0.0009     0.0003     0.0003     0.0001 
   4841.50       0.03     0.0173     0.0023     0.0010     0.0009     0.0003     0.0003     0.0001 
   4842.00       0.04     0.0200     0.0025     0.0011     0.0010     0.0003     0.0003     0.0001 
   4842.50       0.04     0.0238     0.0028     0.0011     0.0010     0.0003     0.0002     0.0001 
   4843.00       0.05     0.0288     0.0032     0.0013     0.0010     0.0004     0.0003     0.0001 
   4843.50       0.05     0.0293     0.0033     0.0013     0.0010     0.0004     0.0003     0.0001 
   4844.00       0.05     0.0293     0.0033     0.0013     0.0010     0.0004     0.0002     0.0001 
   4844.50       0.05     0.0281     0.0031     0.0012     0.0010     0.0004     0.0002     0.0002 
   4845.00       0.04     0.0271     0.0031     0.0012     0.0010     0.0004     0.0002     0.0002 
   4845.50       0.04     0.0259     0.0029     0.0012     0.0010     0.0003     0.0002     0.0001 
   4846.00       0.04     0.0250     0.0028     0.0011     0.0010     0.0003     0.0002     0.0001 
   4846.50       0.04     0.0218     0.0026     0.0011     0.0010     0.0003     0.0003     0.0001 
   4847.00       0.04     0.0177     0.0025     0.0010     0.0010     0.0004     0.0004     0.0001 
   4847.50       0.04     0.0194     0.0026     0.0010     0.0010     0.0004     0.0004     0.0001 
   4848.00       0.04     0.0202     0.0027     0.0011     0.0010     0.0003     0.0003     0.0001 
   4848.50       0.04     0.0202     0.0027     0.0011     0.0010     0.0003     0.0003     0.0001 
   4849.00       0.04     0.0205     0.0027     0.0011     0.0010     0.0003     0.0003     0.0001 
   4849.50       0.04     0.0205     0.0027     0.0011     0.0010     0.0003     0.0002     0.0001 
   4850.00       0.04     0.0215     0.0027     0.0011     0.0010     0.0003     0.0003     0.0001 
   4850.50       0.04     0.0257     0.0030     0.0011     0.0010     0.0003     0.0003     0.0002 
   4851.00       0.06     0.0398     0.0041     0.0013     0.0010     0.0003     0.0002     0.0002 
   4851.50       0.09     0.0618     0.0057     0.0017     0.0010     0.0004     0.0002     0.0001 
   4852.00       0.09     0.0618     0.0057     0.0017     0.0010     0.0004     0.0002     0.0001 
   4852.50       0.13     0.0959     0.0083     0.0022     0.0011     0.0005     0.0003     0.0001 
   4853.00       0.18     0.1397     0.0114     0.0029     0.0012     0.0005     0.0003     0.0001 
   4853.50       0.23     0.1799     0.0143     0.0035     0.0014     0.0006     0.0002     0.0001 
   4854.00       0.29     0.2313     0.0180     0.0042     0.0014     0.0007     0.0002     0.0001 
   4854.50       0.35     0.2766     0.0215     0.0050     0.0014     0.0008     0.0004     0.0002 
   4855.00       0.42     0.3389     0.0259     0.0059     0.0015     0.0011     0.0004     0.0002 
   4855.50       0.48     0.3882     0.0293     0.0066     0.0016     0.0011     0.0004     0.0001 
   4856.00       0.53     0.4238     0.0320     0.0072     0.0017     0.0012     0.0005     0.0002 
   4856.50       0.54     0.4345     0.0327     0.0074     0.0017     0.0012     0.0005     0.0002 
   4857.00       0.54     0.4345     0.0327     0.0074     0.0016     0.0012     0.0005     0.0001 
   4857.50       0.52     0.4232     0.0318     0.0072     0.0016     0.0012     0.0005     0.0002 
   4858.00       0.50     0.4058     0.0307     0.0068     0.0016     0.0013     0.0004     0.0002 
   4858.50       0.48     0.3817     0.0299     0.0070     0.0017     0.0013     0.0004     0.0002 
   4859.00       0.48     0.3846     0.0304     0.0071     0.0017     0.0013     0.0004     0.0002 
   4859.50       0.49     0.3875     0.0309     0.0072     0.0017     0.0013     0.0004     0.0002 
