~VERSION INFORMATION
VERS.    2.0:   CWLS LOG ASCII STANDARD - VERSION 2.0
WRAP.     NO:   ONE LINE PER STEP
~WELL INFORMATION BLOCK
#MNEM.UNIT      DATA                  DESCRIPTION OF MNEMONIC
#----   --------             ---------------
STRT.m  620.00                   :START DEPTH
STOP.m  5139.00                   :STOP DEPTH
STEP.m  0.50                   :STEP VALUE
NULL.  -9999                   :NULL VALUE
COMP.   SHELL                   :COMPANY NAME
WELL.   PRELUDE P1 ST1                   :WELL NAME
FLD .   PRELUDE                   :FIELD NAME
LOC .   BROWSE BASIN                   :LOCATION
PROV.   NORTH WEST SHELF, W.A.                   :PROVINCE
SRVC.   Geoservices                   :SERVICE COMPANY NAME
DATE.   01-10-2015 15:42:04                   :DATE
UWI .                      :UNIQUE WELL IDENTIFIER
~CURVE INFORMATION
#MNEM.UNIT       API CODE        CURVE DESCRIPTION
#----   -------- ------------------
Tot Depth .m        :Tot Depth
T GAS main .%        :T GAS main
C1  main .%        :C1  main
C2  main .%        :C2  main
C3  main .%        :C3  main
iC4 main .%        :iC4 main
nC4 main .%        :nC4 main
iC5 main .%        :iC5 main
nC5 main .%        :nC5 main
C02 .ppm        :C02
MW IN .kg/l        :MW IN
#
#-----------------------------------------------------------
# Tot Depth (m)   T GAS main (%)   C1  main (%)   C2  main (%)   C3  main (%)   iC4 main (%)   nC4 main (%)   iC5 main (%)   nC5 main (%)   C02 (ppm)   MW IN (kg/l)
#-----------------------------------------------------------
~A
# ...
   1214.00       0.00     0.0010     0.0002     0.0001     0.0003     0.0001     0.0001     0.0003          1       1.13 
   1214.50       0.00     0.0010     0.0002     0.0001     0.0003     0.0001     0.0001     0.0003          1       1.13 
   1215.00       0.00     0.0007     0.0000     0.0003     0.0001     0.0001     0.0001     0.0002          1       1.13 
   1215.50       0.00     0.0007     0.0000     0.0003     0.0001     0.0001     0.0001     0.0002          1       1.13 
   1216.00       0.00     0.0007     0.0001     0.0001     0.0001     0.0001     0.0001     0.0001          1       1.13 
   1216.50       0.00     0.0007     0.0000     0.0001     0.0001     0.0000     0.0001     0.0001          1       1.13 
   1217.00       0.00     0.0005     0.0000     0.0000     0.0000     0.0000     0.0000     0.0000          1       1.13 
   1217.50       0.00     0.0007     0.0001     0.0002     0.0002     0.0002     0.0002     0.0000          1       1.13 
   1218.00       0.00     0.0006     0.0000     0.0000     0.0000     0.0000     0.0000     0.0000          1       1.13 
   1218.50       0.00     0.0007     0.0001     0.0001     0.0000     0.0000     0.0002     0.0001          1       1.13 
   1219.00       0.00     0.0006     0.0000     0.0001     0.0000     0.0000     0.0000     0.0000          1       1.13 
   1219.50       0.00     0.0006     0.0000     0.0000     0.0000     0.0000     0.0000     0.0000          1       1.13 
   1220.00       0.00     0.0007     0.0001     0.0002     0.0000     0.0001     0.0000     0.0000          1       1.13 
   1220.50       0.00     0.0007     0.0000     0.0002     0.0000     0.0001     0.0000     0.0001          1       1.13 
   1221.00       0.00     0.0012     0.0000     0.0000     0.0000     0.0001     0.0003     0.0001          1       1.13 
   1221.50       0.00     0.0012     0.0001     0.0000     0.0000     0.0001     0.0003     0.0001          1       1.13 
   1222.00       0.00     0.0009     0.0002     0.0002     0.0002     0.0001     0.0002     0.0002          1       1.13 
   1222.50       0.00     0.0009     0.0002     0.0002     0.0002     0.0001     0.0002     0.0002          1       1.13 
   1223.00       0.00     0.0008     0.0001     0.0002     0.0001     0.0002     0.0002     0.0002          1       1.13 
   1223.50       0.00     0.0008     0.0000     0.0000     0.0000     0.0001     0.0001     0.0000          1       1.13 
   1224.00       0.00     0.0012     0.0001     0.0000     0.0002     0.0002     0.0000     0.0001          1       1.13 
   1224.50       0.00     0.0012     0.0001     0.0001     0.0002     0.0002     0.0000     0.0001          1       1.13 
   1225.00       0.00     0.0007     0.0001     0.0001     0.0001     0.0001     0.0001     0.0001          1       1.13 
   1225.50       0.00     0.0007     0.0001     0.0000     0.0001     0.0000     0.0001     0.0000          1       1.13 
   1226.00       0.00     0.0007     0.0001     0.0000     0.0001     0.0000     0.0001     0.0001          1       1.13 
   1226.50       0.00     0.0007     0.0001     0.0000     0.0001     0.0000     0.0001     0.0000          1       1.13 
   1227.00       0.00     0.0006     0.0000     0.0000     0.0000     0.0000     0.0000     0.0001          1       1.13 
   1227.50       0.00     0.0008     0.0001     0.0000     0.0000     0.0001     0.0000     0.0000          1       1.13 
   1228.00       0.00     0.0011     0.0000     0.0001     0.0000     0.0000     0.0002     0.0000          1       1.13 
   1228.50       0.00     0.0011     0.0000     0.0001     0.0000     0.0000     0.0002     0.0001          1       1.13 
   1229.00       0.00     0.0006     0.0000     0.0000     0.0000     0.0000     0.0001     0.0000          1       1.13 
   1229.50       0.00     0.0009     0.0000     0.0004     0.0002     0.0003     0.0000     0.0001          1       1.13 
   1230.00       0.00     0.0008     0.0000     0.0002     0.0001     0.0001     0.0000     0.0000          1       1.13 
   1230.50       0.00     0.0008     0.0000     0.0002     0.0001     0.0001     0.0000     0.0000          1       1.13 
   1231.00       0.00     0.0007     0.0000     0.0000     0.0000     0.0000     0.0000     0.0000          1       1.13 
   1231.50       0.00     0.0015     0.0000     0.0001     0.0001     0.0000     0.0000     0.0001          1       1.13 
   1232.00       0.00     0.0006     0.0001     0.0000     0.0001     0.0000     0.0000     0.0000          1       1.13 
   1232.50       0.00     0.0006     0.0001     0.0000     0.0001     0.0000     0.0001     0.0000          1       1.13 
   1233.00       0.00     0.0007     0.0000     0.0000     0.0000     0.0001     0.0000     0.0000          1       1.13 
   1233.50       0.00     0.0007     0.0000     0.0000     0.0001     0.0001     0.0000     0.0000          1       1.13 
   1234.00       0.00     0.0007     0.0001     0.0000     0.0001     0.0000     0.0000     0.0000          1       1.13 
   1234.50       0.00     0.0005     0.0001     0.0000     0.0001     0.0000     0.0001     0.0001          1       1.13 
   1235.00       0.00     0.0006     0.0000     0.0000     0.0000     0.0001     0.0001     0.0001          1       1.13 
   1235.50       0.00     0.0006     0.0002     0.0000     0.0000     0.0001     0.0001     0.0001          1       1.13 
   1236.00       0.00     0.0006     0.0000     0.0002     0.0000     0.0000     0.0000     0.0000          1       1.13 
   1236.50       0.00     0.0008     0.0000     0.0003     0.0002     0.0001     0.0000     0.0001          1       1.13 
   1237.00       0.00     0.0005     0.0000     0.0000     0.0000     0.0000     0.0000     0.0000          1       1.13 
   1237.50       0.00     0.0005     0.0000     0.0000     0.0000     0.0000     0.0000     0.0000          1       1.13 
   1238.00       0.00     0.0006     0.0001     0.0001     0.0001     0.0000     0.0000     0.0000          1       1.13 
   1238.50       0.01     0.0020     0.0004     0.0003     0.0000     0.0000     0.0000     0.0000          1       1.13 
   1239.00       0.01     0.0020     0.0000     0.0001     0.0001     0.0000     0.0001     0.0001          1       1.13 
   1239.50       0.01     0.0024     0.0000     0.0000     0.0000     0.0000     0.0000     0.0000          1       1.13 
   1240.00       0.01     0.0015     0.0000     0.0000     0.0000     0.0000     0.0001     0.0000          1       1.13 
   1240.50       0.01     0.0015     0.0000     0.0000     0.0001     0.0000     0.0001     0.0000          1       1.13 
   1241.00       0.00     0.0004     0.0000     0.0000     0.0000     0.0000     0.0000     0.0000          1       1.13 
   1241.50       0.00     0.0007     0.0001     0.0000     0.0001     0.0001     0.0001     0.0000          1       1.13 
   1242.00       0.00     0.0006     0.0000     0.0001     0.0001     0.0000     0.0000     0.0000          1       1.13 
   1242.50       0.00     0.0006     0.0001     0.0001     0.0001     0.0000     0.0000     0.0000          1       1.13 
   1243.00       0.00     0.0009     0.0002     0.0003     0.0002     0.0002     0.0001     0.0001          1       1.13 
   1243.50       0.00     0.0005     0.0002     0.0000     0.0002     0.0002     0.0000     0.0000          1       1.13 
   1244.00       0.00     0.0005     0.0000     0.0000     0.0001     0.0000     0.0001     0.0000          1       1.13 
   1244.50       0.00     0.0006     0.0000     0.0003     0.0001     0.0000     0.0004     0.0000          1       1.13 
   1245.00       0.00     0.0006     0.0000     0.0000     0.0000     0.0000     0.0000     0.0000          1       1.13 
   1245.50       0.00     0.0009     0.0001     0.0001     0.0001     0.0001     0.0002     0.0001          1       1.13 
   1246.00       0.00     0.0006     0.0000     0.0001     0.0001     0.0000     0.0000     0.0000          1       1.13 
   1246.50       0.00     0.0006     0.0000     0.0001     0.0001     0.0000     0.0001     0.0001          1       1.13 
