~VERSION INFORMATION
VERS.    2.0:   CWLS LOG ASCII STANDARD - VERSION 2.0
WRAP.     NO:   ONE LINE PER STEP
~WELL INFORMATION BLOCK
#MNEM.UNIT      DATA                  DESCRIPTION OF MNEMONIC
#----   --------             ---------------
STRT.m  620.00                   :START DEPTH
STOP.m  5139.00                   :STOP DEPTH
STEP.m  0.50                   :STEP VALUE
NULL.  -999.25                   :NULL VALUE
COMP.   SHELL                   :COMPANY NAME
WELL.   PRELUDE P1 ST1                   :WELL NAME
FLD .   PRELUDE                   :FIELD NAME
LOC .   BROWSE BASIN                   :LOCATION
PROV.   NORTH WEST SHELF, W.A.                   :PROVINCE
SRVC.   Geoservices                   :SERVICE COMPANY NAME
DATE.   01-10-2015 15:42:38                   :DATE
UWI .                      :UNIQUE WELL IDENTIFIER
~CURVE INFORMATION
#MNEM.UNIT       API CODE        CURVE DESCRIPTION
#----   -------- ------------------
Tot Depth .m        :Tot Depth
THG IN .%        :THG IN
C1 IN .%        :C1 IN
C2 IN .%        :C2 IN
C3 IN .%        :C3 IN
iC4 IN .%        :iC4 IN
nC4 IN .%        :nC4 IN
iC5 IN .%        :iC5 IN
nC5 IN .%        :nC5 IN
#
#-----------------------------------------------------------
# Tot Depth (m)   THG IN (%)   C1 IN (%)   C2 IN (%)   C3 IN (%)   iC4 IN (%)   nC4 IN (%)   iC5 IN (%)   nC5 IN (%)
#-----------------------------------------------------------
~A
# ...
   2700.00       0.03     0.0199     0.0004     0.0001     0.0007     0.0001     0.0001     0.0000 
   2700.50       0.02     0.0189     0.0004     0.0001     0.0007     0.0001     0.0001     0.0000 
   2701.00       0.02     0.0189     0.0004     0.0001     0.0007     0.0001     0.0001     0.0000 
   2701.50       0.02     0.0189     0.0004     0.0001     0.0007     0.0001     0.0001     0.0000 
   2702.00       0.02     0.0189     0.0004     0.0001     0.0007     0.0001     0.0001     0.0000 
   2702.50       0.02     0.0176     0.0004     0.0001     0.0007     0.0000     0.0001     0.0000 
   2703.00       0.02     0.0176     0.0004     0.0001     0.0007     0.0000     0.0001     0.0000 
   2703.50       0.02     0.0176     0.0004     0.0001     0.0007     0.0000     0.0001     0.0000 
   2704.00       0.02     0.0176     0.0004     0.0001     0.0007     0.0000     0.0001     0.0000 
   2704.50       0.02     0.0176     0.0004     0.0001     0.0007     0.0001     0.0001     0.0000 
   2705.00       0.02     0.0171     0.0004     0.0001     0.0007     0.0001     0.0001     0.0000 
   2705.50       0.02     0.0171     0.0004     0.0001     0.0007     0.0001     0.0001     0.0000 
   2706.00       0.02     0.0171     0.0004     0.0001     0.0007     0.0001     0.0001     0.0000 
   2706.50       0.02     0.0171     0.0004     0.0001     0.0007     0.0001     0.0001     0.0000 
   2707.00       0.02     0.0185     0.0004     0.0001     0.0007     0.0001     0.0001     0.0000 
   2707.50       0.02     0.0185     0.0004     0.0001     0.0007     0.0000     0.0001     0.0000 
   2708.00       0.02     0.0185     0.0004     0.0001     0.0007     0.0000     0.0001     0.0000 
   2708.50       0.02     0.0185     0.0004     0.0001     0.0007     0.0000     0.0001     0.0000 
   2709.00       0.02     0.0185     0.0004     0.0001     0.0007     0.0000     0.0001     0.0000 
   2709.50       0.03     0.0204     0.0005     0.0001     0.0007     0.0000     0.0001     0.0000 
   2710.00       0.03     0.0204     0.0005     0.0001     0.0007     0.0000     0.0001     0.0000 
   2710.50       0.03     0.0204     0.0005     0.0001     0.0007     0.0000     0.0001     0.0000 
   2711.00       0.03     0.0212     0.0005     0.0001     0.0010     0.0000     0.0003     0.0000 
   2711.50       0.03     0.0212     0.0003     0.0001     0.0010     0.0000     0.0003     0.0000 
   2712.00       0.03     0.0212     0.0003     0.0001     0.0010     0.0000     0.0003     0.0000 
   2712.50       0.03     0.0212     0.0003     0.0001     0.0010     0.0000     0.0003     0.0000 
   2713.00       0.03     0.0212     0.0003     0.0001     0.0010     0.0000     0.0003     0.0000 
   2713.50       0.03     0.0212     0.0005     0.0002     0.0010     0.0000     0.0003     0.0000 
   2714.00       0.03     0.0211     0.0005     0.0002     0.0007     0.0000     0.0001     0.0000 
   2714.50       0.03     0.0211     0.0005     0.0002     0.0007     0.0000     0.0001     0.0000 
   2715.00       0.03     0.0211     0.0005     0.0002     0.0007     0.0000     0.0001     0.0000 
   2715.50       0.03     0.0211     0.0005     0.0002     0.0007     0.0000     0.0001     0.0000 
   2716.00       0.03     0.0211     0.0005     0.0002     0.0007     0.0000     0.0001     0.0000 
   2716.50       0.03     0.0219     0.0005     0.0002     0.0007     0.0001     0.0001     0.0000 
   2717.00       0.03     0.0219     0.0005     0.0002     0.0007     0.0001     0.0001     0.0000 
   2717.50       0.03     0.0219     0.0005     0.0002     0.0007     0.0001     0.0001     0.0000 
   2718.00       0.03     0.0219     0.0005     0.0002     0.0007     0.0001     0.0001     0.0000 
   2718.50       0.03     0.0219     0.0005     0.0002     0.0007     0.0001     0.0001     0.0000 
   2719.00       0.03     0.0219     0.0005     0.0002     0.0007     0.0001     0.0001     0.0000 
   2719.50       0.03     0.0209     0.0005     0.0002     0.0007     0.0000     0.0001     0.0000 
   2720.00       0.03     0.0209     0.0005     0.0002     0.0007     0.0000     0.0001     0.0000 
   2720.50       0.03     0.0209     0.0005     0.0002     0.0007     0.0000     0.0001     0.0000 
   2721.00       0.03     0.0209     0.0005     0.0002     0.0007     0.0000     0.0001     0.0000 
   2721.50       0.03     0.0209     0.0005     0.0002     0.0007     0.0000     0.0001     0.0000 
   2722.00       0.03     0.0209     0.0005     0.0002     0.0008     0.0001     0.0001     0.0000 
   2722.50       0.03     0.0197     0.0005     0.0001     0.0008     0.0001     0.0001     0.0000 
   2723.00       0.03     0.0197     0.0005     0.0001     0.0008     0.0001     0.0001     0.0000 
   2723.50       0.03     0.0197     0.0005     0.0001     0.0008     0.0001     0.0001     0.0000 
   2724.00       0.03     0.0197     0.0005     0.0001     0.0008     0.0001     0.0001     0.0000 
   2724.50       0.03     0.0197     0.0005     0.0001     0.0008     0.0001     0.0001     0.0000 
   2725.00       0.03     0.0197     0.0005     0.0001     0.0008     0.0001     0.0002     0.0000 
   2725.50       0.02     0.0177     0.0005     0.0001     0.0007     0.0000     0.0002     0.0000 
   2726.00       0.02     0.0177     0.0005     0.0001     0.0007     0.0000     0.0002     0.0000 
   2726.50       0.02     0.0177     0.0005     0.0001     0.0007     0.0000     0.0002     0.0000 
   2727.00       0.01     0.0046     0.0001     0.0001     0.0007     0.0000     0.0001     0.0000 
   2727.50       0.02     0.0127     0.0003     0.0001     0.0007     0.0000     0.0001     0.0000 
   2728.00       0.02     0.0127     0.0003     0.0001     0.0007     0.0000     0.0001     0.0000 
   2728.50       0.02     0.0127     0.0003     0.0001     0.0007     0.0000     0.0001     0.0000 
   2729.00       0.02     0.0127     0.0003     0.0001     0.0007     0.0000     0.0001     0.0000 
   2729.50       0.02     0.0153     0.0004     0.0001     0.0007     0.0000     0.0001     0.0000 
   2730.00       0.02     0.0153     0.0004     0.0001     0.0007     0.0000     0.0001     0.0000 
   2730.50       0.02     0.0153     0.0004     0.0001     0.0007     0.0000     0.0001     0.0000 
   2731.00       0.02     0.0153     0.0004     0.0001     0.0007     0.0000     0.0001     0.0000 
   2731.50       0.02     0.0153     0.0004     0.0001     0.0007     0.0000     0.0001     0.0000 
   2732.00       0.02     0.0153     0.0004     0.0001     0.0007     0.0001     0.0001     0.0000 
   2732.50       0.02     0.0148     0.0004     0.0001     0.0007     0.0001     0.0001     0.0000 
   2733.00       0.02     0.0148     0.0004     0.0001     0.0007     0.0001     0.0001     0.0000 
   2733.50       0.02     0.0148     0.0004     0.0001     0.0007     0.0001     0.0001     0.0000 
   2734.00       0.02     0.0148     0.0004     0.0001     0.0007     0.0001     0.0001     0.0000 
   2734.50       0.02     0.0148     0.0004     0.0001     0.0007     0.0001     0.0001     0.0000 
   2735.00       0.02     0.0136     0.0004     0.0001     0.0007     0.0000     0.0000     0.0000 
   2735.50       0.02     0.0136     0.0004     0.0001     0.0007     0.0000     0.0000     0.0000 
   2736.00       0.02     0.0136     0.0004     0.0001     0.0007     0.0000     0.0000     0.0000 
   2736.50       0.02     0.0136     0.0004     0.0001     0.0007     0.0000     0.0000     0.0000 
   2737.00       0.02     0.0136     0.0004     0.0001     0.0007     0.0000     0.0000     0.0000 
   2737.50       0.01     0.0043     0.0001     0.0000     0.0007     0.0000     0.0000     0.0000 
   2738.00       0.01     0.0043     0.0001     0.0000     0.0007     0.0000     0.0000     0.0000 
   2738.50       0.01     0.0043     0.0001     0.0000     0.0007     0.0000     0.0000     0.0000 
   2739.00       0.01     0.0043     0.0001     0.0000     0.0007     0.0000     0.0000     0.0000 
   2739.50       0.01     0.0043     0.0001     0.0000     0.0007     0.0000     0.0000     0.0000 
