~VERSION INFORMATION
VERS.    2.0:   CWLS LOG ASCII STANDARD - VERSION 2.0
WRAP.     NO:   ONE LINE PER STEP
~WELL INFORMATION BLOCK
#MNEM.UNIT      DATA                  DESCRIPTION OF MNEMONIC
#----   --------             ---------------
STRT.m  620.00                   :START DEPTH
STOP.m  5139.00                   :STOP DEPTH
STEP.m  0.50                   :STEP VALUE
NULL.  -9999                   :NULL VALUE
COMP.   SHELL                   :COMPANY NAME
WELL.   PRELUDE P1 ST1                   :WELL NAME
FLD .   PRELUDE                   :FIELD NAME
LOC .   BROWSE BASIN                   :LOCATION
PROV.   NORTH WEST SHELF, W.A.                   :PROVINCE
SRVC.   Geoservices                   :SERVICE COMPANY NAME
DATE.   01-10-2015 15:42:04                   :DATE
UWI .                      :UNIQUE WELL IDENTIFIER
~CURVE INFORMATION
#MNEM.UNIT       API CODE        CURVE DESCRIPTION
#----   -------- ------------------
Tot Depth .m        :Tot Depth
T GAS main .%        :T GAS main
C1  main .%        :C1  main
C2  main .%        :C2  main
C3  main .%        :C3  main
iC4 main .%        :iC4 main
nC4 main .%        :nC4 main
iC5 main .%        :iC5 main
nC5 main .%        :nC5 main
C02 .ppm        :C02
MW IN .kg/l        :MW IN
#
#-----------------------------------------------------------
# Tot Depth (m)   T GAS main (%)   C1  main (%)   C2  main (%)   C3  main (%)   iC4 main (%)   nC4 main (%)   iC5 main (%)   nC5 main (%)   C02 (ppm)   MW IN (kg/l)
#-----------------------------------------------------------
~A
# ...
   4217.00       1.20     0.6752     0.1018     0.0410     0.0077     0.0110     0.0038     0.0031          1       1.45 
   4217.50       1.19     0.6717     0.1005     0.0405     0.0076     0.0109     0.0038     0.0031          1       1.45 
   4218.00       1.19     0.6606     0.0991     0.0402     0.0076     0.0108     0.0037     0.0031          1       1.45 
   4218.50       1.15     0.6461     0.0970     0.0395     0.0074     0.0107     0.0037     0.0031          1       1.45 
   4219.00       1.14     0.6259     0.0946     0.0390     0.0074     0.0107     0.0037     0.0031          1       1.45 
   4219.50       1.13     0.6075     0.0921     0.0382     0.0074     0.0105     0.0036     0.0030          1       1.45 
   4220.00       1.12     0.6000     0.0907     0.0377     0.0073     0.0104     0.0037     0.0030          1       1.45 
   4220.50       1.08     0.5724     0.0872     0.0367     0.0071     0.0102     0.0037     0.0030          1       1.45 
   4221.00       1.04     0.5333     0.0817     0.0349     0.0070     0.0099     0.0035     0.0029          1       1.45 
   4221.50       0.98     0.5084     0.0779     0.0336     0.0068     0.0096     0.0035     0.0029          1       1.45 
   4222.00       0.91     0.4510     0.0706     0.0310     0.0065     0.0089     0.0033     0.0028          1       1.45 
   4222.50       1.00     0.4927     0.0781     0.0335     0.0067     0.0093     0.0032     0.0026          1       1.45 
   4223.00       1.00     0.5127     0.0813     0.0347     0.0068     0.0096     0.0034     0.0028          1       1.45 
   4223.50       1.01     0.5127     0.0813     0.0346     0.0069     0.0095     0.0034     0.0028          1       1.45 
   4224.00       1.02     0.5697     0.0796     0.0337     0.0068     0.0092     0.0033     0.0027          1       1.45 
   4224.50       1.11     0.6419     0.0781     0.0326     0.0067     0.0090     0.0032     0.0026          1       1.45 
   4225.00       1.02     0.6419     0.0779     0.0321     0.0067     0.0088     0.0032     0.0026          1       1.45 
   4225.50       1.04     0.5534     0.0793     0.0338     0.0069     0.0092     0.0032     0.0026          1       1.45 
   4226.00       1.04     0.5436     0.0874     0.0371     0.0073     0.0101     0.0035     0.0026          1       1.46 
   4226.50       1.06     0.5600     0.0874     0.0371     0.0073     0.0101     0.0035     0.0028          1       1.46 
   4227.00       0.97     0.5600     0.0843     0.0354     0.0070     0.0097     0.0034     0.0028          1       1.46 
   4227.50       0.89     0.4799     0.0740     0.0319     0.0066     0.0089     0.0032     0.0027          1       1.46 
   4228.00       0.83     0.3752     0.0635     0.0284     0.0061     0.0079     0.0029     0.0023          1       1.46 
   4228.50       0.86     0.3588     0.0613     0.0274     0.0061     0.0077     0.0030     0.0022          1       1.46 
   4229.00       0.87     0.4126     0.0674     0.0292     0.0063     0.0081     0.0030     0.0023          1       1.46 
   4229.50       0.86     0.4126     0.0674     0.0291     0.0063     0.0081     0.0030     0.0023          1       1.46 
   4230.00       0.82     0.3576     0.0599     0.0268     0.0060     0.0076     0.0028     0.0023          1       1.46 
   4230.50       0.76     0.3096     0.0539     0.0248     0.0057     0.0072     0.0028     0.0022          1       1.46 
   4231.00       0.70     0.2675     0.0486     0.0232     0.0056     0.0069     0.0027     0.0022          1       1.46 
   4231.50       0.63     0.2169     0.0434     0.0220     0.0055     0.0066     0.0026     0.0021          1       1.46 
   4232.00       0.83     0.3633     0.0598     0.0272     0.0061     0.0076     0.0029     0.0022          1       1.46 
   4232.50       0.83     0.3697     0.0613     0.0279     0.0061     0.0079     0.0029     0.0023          1       1.45 
   4233.00       0.81     0.3697     0.0613     0.0279     0.0061     0.0078     0.0029     0.0023          1       1.46 
   4233.50       0.77     0.3236     0.0557     0.0259     0.0059     0.0075     0.0028     0.0023          1       1.46 
   4234.00       0.74     0.3019     0.0460     0.0224     0.0055     0.0068     0.0027     0.0022          1       1.45 
   4234.50       0.73     0.3019     0.0455     0.0219     0.0055     0.0067     0.0027     0.0022          1       1.45 
   4235.00       0.85     0.3873     0.0606     0.0256     0.0056     0.0069     0.0026     0.0020          1       1.45 
   4235.50       0.91     0.4578     0.0683     0.0276     0.0059     0.0072     0.0027     0.0021          1       1.45 
   4236.00       0.93     0.4781     0.0699     0.0282     0.0060     0.0074     0.0027     0.0021          1       1.46 
   4236.50       0.91     0.4744     0.0693     0.0279     0.0059     0.0075     0.0027     0.0021          1       1.46 
   4237.00       0.90     0.4581     0.0675     0.0277     0.0059     0.0075     0.0027     0.0021          1       1.46 
   4237.50       0.92     0.4667     0.0684     0.0278     0.0059     0.0074     0.0027     0.0021          1       1.46 
   4238.00       0.91     0.4667     0.0684     0.0278     0.0059     0.0073     0.0026     0.0021          1       1.45 
   4238.50       0.89     0.4534     0.0671     0.0272     0.0057     0.0072     0.0026     0.0021          1       1.45 
   4239.00       0.88     0.4465     0.0656     0.0266     0.0057     0.0071     0.0026     0.0021          1       1.46 
   4239.50       0.87     0.4397     0.0650     0.0265     0.0057     0.0071     0.0027     0.0022          1       1.46 
   4240.00       0.89     0.4555     0.0663     0.0270     0.0057     0.0071     0.0027     0.0022          1       1.46 
   4240.50       0.91     0.4570     0.0668     0.0271     0.0058     0.0072     0.0026     0.0021          1       1.46 
   4241.00       0.90     0.4570     0.0668     0.0271     0.0058     0.0072     0.0027     0.0021          1       1.46 
   4241.50       0.85     0.4284     0.0634     0.0260     0.0056     0.0070     0.0027     0.0021          1       1.46 
   4242.00       0.84     0.3980     0.0597     0.0250     0.0055     0.0068     0.0026     0.0021          1       1.46 
   4242.50       0.81     0.3810     0.0584     0.0248     0.0055     0.0068     0.0026     0.0020          1       1.46 
   4243.00       0.82     0.3810     0.0587     0.0250     0.0055     0.0069     0.0027     0.0021          1       1.46 
   4243.50       0.86     0.4132     0.0645     0.0271     0.0059     0.0074     0.0027     0.0022          1       1.46 
   4244.00       0.92     0.4339     0.0671     0.0279     0.0059     0.0076     0.0028     0.0022          1       1.45 
   4244.50       0.95     0.4795     0.0757     0.0315     0.0062     0.0084     0.0030     0.0023          1       1.46 
   4245.00       0.99     0.5053     0.0787     0.0327     0.0064     0.0089     0.0031     0.0025          1       1.46 
   4245.50       0.98     0.5053     0.0787     0.0327     0.0064     0.0089     0.0031     0.0025          1       1.46 
   4246.00       0.94     0.5053     0.0787     0.0327     0.0064     0.0089     0.0032     0.0026          1       1.46 
   4246.50       0.90     0.4642     0.0727     0.0313     0.0063     0.0088     0.0032     0.0027          1       1.46 
   4247.00       0.88     0.4192     0.0670     0.0294     0.0061     0.0084     0.0030     0.0025          1       1.46 
   4247.50       0.88     0.4192     0.0670     0.0294     0.0061     0.0084     0.0031     0.0025          1       1.46 
   4248.00       0.98     0.4929     0.0787     0.0334     0.0066     0.0092     0.0033     0.0027          1       1.46 
   4248.50       0.91     0.4334     0.0673     0.0288     0.0061     0.0079     0.0029     0.0024          1       1.46 
   4249.00       1.07     0.6610     0.0758     0.0291     0.0059     0.0077     0.0026     0.0020          1       1.46 
   4249.50       1.08     0.6610     0.0764     0.0301     0.0059     0.0080     0.0028     0.0023          1       1.46 
