~VERSION INFORMATION 
VERS  .    2.0                                     :CWLS Log ASCII Standard - VERSION 2.0
WRAP  .    NO                                      :One Line per Depth step
PROD  .    Schlumberger Technology Corp.           :LAS Producer
PROG  .    Horizon LASWriter 8.2.104493.3100       :LAS Program name and version
SOURCE.    Run03-Drilling                          :Run&Pass Information
CREA  .    11/08/2019                              :LAS Creation date {MM/DD/YYYY}
#--------------------------------------------------
~WELL INFORMATION 
#MNEM           .UNIT                      DATA            :DESCRIPTION
#----            ------          --------------            -----------------------------
STRT            .m                   1489.86240            :START DEPTH
STOP            .m                   2794.86360            :STOP DEPTH
STEP            .m                       0.1524            :STEP
NULL            .                       -999.25            :NULL VALUE
COMP            .                      Woodside            :COMPANY
WELL            .                         PLA07            :WELL NAME
FLD             .                 Pluto/WA-34-L            :FIELD NAME
RIGN            .                    Ocean Apex            :Rig Name
RIGTYP          .                Semi-Submersible          :Rig Type
SON             .                     19AWA0002            :Service Order Number
SRVC            .                  Schlumberger            :SERVICE COMPANY
DATE            .                    06/13/2019            :LOG DATE(Composite Date for Composite LAP) (MM/DD/YYYY)
CLAB            .                       County:            :County Label
CNTY            .                                          :COUNTY
SLAB            .                        State:            :State/Province Label
STAT            .                Western Australia         :STATE or PROVINCE
PROV            .                Western Australia         :STATE or PROVINCE
CTRY            .                     Australia            :COUNTRY
CONT_REGION     .                   Australasia            :Continent Region
SECT            .                                          :Section
TOWN            .                                          :Township
RANG            .                                          :Range
API             .                                          :API NUMBER
UWI             .                     19AWA0002            :UNIQUE WELL ID
LUL             .                        Zone 1            :Logging Unit Location
LUN             .                       1010979            :Logging Unit Number
LOC             .                       WA-34-L            :FIELD LOCATION
FL1             .                N 7 797 035.31m           :Field Location Line 1
FL2             .                 E 304 456.39m            :Field Location Line 2
LATI            .deg                 -19.913224            :LATITUDE
LONG            .deg                  115.13193            :LONGITUDE
PDAT            .                         OTHER            :Local Permanent Datum
LMF             .                            DF            :Logging Measured From
APD             .m                        23.85            :Elevation of Depth Reference (LMF) Above Permanent Datum
EPD             .m                        -1.35            :Elevation of Permanent Datum (PDAT) above Mean Sea Level
EKB             .m                      -999.25            :Elevation of Kelly Bushing Above Permanent Datum
EDF             .m                        23.85            :Elevation of Drill Floor Above Permanent Datum
EGL             .m                      -830.05            :Elevation of Ground Level Above Permanent Datum
ECF             .m                      -999.25            :Elevation of Casing Flange above Permanent Datum
#--------------------------------------------------
~CURVE INFORMATION
#MNEM           .UNIT                  API CODE            :DESCRIPTION
#----            ------          --------------            -----------------------------
DEPT            .m                                         :                                                        Depth Index
TVD             .m                                         :(RT)    (DnMWorkflow)           (6in)                   True Vertical Depth
ROP             .m/h                                       :(RT)    (DRILLING_SURFACE)      (6in)                   Rate of Penetration
ROP5            .m/h                                       :(RT)    (DRILLING_SURFACE)      (6in)                   Rate of penetration averaged over the last 5 ft (1.5 m)
GR_ARC          .gAPI                                      :(RM)    (ARC9)                  (6in)                   Gamma Ray
GR_CAL          .gAPI                                      :(RM)    (ARC9)                  (6in)                   Calibrated Gamma Ray
A16H            .ohm.m                                     :(RM)    (ARC9)                  (6in)                   Attenuation Resistivity 16 inch Spacing at 2 MHz, Environmentally Corrected
A16L            .ohm.m                                     :(RM)    (ARC9)                  (6in)                   Attenuation Resistivity 16 inch Spacing at 400 KHz, Environmentally Corrected
A22H            .ohm.m                                     :(RM)    (ARC9)                  (6in)                   Attenuation Resistivity 22 inch Spacing at 2 MHz, Environmentally Corrected
A22L            .ohm.m                                     :(RM)    (ARC9)                  (6in)                   Attenuation Resistivity 22 inch Spacing at 400 KHz, Environmentally Corrected
A28H            .ohm.m                                     :(RM)    (ARC9)                  (6in)                   Attenuation Resistivity 28 inch Spacing at 2 MHz, Environmentally Corrected
A28L            .ohm.m                                     :(RM)    (ARC9)                  (6in)                   Attenuation Resistivity 28 inch Spacing at 400 KHz, Environmentally Corrected
A34H            .ohm.m                                     :(RM)    (ARC9)                  (6in)                   Attenuation Resistivity 34 inch Spacing at 2 MHz, Environmentally Corrected
A34L            .ohm.m                                     :(RM)    (ARC9)                  (6in)                   Attenuation Resistivity 34 inch Spacing at 400 KHz, Environmentally Corrected
A40H            .ohm.m                                     :(RM)    (ARC9)                  (6in)                   Attenuation Resistivity 40 inch Spacing at 2 MHz, Environmentally Corrected.
A40L            .ohm.m                                     :(RM)    (ARC9)                  (6in)                   Attenuation Resistivity 40 inch Spacing at 400 KHz, Environmentally Corrected
P16H            .ohm.m                                     :(RM)    (ARC9)                  (6in)                   Phase Shift Resistivity 16 inch Spacing at 2 MHz, Environmentally Corrected.
P16L            .ohm.m                                     :(RM)    (ARC9)                  (6in)                   Phase Shift Resistivity 16 inch Spacing at 400 KHz, Environmentally Corrected.
P22H            .ohm.m                                     :(RM)    (ARC9)                  (6in)                   Phase Shift Resistivity 22 inch Spacing at 2 MHz, Environmentally Corrected.
P22L            .ohm.m                                     :(RM)    (ARC9)                  (6in)                   Phase Shift Resistivity 22 inch Spacing at 400 KHz, Environmentally Corrected.
P28H            .ohm.m                                     :(RM)    (ARC9)                  (6in)                   Phase Shift Resistivity 28 inch Spacing at 2 MHz, Environmentally Corrected.
P28L            .ohm.m                                     :(RM)    (ARC9)                  (6in)                   Phase Shift Resistivity 28 inch Spacing at 400 KHz, Environmentally Corrected.
P34H            .ohm.m                                     :(RM)    (ARC9)                  (6in)                   Phase Shift Resistivity 34 inch Spacing at 2 MHz, Environmentally Corrected.
P34L            .ohm.m                                     :(RM)    (ARC9)                  (6in)                   Phase Shift Resistivity 34 inch Spacing at 400 KHz, Environmentally Corrected.
P40H            .ohm.m                                     :(RM)    (ARC9)                  (6in)                   Phase Shift Resistivity 40 inch Spacing at 2 MHz, Environmentally Corrected.
P40L            .ohm.m                                     :(RM)    (ARC9)                  (6in)                   Phase Shift Resistivity 40 inch Spacing at 400 KHz, Environmentally Corrected.
TAB_RES         .h                                         :        (ARC9)                  (6in)                   Resistivity Time After Bit
DHAT            .degC                                      :(RM)    (ARC9)                  (6in)                   Downhole Annulus Temperature
DHAP            .psi                                       :(RM)    (ARC9)                  (6in)                   Downhole Annulus Pressure
ECD             .g/cm3                                     :(RM)    (ARC9)                  (6in)                   Equivalent Circulating Density
TICKS_GR        .                                          :(RM)    (ARC9)                  (1.2in)                 Gamma Ray Tick Marks
TICKS_RES       .                                          :(RM)    (ARC9)                  (1.2in)                 Resistivity Tick Marks
#-------------------------------------------------------------
#            DEPT          TVD          ROP         ROP5       GR_ARC       GR_CAL         A16H         A16L         A22H         A22L         A28H         A28L         A34H         A34L         A40H         A40L         P16H         P16L         P22H         P22L         P28H         P28L         P34H         P34L         P40H         P40L      TAB_RES         DHAT         DHAP          ECD     TICKS_GR    TICKS_RES 
#                  (DnMWorkfl)  (DRILLING_)  (DRILLING_)       (ARC9)       (ARC9)       (ARC9)       (ARC9)       (ARC9)       (ARC9)       (ARC9)       (ARC9)       (ARC9)       (ARC9)       (ARC9)       (ARC9)       (ARC9)       (ARC9)       (ARC9)       (ARC9)       (ARC9)       (ARC9)       (ARC9)       (ARC9)       (ARC9)       (ARC9)       (ARC9)       (ARC9)       (ARC9)       (ARC9)       (ARC9)       (ARC9) 
#                         (RT)         (RT)         (RT)         (RM)         (RM)         (RM)         (RM)         (RM)         (RM)         (RM)         (RM)         (RM)         (RM)         (RM)         (RM)         (RM)         (RM)         (RM)         (RM)         (RM)         (RM)         (RM)         (RM)         (RM)         (RM)                      (RM)         (RM)         (RM)         (RM)         (RM) 
#                        (6in)        (6in)        (6in)        (6in)        (6in)        (6in)        (6in)        (6in)        (6in)        (6in)        (6in)        (6in)        (6in)        (6in)        (6in)        (6in)        (6in)        (6in)        (6in)        (6in)        (6in)        (6in)        (6in)        (6in)        (6in)        (6in)        (6in)        (6in)        (6in)      (1.2in)      (1.2in) 
~ASCII
# ...
       1575.20640   1575.19877     23.12332     12.11787     62.74516    101.45850      0.35956      0.35394      0.36343      0.35621      0.36852      0.35824      0.36972      0.35972      0.36573      0.36050      0.37508      0.36350      0.36453      0.36281      0.35809      0.36328      0.35749      0.36337      0.35924      0.36195      0.93693     27.00000   2631.99983      1.17656      1.00000      1.00000
       1575.35880   1575.35117     19.07745     13.37242     59.75679     99.57785      0.37097      0.35429      0.36878      0.35674      0.37244      0.35953      0.37385      0.36216      0.36796      0.36388      0.38012      0.36702      0.36895      0.36489      0.36318      0.36411      0.36101      0.36302      0.35765      0.36036      0.94375     27.00000   2629.99976      1.17552      1.00000      1.00000
       1575.51120   1575.50357     14.74469     16.53312     58.33082     98.68047      0.36134      0.35596      0.36110      0.35883      0.36488      0.36088      0.36628      0.36221      0.36169      0.36314      0.36287      0.35906      0.35296      0.35651      0.34683      0.35639      0.34419      0.35702      0.34176      0.35608      0.93721     27.00000   2633.00059      1.17676      1.00000      1.00000
       1575.66360   1575.65597     13.24995     17.07836     59.51974     99.42867      0.35116      0.35330      0.35831      0.35818      0.36704      0.36179      0.37150      0.36403      0.36963      0.36544      0.36451      0.35801      0.35761      0.35869      0.35295      0.35966      0.35073      0.35949      0.34896      0.35784      0.93067     27.00000   2631.99983      1.17619      1.00000      1.00000
       1575.81600   1575.80837     13.28203     16.16737     60.96500    100.33820      0.35159      0.35389      0.35868      0.35983      0.36766      0.36343      0.37310      0.36491      0.37261      0.36576      0.35585      0.35474      0.35471      0.35843      0.35596      0.36147      0.35375      0.36182      0.34567      0.36006      0.92499     27.00000   2633.00059      1.17652      1.00000      -999.25
       1575.96840   1575.96077     19.06271     17.57662     59.50723     99.42080      0.35212      0.35505      0.35985      0.35964      0.36687      0.36237      0.37159      0.36432      0.37398      0.36657      0.36528      0.36037      0.36150      0.36173      0.35992      0.36346      0.35981      0.36424      0.35909      0.36368      0.92540     27.00000   2633.00059      1.17640      1.00000      -999.25
       1576.12080   1576.11317     33.57826     18.24733     54.58795     96.32504      0.35416      0.35515      0.35929      0.36030      0.36669      0.36356      0.37186      0.36519      0.37216      0.36630      0.35984      0.35771      0.35495      0.35911      0.35330      0.36026      0.35207      0.36018      0.34815      0.35908      0.93110     27.00000   2633.99990      1.17678      -999.25      1.00000
       1576.27320   1576.26557     31.57153     19.11257     54.50214     96.27103      0.35446      0.35529      0.36039      0.35982      0.36722      0.36254      0.36980      0.36437      0.36686      0.36632      0.36187      0.35558      0.35638      0.35817      0.35163      0.36016      0.34941      0.36020      0.34917      0.35884      0.93305     27.00000   2631.99983      1.17575      1.00000      1.00000
       1576.42560   1576.41797     25.31674     19.55892     58.66524     98.89092      0.35310      0.35358      0.36012      0.35881      0.36645      0.36171      0.36897      0.36338      0.36777      0.36526      0.36721      0.36100      0.36302      0.36302      0.36003      0.36482      0.35935      0.36423      0.35994      0.36142      0.93916     27.00000   2633.00059      1.17608      1.00000      1.00000
       1576.57800   1576.57037     24.90672     19.82772     57.28060     98.01955      0.35812      0.35410      0.36378      0.35862      0.36875      0.36157      0.37194      0.36334      0.37342      0.36476      0.36659      0.36481      0.36129      0.36320      0.35748      0.36382      0.35699      0.36386      0.35855      0.36117      0.94333     27.00000   2633.00059      1.17597      1.00000      1.00000
       1576.73040   1576.72277     30.46299     20.39001     56.48616     97.51960      0.35445      0.35130      0.35953      0.35665      0.36585      0.35945      0.37034      0.36047      0.37134      0.36142      0.36355      0.35804      0.35974      0.35985      0.35645      0.36158      0.35511      0.36297      0.35531      0.36405      0.94583     27.00000   2633.00059      1.17584      1.00000      1.00000
       1576.88280   1576.87517     35.97768     21.97326     59.59390     99.47534      0.35426      0.34937      0.35941      0.35374      0.36681      0.35702      0.37167      0.35922      0.37137      0.36076      0.36057      0.35574      0.35572      0.35655      0.35315      0.35816      0.35253      0.35879      0.35173      0.35763      0.95289     27.00000   2635.00066      1.17662      1.00000      1.00000
       1577.03520   1577.02757     28.77717     23.56857     62.78821    101.48560      0.34748      0.34600      0.35229      0.34911      0.35905      0.35218      0.36316      0.35475      0.36237      0.35637      0.35724      0.35210      0.35420      0.35344      0.35233      0.35477      0.35065      0.35472      0.34805      0.35325      0.96318     27.00000   2640.00011      1.17874      1.00000      1.00000
       1577.18760   1577.17997     20.30213     24.83444     64.32615    102.45340      0.34204      0.34116      0.34717      0.34557      0.35424      0.34890      0.35869      0.35110      0.35822      0.35263      0.35196      0.34756      0.34866      0.34833      0.34587      0.34969      0.34399      0.34949      0.34257      0.34711      0.96958     27.00000   2633.00059      1.17551      1.00000      1.00000
       1577.34000   1577.33237     12.23591     22.87452     63.13223    101.70200      0.33736      0.33689      0.34353      0.34206      0.35088      0.34611      0.35477      0.34873      0.35362      0.35032      0.34517      0.34063      0.34125      0.34202      0.33802      0.34338      0.33691      0.34304      0.33741      0.34098      0.96248     27.00000   2633.00059      1.17538      1.00000      -999.25
       1577.49240   1577.48477     11.55297     21.23749     59.74075     99.56776      0.33101      0.33329      0.33726      0.33942      0.34626      0.34464      0.35375      0.34825      0.35648      0.35037      0.33631      0.33632      0.33439      0.33790      0.33258      0.33955      0.33100      0.33937      0.32954      0.33726      0.70360     27.00000   2633.00059      1.17527      1.00000      1.00000
       1577.64480   1577.63717     27.26426     22.17484     56.16449     97.31717      0.33361      0.33212      0.33795      0.33769      0.34389      0.34186      0.34651      0.34516      0.34403      0.34817      0.34089      0.33533      0.33810      0.33821      0.33551      0.34063      0.33292      0.34094      0.33018      0.33956      0.70763     27.00000   2633.99990      1.17562      -999.25      -999.25
       1577.79720   1577.78957    171.79810     23.85731     55.55543     96.93388      0.33272      0.33258      0.33807      0.33844      0.34426      0.34284      0.34727      0.34603      0.34591      0.34861      0.34319      0.33615      0.33981      0.33882      0.33704      0.34095      0.33416      0.34104      0.33063      0.33958      0.71167     27.00000   2635.00066      1.17596      1.00000      1.00000
       1577.94960   1577.94197    178.71930     26.09923     58.43293     98.74473      0.33242      0.33321      0.33704      0.33951      0.34304      0.34352      0.34962      0.34502      0.35494      0.34546      0.33745      0.33524      0.33630      0.33827      0.33468      0.33976      0.33367      0.34021      0.33378      0.34112      0.71485     27.00000   2633.99990      1.17540      -999.25      -999.25
       1578.10200   1578.09437    212.96950     28.71499     63.07922    101.66870      0.33432      0.33513      0.33949      0.33988      0.34367      0.34374      0.34721      0.34683      0.35047      0.34932      0.34040      0.33878      0.33759      0.34002      0.33532      0.34019      0.33465      0.33996      0.33515      0.34032      0.71800     27.00000   2635.00066      1.17572      -999.25      1.00000
