~VERSION INFORMATION 
VERS  .    2.0                                     :CWLS Log ASCII Standard - VERSION 2.0
WRAP  .    NO                                      :One Line per Depth step
PROD  .    Schlumberger Technology Corp.           :LAS Producer
PROG  .    Horizon LASWriter 8.2.104493.3100       :LAS Program name and version
SOURCE.    Run03-Drilling                          :Run&Pass Information
CREA  .    11/08/2019                              :LAS Creation date {MM/DD/YYYY}
#--------------------------------------------------
~WELL INFORMATION 
#MNEM           .UNIT                      DATA            :DESCRIPTION
#----            ------          --------------            -----------------------------
STRT            .m                   1489.86240            :START DEPTH
STOP            .m                   2794.86360            :STOP DEPTH
STEP            .m                       0.1524            :STEP
NULL            .                       -999.25            :NULL VALUE
COMP            .                      Woodside            :COMPANY
WELL            .                         PLA07            :WELL NAME
FLD             .                 Pluto/WA-34-L            :FIELD NAME
RIGN            .                    Ocean Apex            :Rig Name
RIGTYP          .                Semi-Submersible          :Rig Type
SON             .                     19AWA0002            :Service Order Number
SRVC            .                  Schlumberger            :SERVICE COMPANY
DATE            .                    06/13/2019            :LOG DATE(Composite Date for Composite LAP) (MM/DD/YYYY)
CLAB            .                       County:            :County Label
CNTY            .                                          :COUNTY
SLAB            .                        State:            :State/Province Label
STAT            .                Western Australia         :STATE or PROVINCE
PROV            .                Western Australia         :STATE or PROVINCE
CTRY            .                     Australia            :COUNTRY
CONT_REGION     .                   Australasia            :Continent Region
SECT            .                                          :Section
TOWN            .                                          :Township
RANG            .                                          :Range
API             .                                          :API NUMBER
UWI             .                     19AWA0002            :UNIQUE WELL ID
LUL             .                        Zone 1            :Logging Unit Location
LUN             .                       1010979            :Logging Unit Number
LOC             .                       WA-34-L            :FIELD LOCATION
FL1             .                N 7 797 035.31m           :Field Location Line 1
FL2             .                 E 304 456.39m            :Field Location Line 2
LATI            .deg                 -19.913224            :LATITUDE
LONG            .deg                  115.13193            :LONGITUDE
PDAT            .                         OTHER            :Local Permanent Datum
LMF             .                            DF            :Logging Measured From
APD             .m                        23.85            :Elevation of Depth Reference (LMF) Above Permanent Datum
EPD             .m                        -1.35            :Elevation of Permanent Datum (PDAT) above Mean Sea Level
EKB             .m                      -999.25            :Elevation of Kelly Bushing Above Permanent Datum
EDF             .m                        23.85            :Elevation of Drill Floor Above Permanent Datum
EGL             .m                      -830.05            :Elevation of Ground Level Above Permanent Datum
ECF             .m                      -999.25            :Elevation of Casing Flange above Permanent Datum
#--------------------------------------------------
~CURVE INFORMATION
#MNEM           .UNIT                  API CODE            :DESCRIPTION
#----            ------          --------------            -----------------------------
DEPT            .m                                         :                                                        Depth Index
TVD             .m                                         :(RT)    (DnMWorkflow)           (6in)                   True Vertical Depth
GR              .gAPI                                      :(RM)    (ARC9)                  (6in)                   Gamma Ray
ROP             .m/h                                       :(RT)    (DRILLING_SURFACE)      (6in)                   Rate of Penetration
ROP5            .m/h                                       :(RT)    (DRILLING_SURFACE)      (6in)                   Rate of penetration averaged over the last 5 ft (1.5 m)
BLKP            .m                                         :(RT)    (DRILLING_SURFACE)      (6in)                   Height of block above rig floor
HKLA            .1000 lbf                                  :(RT)    (DRILLING_SURFACE)      (6in)                   Average Hookload
SWOB            .1000 lbf                                  :(RT)    (DRILLING_SURFACE)      (6in)                   Surface Weight On Bit
STOR            .1000 ft.lbf                               :(RT)    (DRILLING_SURFACE)      (6in)                   Surface Torque
RPM             .c/min                                     :(RT)    (DRILLING_SURFACE)      (6in)                   Rotational Speed
CRPM            .c/min                                     :(RM)    (TELE900)               (6in)                   Collar Rotational Speed
STICKNSLIP      .c/min                                     :(RM)    (TELE900)               (6in)                   Stick Slip Indicator
SPPA            .psi                                       :(RT)    (DRILLING_SURFACE)      (6in)                   Standpipe Pressure
TFLO            .gal/min                                   :(RT)    (DRILLING_SURFACE)      (6in)                   Total flow rate of all active pumps
TRPM            .c/min                                     :(RM)    (TELE900)               (6in)                   MWD Turbine Rotation Speed
DHAT            .degC                                      :(RM)    (ARC9)                  (6in)                   Downhole Annulus Temperature
DHAP            .psi                                       :(RM)    (ARC9)                  (6in)                   Downhole Annulus Pressure
ECD             .g/cm3                                     :(RM)    (ARC9)                  (6in)                   Equivalent Circulating Density
COBTM           .                                          :(RT)    (DRILLING_SURFACE)      (6in)                   Composite On Bottom Status
SHKL            .                                          :(RM)    (ARC9)                  (6in)                   Tool Shock Level
SHKRSK          .                                          :(RM)    (TELE900)               (6in)                   Shock Risk
SHKPK           .gn                                        :(RM)    (TELE900)               (6in)                   Shock Peak
SHOCKS_ACC      .                                          :(RM)    (TELE900)               (6in)                   Total Shocks accumulated over tool lifetime
VIB_X           .gn                                        :(RM)    (TELE900)               (6in)                   RMS Vibration, X-Axis
VIB_LAT         .gn                                        :(RM)    (TELE900)               (6in)                   Transverse RMS Vibration
INCL_CONT       .deg                                       :(RT)    (PDXCEED_900)           (6in)                   Continuous Inclination (Hole Deviation)
AZIM_CONT       .deg                                       :(RT)    (PDXCEED_900)           (6in)                   Continuous Hole Azimuth
#-------------------------------------------------------------
#            DEPT          TVD           GR          ROP         ROP5         BLKP         HKLA         SWOB         STOR          RPM         CRPM   STICKNSLIP         SPPA         TFLO         TRPM         DHAT         DHAP          ECD        COBTM         SHKL       SHKRSK        SHKPK   SHOCKS_ACC        VIB_X      VIB_LAT    INCL_CONT    AZIM_CONT 
#                  (DnMWorkfl)       (ARC9)  (DRILLING_)  (DRILLING_)  (DRILLING_)  (DRILLING_)  (DRILLING_)  (DRILLING_)  (DRILLING_)    (TELE900)    (TELE900)  (DRILLING_)  (DRILLING_)    (TELE900)       (ARC9)       (ARC9)       (ARC9)  (DRILLING_)       (ARC9)    (TELE900)    (TELE900)    (TELE900)    (TELE900)    (TELE900)  (PDXCEED_9)  (PDXCEED_9) 
#                         (RT)         (RM)         (RT)         (RT)         (RT)         (RT)         (RT)         (RT)         (RT)         (RM)         (RM)         (RT)         (RT)         (RM)         (RM)         (RM)         (RM)         (RT)         (RM)         (RM)         (RM)         (RM)         (RM)         (RM)         (RT)         (RT) 
#                        (6in)        (6in)        (6in)        (6in)        (6in)        (6in)        (6in)        (6in)        (6in)        (6in)        (6in)        (6in)        (6in)        (6in)        (6in)        (6in)        (6in)        (6in)        (6in)        (6in)        (6in)        (6in)        (6in)        (6in)        (6in)        (6in) 
~ASCII
# ...
       1756.25760   1756.24723     54.82969     15.90253     16.18545     21.65472    183.75999     36.89491     13.03000    148.00000      -999.25     90.00000   3147.45524   1159.88880      -999.25     29.00000   2994.00532      1.20024      0.00000      0.00000      -999.25      -999.25      -999.25      -999.25      -999.25      -999.25      -999.25
       1756.41000   1756.39963     55.70498     20.14076     16.97822     21.63986    184.48000     35.57516     14.73000    148.00000      -999.25      -999.25   3159.98941   1159.88880      -999.25     29.00000   2989.00007      1.19810      0.00000      0.00000      -999.25      -999.25      -999.25      -999.25      -999.25      -999.25      -999.25
       1756.56240   1756.55202     53.91064     29.14866     17.66852     21.30579    188.55000     32.10491     11.86000    148.00000    140.00000      -999.25   3155.88194   1159.88880   3204.00000     29.00000   2990.43304      1.19860      0.00000      0.00000      0.00000      0.00000      0.00000      0.12492      0.00000      -999.25      -999.25
       1756.71480   1756.70442     49.92811     19.05089     18.62768     21.36646    187.83001     35.51491      7.48000    148.00000      -999.25      -999.25   3145.79601   1159.88880      -999.25     29.00000   2992.42151      1.19929      0.00000      0.00000      -999.25      -999.25      -999.25      -999.25      -999.25      -999.25      -999.25
       1756.86720   1756.85682     46.99591     20.35879     19.23164     21.16730    182.01999     37.29739     15.33000    148.00000      -999.25      -999.25   3155.26988   1159.88880      -999.25     29.00000   2993.99952      1.19984      0.00000      0.00000      -999.25      0.00000      -999.25      -999.25      -999.25      -999.25      -999.25
       1757.01960   1757.00922     44.54512     24.09238     19.47576     21.04961    181.36998     38.86490     11.41000    148.00000      -999.25    126.00000   3157.32941   1159.88880      -999.25     29.00000   2993.99952      1.19972      0.00000      0.00000      -999.25      -999.25      -999.25      -999.25      -999.25      -999.25      -999.25
       1757.17200   1757.16162     42.26937     14.61674     17.76118     20.94664    181.79001     36.45526     15.58000    148.00000    143.00000      -999.25   3155.68033   1159.88880   3213.00000     29.00000   2993.99952      1.19961      0.00000      0.00000      0.00000      0.00000      0.00000      -999.25      -999.25      -999.25      -999.25
       1757.32440   1757.31401     41.70043     15.25520     18.78714     20.61806    185.54999     34.40430     14.74000    148.00000      -999.25      -999.25   3168.09702   1159.88880      -999.25     29.00000   2993.99952      1.19955      0.00000      0.00000      -999.25      -999.25      -999.25      -999.25      -999.25      1.99613    105.60240
       1757.47680   1757.46641     44.47947     21.43517     19.12954     20.37164    187.83001     32.82489     11.15000    148.00000      -999.25      -999.25   3154.62301   1159.88880      -999.25     29.00000   2994.44913      1.19959      0.00000      0.00000      -999.25      0.00000      -999.25      -999.25      -999.25      -999.25      -999.25
       1757.62920   1757.61881     49.31540     20.43394     19.36948     20.39519    183.75999     32.34490     15.13000    148.00000      -999.25     72.00000   3159.08292   1159.88880      -999.25     29.00000   2994.76822      1.19961      0.00000      0.00000      -999.25      -999.25      -999.25      -999.25      -999.25      -999.25      -999.25
       1757.78160   1757.77121     49.99376     25.29500     21.00608     20.24352    182.98000     34.14491     14.75000    148.00000    132.00000      -999.25   3155.30904   1159.88880   3210.00000     29.00000   2995.00028      1.19963      0.00000      0.00000      0.00000      0.00000      0.00000      -999.25      -999.25      -999.25      -999.25
       1757.93400   1757.92361     46.38320     36.35571     21.18703     19.97758    182.20000     37.49490     14.41000    148.00000      -999.25      -999.25   3149.04341   1159.88880      -999.25     29.00000   2995.41799      1.19966      0.00000      0.00000      -999.25      -999.25      -999.25      -999.25      -999.25      -999.25      -999.25
       1758.08640   1758.07600     44.94993     19.86946     19.68133     19.85030    185.91001     35.56757     10.70000    148.00000      -999.25      -999.25   3163.71397   1159.88880      -999.25     29.00000   2995.74577      1.19969      0.00000      0.00000      -999.25      0.00000      -999.25      0.00000      0.24983      -999.25      -999.25
       1758.23880   1758.22840     46.40509     16.42067     20.45815     19.70823    186.27000     34.60781     12.06000    148.00000      -999.25      -999.25   3167.25145   1159.88880      -999.25     29.00000   2995.99959      1.19971      0.00000      0.00000      -999.25      -999.25      -999.25      -999.25      -999.25      -999.25      -999.25
       1758.39120   1758.38080     46.70050     19.86817     19.58781     19.54070    186.93000     34.10706     12.12000    148.00000    149.00000     66.00000   3167.51251   1159.88880   3207.00000     30.00000   2997.00035      1.19994      0.00000      0.00000      0.00000      0.00000      0.00000      -999.25      -999.25      -999.25      -999.25
       1758.54360   1758.53320     44.76394     20.19335     19.80859     19.32057    186.81000     35.17709     10.72000    148.00000      -999.25      -999.25   3161.65734   1159.88880      -999.25     30.00000   2997.37890      1.20003      0.00000      0.00000      -999.25      -999.25      -999.25      -999.25      -999.25      -999.25      -999.25
       1758.69600   1758.68560     43.01337     21.11229     21.34819     19.25274    185.61000     35.04490     17.82000    147.00000      -999.25      -999.25   3153.35538   1159.88880      -999.25     30.00000   2997.99966      1.20018      0.00000      0.00000      -999.25      -999.25      -999.25      -999.25      -999.25      -999.25      -999.25
       1758.84840   1758.83799     44.28252     25.45895     22.10988     19.12682    188.72998     31.92490     15.60000    148.00000      -999.25      -999.25   3164.44932   1159.88880      -999.25     30.00000   2995.99959      1.19926      0.00000      0.00000      -999.25      0.00000      -999.25      -999.25      -999.25      -999.25      -999.25
       1759.00080   1758.99039     46.42697     40.92875     23.58577     18.84115    188.49001     34.98489     14.35000    148.00000      -999.25      -999.25   3158.09521   1159.88880      -999.25     30.00000   2997.99966      1.19997      0.00000      0.00000      -999.25      -999.25      -999.25      -999.25      -999.25      -999.25      -999.25
       1759.15320   1759.14279     48.74648     53.82800     25.53852     18.75556    187.58999     36.71490      8.67000    148.00000      -999.25      -999.25   3161.43398   1159.88880      -999.25     30.00000   2997.00035      1.19948      0.00000      0.00000      -999.25      -999.25      -999.25      -999.25      -999.25      -999.25      -999.25
       1759.30560   1759.29519     51.67867     51.36127     26.05135     18.69923    182.62000     35.77920     22.73000    148.00000      -999.25      -999.25   3168.06511   1159.88880      -999.25     30.00000   2998.74515      1.20006      0.00000      0.00000      -999.25      -999.25      -999.25      -999.25      -999.25      -999.25      -999.25
       1759.45800   1759.44759     52.57583     44.24273     26.19456     18.49405    187.11000     33.54490     16.89000    148.00000      -999.25    117.00000   3152.29080   1159.88880      -999.25     30.00000   2999.99973      1.20047      0.00000      0.00000      -999.25      -999.25      -999.25      -999.25      -999.25      0.20789    156.89630
       1759.61040   1759.59999     52.72900     46.70850     30.67305     18.38406    184.66001     31.98491     19.98000    148.00000      -999.25      -999.25   3146.92296   1159.88880      -999.25     30.00000   2996.62905      1.19900      0.00000      0.00000      -999.25      -999.25      -999.25      -999.25      -999.25      -999.25      -999.25
