~VERSION INFORMATION 
VERS  .    2.0                                     :CWLS Log ASCII Standard - VERSION 2.0
WRAP  .    NO                                      :One Line per Depth step
PROD  .    Schlumberger Technology Corp.           :LAS Producer
PROG  .    Horizon LASWriter 8.2.104493.3100       :LAS Program name and version
SOURCE.    Run03-Drilling                          :Run&Pass Information
CREA  .    11/08/2019                              :LAS Creation date {MM/DD/YYYY}
#--------------------------------------------------
~WELL INFORMATION 
#MNEM           .UNIT                      DATA            :DESCRIPTION
#----            ------          --------------            -----------------------------
STRT            .m                   1489.86240            :START DEPTH
STOP            .m                   2794.86360            :STOP DEPTH
STEP            .m                       0.1524            :STEP
NULL            .                       -999.25            :NULL VALUE
COMP            .                      Woodside            :COMPANY
WELL            .                         PLA07            :WELL NAME
FLD             .                 Pluto/WA-34-L            :FIELD NAME
RIGN            .                    Ocean Apex            :Rig Name
RIGTYP          .                Semi-Submersible          :Rig Type
SON             .                     19AWA0002            :Service Order Number
SRVC            .                  Schlumberger            :SERVICE COMPANY
DATE            .                    06/13/2019            :LOG DATE(Composite Date for Composite LAP) (MM/DD/YYYY)
CLAB            .                       County:            :County Label
CNTY            .                                          :COUNTY
SLAB            .                        State:            :State/Province Label
STAT            .                Western Australia         :STATE or PROVINCE
PROV            .                Western Australia         :STATE or PROVINCE
CTRY            .                     Australia            :COUNTRY
CONT_REGION     .                   Australasia            :Continent Region
SECT            .                                          :Section
TOWN            .                                          :Township
RANG            .                                          :Range
API             .                                          :API NUMBER
UWI             .                     19AWA0002            :UNIQUE WELL ID
LUL             .                        Zone 1            :Logging Unit Location
LUN             .                       1010979            :Logging Unit Number
LOC             .                       WA-34-L            :FIELD LOCATION
FL1             .                N 7 797 035.31m           :Field Location Line 1
FL2             .                 E 304 456.39m            :Field Location Line 2
LATI            .deg                 -19.913224            :LATITUDE
LONG            .deg                  115.13193            :LONGITUDE
PDAT            .                         OTHER            :Local Permanent Datum
LMF             .                            DF            :Logging Measured From
APD             .m                        23.85            :Elevation of Depth Reference (LMF) Above Permanent Datum
EPD             .m                        -1.35            :Elevation of Permanent Datum (PDAT) above Mean Sea Level
EKB             .m                      -999.25            :Elevation of Kelly Bushing Above Permanent Datum
EDF             .m                        23.85            :Elevation of Drill Floor Above Permanent Datum
EGL             .m                      -830.05            :Elevation of Ground Level Above Permanent Datum
ECF             .m                      -999.25            :Elevation of Casing Flange above Permanent Datum
#--------------------------------------------------
~CURVE INFORMATION
#MNEM           .UNIT                  API CODE            :DESCRIPTION
#----            ------          --------------            -----------------------------
DEPT            .m                                         :                                                        Depth Index
TVD             .m                                         :(RT)    (DnMWorkflow)           (6in)                   True Vertical Depth
ROP             .m/h                                       :(RT)    (DRILLING_SURFACE)      (6in)                   Rate of Penetration
ROP5            .m/h                                       :(RT)    (DRILLING_SURFACE)      (6in)                   Rate of penetration averaged over the last 5 ft (1.5 m)
GR_ARC          .gAPI                                      :(RM)    (ARC9)                  (6in)                   Gamma Ray
GR_CAL          .gAPI                                      :(RM)    (ARC9)                  (6in)                   Calibrated Gamma Ray
A16H            .ohm.m                                     :(RM)    (ARC9)                  (6in)                   Attenuation Resistivity 16 inch Spacing at 2 MHz, Environmentally Corrected
A16L            .ohm.m                                     :(RM)    (ARC9)                  (6in)                   Attenuation Resistivity 16 inch Spacing at 400 KHz, Environmentally Corrected
A22H            .ohm.m                                     :(RM)    (ARC9)                  (6in)                   Attenuation Resistivity 22 inch Spacing at 2 MHz, Environmentally Corrected
A22L            .ohm.m                                     :(RM)    (ARC9)                  (6in)                   Attenuation Resistivity 22 inch Spacing at 400 KHz, Environmentally Corrected
A28H            .ohm.m                                     :(RM)    (ARC9)                  (6in)                   Attenuation Resistivity 28 inch Spacing at 2 MHz, Environmentally Corrected
A28L            .ohm.m                                     :(RM)    (ARC9)                  (6in)                   Attenuation Resistivity 28 inch Spacing at 400 KHz, Environmentally Corrected
A34H            .ohm.m                                     :(RM)    (ARC9)                  (6in)                   Attenuation Resistivity 34 inch Spacing at 2 MHz, Environmentally Corrected
A34L            .ohm.m                                     :(RM)    (ARC9)                  (6in)                   Attenuation Resistivity 34 inch Spacing at 400 KHz, Environmentally Corrected
A40H            .ohm.m                                     :(RM)    (ARC9)                  (6in)                   Attenuation Resistivity 40 inch Spacing at 2 MHz, Environmentally Corrected.
A40L            .ohm.m                                     :(RM)    (ARC9)                  (6in)                   Attenuation Resistivity 40 inch Spacing at 400 KHz, Environmentally Corrected
P16H            .ohm.m                                     :(RM)    (ARC9)                  (6in)                   Phase Shift Resistivity 16 inch Spacing at 2 MHz, Environmentally Corrected.
P16L            .ohm.m                                     :(RM)    (ARC9)                  (6in)                   Phase Shift Resistivity 16 inch Spacing at 400 KHz, Environmentally Corrected.
P22H            .ohm.m                                     :(RM)    (ARC9)                  (6in)                   Phase Shift Resistivity 22 inch Spacing at 2 MHz, Environmentally Corrected.
P22L            .ohm.m                                     :(RM)    (ARC9)                  (6in)                   Phase Shift Resistivity 22 inch Spacing at 400 KHz, Environmentally Corrected.
P28H            .ohm.m                                     :(RM)    (ARC9)                  (6in)                   Phase Shift Resistivity 28 inch Spacing at 2 MHz, Environmentally Corrected.
P28L            .ohm.m                                     :(RM)    (ARC9)                  (6in)                   Phase Shift Resistivity 28 inch Spacing at 400 KHz, Environmentally Corrected.
P34H            .ohm.m                                     :(RM)    (ARC9)                  (6in)                   Phase Shift Resistivity 34 inch Spacing at 2 MHz, Environmentally Corrected.
P34L            .ohm.m                                     :(RM)    (ARC9)                  (6in)                   Phase Shift Resistivity 34 inch Spacing at 400 KHz, Environmentally Corrected.
P40H            .ohm.m                                     :(RM)    (ARC9)                  (6in)                   Phase Shift Resistivity 40 inch Spacing at 2 MHz, Environmentally Corrected.
P40L            .ohm.m                                     :(RM)    (ARC9)                  (6in)                   Phase Shift Resistivity 40 inch Spacing at 400 KHz, Environmentally Corrected.
TAB_RES         .h                                         :        (ARC9)                  (6in)                   Resistivity Time After Bit
DHAT            .degC                                      :(RM)    (ARC9)                  (6in)                   Downhole Annulus Temperature
DHAP            .psi                                       :(RM)    (ARC9)                  (6in)                   Downhole Annulus Pressure
ECD             .g/cm3                                     :(RM)    (ARC9)                  (6in)                   Equivalent Circulating Density
TICKS_GR        .                                          :(RM)    (ARC9)                  (1.2in)                 Gamma Ray Tick Marks
TICKS_RES       .                                          :(RM)    (ARC9)                  (1.2in)                 Resistivity Tick Marks
#-------------------------------------------------------------
#            DEPT          TVD          ROP         ROP5       GR_ARC       GR_CAL         A16H         A16L         A22H         A22L         A28H         A28L         A34H         A34L         A40H         A40L         P16H         P16L         P22H         P22L         P28H         P28L         P34H         P34L         P40H         P40L      TAB_RES         DHAT         DHAP          ECD     TICKS_GR    TICKS_RES 
#                  (DnMWorkfl)  (DRILLING_)  (DRILLING_)       (ARC9)       (ARC9)       (ARC9)       (ARC9)       (ARC9)       (ARC9)       (ARC9)       (ARC9)       (ARC9)       (ARC9)       (ARC9)       (ARC9)       (ARC9)       (ARC9)       (ARC9)       (ARC9)       (ARC9)       (ARC9)       (ARC9)       (ARC9)       (ARC9)       (ARC9)       (ARC9)       (ARC9)       (ARC9)       (ARC9)       (ARC9)       (ARC9) 
#                         (RT)         (RT)         (RT)         (RM)         (RM)         (RM)         (RM)         (RM)         (RM)         (RM)         (RM)         (RM)         (RM)         (RM)         (RM)         (RM)         (RM)         (RM)         (RM)         (RM)         (RM)         (RM)         (RM)         (RM)         (RM)                      (RM)         (RM)         (RM)         (RM)         (RM) 
#                        (6in)        (6in)        (6in)        (6in)        (6in)        (6in)        (6in)        (6in)        (6in)        (6in)        (6in)        (6in)        (6in)        (6in)        (6in)        (6in)        (6in)        (6in)        (6in)        (6in)        (6in)        (6in)        (6in)        (6in)        (6in)        (6in)        (6in)        (6in)        (6in)      (1.2in)      (1.2in) 
~ASCII
# ...
       2520.08640   2426.76840      2.50305      5.59332     38.43791     91.23915      0.84474      0.97877      0.97662      1.06374      1.08033      1.13050      1.11715      1.16973      1.12251      1.19171      1.23806      1.04597      1.21274      1.09529      1.17374      1.13349      1.14445      1.14596      1.13825      1.14213      2.10456     36.00000   4237.99980      1.22902      1.00000      1.00000
       2520.23880   2426.86438      2.70562      4.75800     39.84364     92.09267      0.85865      0.99636      0.99384      1.08307      1.10305      1.14929      1.14123      1.19103      1.14798      1.21477      1.27690      1.07556      1.24566      1.12284      1.20603      1.16202      1.17738      1.17536      1.16818      1.16928      2.10720     36.00000   4237.99980      1.22897      1.00000      1.00000
       2520.39120   2426.96036      3.04357      4.21402     38.88681     91.51171      0.88418      1.01548      1.02017      1.10782      1.12967      1.17453      1.17074      1.21461      1.18114      1.23747      1.29981      1.09799      1.26610      1.14580      1.22275      1.18623      1.19186      1.20277      1.18307      1.20095      2.13733     36.00000   4237.00049      1.22864      1.00000      1.00000
       2520.54360   2427.05634      5.86370      4.20460     35.90580     89.70171      0.90204      1.04208      1.05495      1.13948      1.17010      1.20944      1.21114      1.25003      1.22345      1.27187      1.34307      1.12833      1.30783      1.18062      1.26003      1.22347      1.22556      1.24060      1.21667      1.23971      2.22220     36.00000   4239.00056      1.22917      1.00000      1.00000
       2520.69600   2427.15231      9.48192      3.96843     31.59112     87.08193      0.90354      1.05090      1.07456      1.15301      1.19817      1.22311      1.23834      1.26013      1.25058      1.27863      1.38576      1.15266      1.34297      1.20646      1.29065      1.24992      1.25350      1.26660      1.24099      1.26516      2.54511     35.00000   4239.00056      1.22912      -999.25      -999.25
       2520.84840   2427.24829      6.23999      3.84465     30.82600     86.61737      0.89649      1.02255      1.03003      1.11538      1.13643      1.18200      1.17425      1.22504      1.17934      1.25381      1.31718      1.11567      1.27593      1.15921      1.22801      1.19797      1.19517      1.21797      1.18440      1.22205      2.52440     35.00000   4241.99994      1.22994      -999.25      -999.25
       2521.00080   2427.34426      6.58880      4.00866     33.91046     88.49018      0.90607      1.02382      1.03726      1.11638      1.13967      1.18286      1.17526      1.22581      1.17907      1.25441      1.32507      1.12224      1.27807      1.16272      1.22710      1.19929      1.19401      1.21826      1.18341      1.22160      2.50066     35.00000   4241.00063      1.22960      -999.25      -999.25
       2521.15320   2427.44024      5.79646      3.98244     37.62402     90.74497      0.92888      1.06590      1.09826      1.16401      1.21653      1.23315      1.25309      1.27253      1.26056      1.29401      1.42987      1.17229      1.37176      1.22693      1.31736      1.27095      1.28560      1.28719      1.27414      1.28464      2.47498     35.00000   4244.99932      1.23071      1.00000      1.00000
       2521.30560   2427.53621      5.19856      4.24567     37.94031     90.93702      0.92444      1.06765      1.10457      1.17145      1.22665      1.24197      1.26351      1.27929      1.27612      1.29878      1.45522      1.18384      1.39079      1.23542      1.32761      1.27672      1.29016      1.29144      1.27854      1.28822      2.44789     35.00000   4243.00070      1.23009      1.00000      -999.25
       2521.45800   2427.63218      5.61666      4.75756     34.50360     88.85033      0.92691      1.08009      1.11731      1.18162      1.24471      1.25201      1.28069      1.29014      1.29127      1.30965      1.50674      1.19768      1.42253      1.25451      1.35075      1.29889      1.31344      1.31297      1.30139      1.30773      2.46289     35.00000   4244.86298      1.23060      1.00000      1.00000
       2521.61040   2427.72814      6.94620      5.42227     29.46489     85.79093      0.96154      1.10287      1.14681      1.19987      1.26566      1.26739      1.30075      1.30318      1.31234      1.31999      1.51583      1.23705      1.45187      1.28954      1.38948      1.33071      1.35461      1.34551      1.34702      1.34366      2.48330     36.00000   4248.01755      1.23146      1.00000      1.00000
       2521.76280   2427.82411      5.90189      5.87685     28.29093     85.07813      0.98663      1.12066      1.17169      1.21699      1.28536      1.28193      1.31423      1.31336      1.31730      1.32615      1.52703      1.25991      1.46042      1.31195      1.39680      1.35316      1.36399      1.36683      1.36070      1.36228      2.46982     36.00000   4252.00029      1.23256      1.00000      1.00000
       2521.91520   2427.92007      6.18798      6.62107     29.92782     86.07201      1.01673      1.14348      1.19373      1.23432      1.30099      1.29565      1.33118      1.32703      1.33779      1.34187      1.52237      1.27397      1.45597      1.32596      1.39539      1.36564      1.36618      1.37647      1.36445      1.36936      2.46039     36.00000   4252.00029      1.23252      1.00000      1.00000
       2522.06760   2428.01604      7.23572      6.10905     23.10233     82.31044      1.07087      1.17349      1.23483      1.25900      1.33085      1.31835      1.35621      1.34868      1.36199      1.36121      1.52850      1.30899      1.46018      1.35438      1.40243      1.38830      1.37872      1.39874      1.38099      1.39570      2.45872     36.00000   4248.99946      1.23158      1.00000      1.00000
       2522.22000   2428.11200      6.37168      6.19851     23.19470     82.36619      1.10424      1.19819      1.26656      1.28262      1.36130      1.33951      1.38736      1.36675      1.39521      1.37706      1.53185      1.33398      1.47681      1.38185      1.42403      1.41685      1.40132      1.42775      1.40803      1.42596      2.45581     36.00000   4250.00022      1.23182      1.00000      1.00000
       2522.37240   2428.20796      5.89608      6.04006     32.15467     87.77412      1.14758      1.21755      1.29542      1.30157      1.38270      1.35871      1.40721      1.38621      1.41269      1.39627      1.54446      1.36781      1.50071      1.41246      1.45000      1.44284      1.42589      1.45102      1.43636      1.44980      2.44108     36.00000   4252.00029      1.23237      1.00000      1.00000
       2522.52480   2428.30391      5.09896      5.87550     31.92081     87.63297      1.18007      1.23063      1.32634      1.31256      1.40812      1.36662      1.42647      1.39124      1.42888      1.39981      1.61664      1.40463      1.55083      1.44297      1.49185      1.47431      1.46939      1.48377      1.48218      1.47718      2.42122     36.00000   4250.00022      1.23172      1.00000      1.00000
       2522.67720   2428.39987      5.31014      5.92694     29.16013     85.96671      1.19775      1.23713      1.33782      1.32223      1.41806      1.37930      1.43762      1.40592      1.43966      1.41525      1.64378      1.42027      1.57073      1.45910      1.50583      1.48884      1.47726      1.49840      1.48290      1.49554      2.40386     36.00000   4252.99960      1.23255      1.00000      1.00000
       2522.82960   2428.49582      5.62897      5.97884     28.53842     85.59147      1.19241      1.25783      1.33334      1.33779      1.41829      1.39446      1.44030      1.41952      1.43905      1.42325      1.65579      1.43536      1.57562      1.47012      1.51091      1.49824      1.48697      1.50609      1.49491      1.49997      2.38636     36.00000   4256.00043      1.23337      1.00000      1.00000
       2522.98200   2428.59178      5.95299      5.99847     26.12568     84.13522      1.18424      1.26140      1.32565      1.34425      1.41161      1.39935      1.43249      1.42367      1.42761      1.43061      1.63095      1.43041      1.57178      1.46989      1.51786      1.50540      1.49435      1.51671      1.49980      1.50769      2.37622     37.00000   4250.99953      1.23187      1.00000      1.00000
