~VERSION INFORMATION 
VERS  .    2.0                                     :CWLS Log ASCII Standard - VERSION 2.0
WRAP  .    NO                                      :One Line per Depth step
PROD  .    Schlumberger Technology Corp.           :LAS Producer
PROG  .    Horizon LASWriter 8.2.104493.3100       :LAS Program name and version
SOURCE.    Run03-Drilling                          :Run&Pass Information
CREA  .    11/08/2019                              :LAS Creation date {MM/DD/YYYY}
#--------------------------------------------------
~WELL INFORMATION 
#MNEM           .UNIT                      DATA            :DESCRIPTION
#----            ------          --------------            -----------------------------
STRT            .m                   1489.86240            :START DEPTH
STOP            .m                   2794.86360            :STOP DEPTH
STEP            .m                       0.1524            :STEP
NULL            .                       -999.25            :NULL VALUE
COMP            .                      Woodside            :COMPANY
WELL            .                         PLA07            :WELL NAME
FLD             .                 Pluto/WA-34-L            :FIELD NAME
RIGN            .                    Ocean Apex            :Rig Name
RIGTYP          .                Semi-Submersible          :Rig Type
SON             .                     19AWA0002            :Service Order Number
SRVC            .                  Schlumberger            :SERVICE COMPANY
DATE            .                    06/13/2019            :LOG DATE(Composite Date for Composite LAP) (MM/DD/YYYY)
CLAB            .                       County:            :County Label
CNTY            .                                          :COUNTY
SLAB            .                        State:            :State/Province Label
STAT            .                Western Australia         :STATE or PROVINCE
PROV            .                Western Australia         :STATE or PROVINCE
CTRY            .                     Australia            :COUNTRY
CONT_REGION     .                   Australasia            :Continent Region
SECT            .                                          :Section
TOWN            .                                          :Township
RANG            .                                          :Range
API             .                                          :API NUMBER
UWI             .                     19AWA0002            :UNIQUE WELL ID
LUL             .                        Zone 1            :Logging Unit Location
LUN             .                       1010979            :Logging Unit Number
LOC             .                       WA-34-L            :FIELD LOCATION
FL1             .                N 7 797 035.31m           :Field Location Line 1
FL2             .                 E 304 456.39m            :Field Location Line 2
LATI            .deg                 -19.913224            :LATITUDE
LONG            .deg                  115.13193            :LONGITUDE
PDAT            .                         OTHER            :Local Permanent Datum
LMF             .                            DF            :Logging Measured From
APD             .m                        23.85            :Elevation of Depth Reference (LMF) Above Permanent Datum
EPD             .m                        -1.35            :Elevation of Permanent Datum (PDAT) above Mean Sea Level
EKB             .m                      -999.25            :Elevation of Kelly Bushing Above Permanent Datum
EDF             .m                        23.85            :Elevation of Drill Floor Above Permanent Datum
EGL             .m                      -830.05            :Elevation of Ground Level Above Permanent Datum
ECF             .m                      -999.25            :Elevation of Casing Flange above Permanent Datum
#--------------------------------------------------
~CURVE INFORMATION
#MNEM           .UNIT                  API CODE            :DESCRIPTION
#----            ------          --------------            -----------------------------
DEPT            .m                                         :                                                        Depth Index
TVD             .m                                         :(RT)    (DnMWorkflow)           (6in)                   True Vertical Depth
ROP             .m/h                                       :(RT)    (DRILLING_SURFACE)      (6in)                   Rate of Penetration
ROP5            .m/h                                       :(RT)    (DRILLING_SURFACE)      (6in)                   Rate of penetration averaged over the last 5 ft (1.5 m)
GR_ARC          .gAPI                                      :(RM)    (ARC9)                  (6in)                   Gamma Ray
GR_CAL          .gAPI                                      :(RM)    (ARC9)                  (6in)                   Calibrated Gamma Ray
A16H            .ohm.m                                     :(RM)    (ARC9)                  (6in)                   Attenuation Resistivity 16 inch Spacing at 2 MHz, Environmentally Corrected
A16L            .ohm.m                                     :(RM)    (ARC9)                  (6in)                   Attenuation Resistivity 16 inch Spacing at 400 KHz, Environmentally Corrected
A22H            .ohm.m                                     :(RM)    (ARC9)                  (6in)                   Attenuation Resistivity 22 inch Spacing at 2 MHz, Environmentally Corrected
A22L            .ohm.m                                     :(RM)    (ARC9)                  (6in)                   Attenuation Resistivity 22 inch Spacing at 400 KHz, Environmentally Corrected
A28H            .ohm.m                                     :(RM)    (ARC9)                  (6in)                   Attenuation Resistivity 28 inch Spacing at 2 MHz, Environmentally Corrected
A28L            .ohm.m                                     :(RM)    (ARC9)                  (6in)                   Attenuation Resistivity 28 inch Spacing at 400 KHz, Environmentally Corrected
A34H            .ohm.m                                     :(RM)    (ARC9)                  (6in)                   Attenuation Resistivity 34 inch Spacing at 2 MHz, Environmentally Corrected
A34L            .ohm.m                                     :(RM)    (ARC9)                  (6in)                   Attenuation Resistivity 34 inch Spacing at 400 KHz, Environmentally Corrected
A40H            .ohm.m                                     :(RM)    (ARC9)                  (6in)                   Attenuation Resistivity 40 inch Spacing at 2 MHz, Environmentally Corrected.
A40L            .ohm.m                                     :(RM)    (ARC9)                  (6in)                   Attenuation Resistivity 40 inch Spacing at 400 KHz, Environmentally Corrected
P16H            .ohm.m                                     :(RM)    (ARC9)                  (6in)                   Phase Shift Resistivity 16 inch Spacing at 2 MHz, Environmentally Corrected.
P16L            .ohm.m                                     :(RM)    (ARC9)                  (6in)                   Phase Shift Resistivity 16 inch Spacing at 400 KHz, Environmentally Corrected.
P22H            .ohm.m                                     :(RM)    (ARC9)                  (6in)                   Phase Shift Resistivity 22 inch Spacing at 2 MHz, Environmentally Corrected.
P22L            .ohm.m                                     :(RM)    (ARC9)                  (6in)                   Phase Shift Resistivity 22 inch Spacing at 400 KHz, Environmentally Corrected.
P28H            .ohm.m                                     :(RM)    (ARC9)                  (6in)                   Phase Shift Resistivity 28 inch Spacing at 2 MHz, Environmentally Corrected.
P28L            .ohm.m                                     :(RM)    (ARC9)                  (6in)                   Phase Shift Resistivity 28 inch Spacing at 400 KHz, Environmentally Corrected.
P34H            .ohm.m                                     :(RM)    (ARC9)                  (6in)                   Phase Shift Resistivity 34 inch Spacing at 2 MHz, Environmentally Corrected.
P34L            .ohm.m                                     :(RM)    (ARC9)                  (6in)                   Phase Shift Resistivity 34 inch Spacing at 400 KHz, Environmentally Corrected.
P40H            .ohm.m                                     :(RM)    (ARC9)                  (6in)                   Phase Shift Resistivity 40 inch Spacing at 2 MHz, Environmentally Corrected.
P40L            .ohm.m                                     :(RM)    (ARC9)                  (6in)                   Phase Shift Resistivity 40 inch Spacing at 400 KHz, Environmentally Corrected.
TAB_RES         .h                                         :        (ARC9)                  (6in)                   Resistivity Time After Bit
DHAT            .degC                                      :(RM)    (ARC9)                  (6in)                   Downhole Annulus Temperature
DHAP            .psi                                       :(RM)    (ARC9)                  (6in)                   Downhole Annulus Pressure
ECD             .g/cm3                                     :(RM)    (ARC9)                  (6in)                   Equivalent Circulating Density
TICKS_GR        .                                          :(RM)    (ARC9)                  (1.2in)                 Gamma Ray Tick Marks
TICKS_RES       .                                          :(RM)    (ARC9)                  (1.2in)                 Resistivity Tick Marks
#-------------------------------------------------------------
#            DEPT          TVD          ROP         ROP5       GR_ARC       GR_CAL         A16H         A16L         A22H         A22L         A28H         A28L         A34H         A34L         A40H         A40L         P16H         P16L         P22H         P22L         P28H         P28L         P34H         P34L         P40H         P40L      TAB_RES         DHAT         DHAP          ECD     TICKS_GR    TICKS_RES 
#                  (DnMWorkfl)  (DRILLING_)  (DRILLING_)       (ARC9)       (ARC9)       (ARC9)       (ARC9)       (ARC9)       (ARC9)       (ARC9)       (ARC9)       (ARC9)       (ARC9)       (ARC9)       (ARC9)       (ARC9)       (ARC9)       (ARC9)       (ARC9)       (ARC9)       (ARC9)       (ARC9)       (ARC9)       (ARC9)       (ARC9)       (ARC9)       (ARC9)       (ARC9)       (ARC9)       (ARC9)       (ARC9) 
#                         (RT)         (RT)         (RT)         (RM)         (RM)         (RM)         (RM)         (RM)         (RM)         (RM)         (RM)         (RM)         (RM)         (RM)         (RM)         (RM)         (RM)         (RM)         (RM)         (RM)         (RM)         (RM)         (RM)         (RM)         (RM)                      (RM)         (RM)         (RM)         (RM)         (RM) 
#                        (6in)        (6in)        (6in)        (6in)        (6in)        (6in)        (6in)        (6in)        (6in)        (6in)        (6in)        (6in)        (6in)        (6in)        (6in)        (6in)        (6in)        (6in)        (6in)        (6in)        (6in)        (6in)        (6in)        (6in)        (6in)        (6in)        (6in)        (6in)        (6in)      (1.2in)      (1.2in) 
~ASCII
# ...
       1919.63040   1919.26229     60.01847     44.50287     29.55551     80.91403      0.64275      0.65408      0.66076      0.68341      0.67498      0.70692      0.68394      0.71967      0.68926      0.72280      0.69257      0.67108      0.71236      0.70305      0.72192      0.72320      0.72833      0.72872      0.74324      0.73085      0.43235     32.00000   3277.99936      1.20233      -999.25      1.00000
       1919.78280   1919.41357     28.81579     39.37995     29.64725     80.97142      0.65029      0.65100      0.68371      0.67937      0.70392      0.70219      0.71304      0.71597      0.72024      0.71955      0.65719      0.65330      0.65581      0.67974      0.65549      0.69853      0.66632      0.70882      0.68868      0.71864      0.42721     32.00000   3281.00019      1.20334      1.00000      -999.25
       1919.93520   1919.56484     26.66153     41.95303     29.73528     81.02649      0.67649      0.64466      0.68310      0.66876      0.69144      0.68674      0.69843      0.69719      0.70181      0.70355      0.73060      0.69462      0.71430      0.70044      0.70334      0.70710      0.71687      0.71536      0.75351      0.72416      0.42554     32.00000   3281.00019      1.20326      1.00000      1.00000
       1920.08760   1919.71611     39.05030     40.28468     31.54035     82.15569      0.70786      0.64575      0.68666      0.66548      0.68436      0.68183      0.69199      0.69281      0.69573      0.69921      0.75039      0.70690      0.71933      0.70096      0.70751      0.70277      0.72514      0.71100      0.75694      0.71851      0.42540     32.00000   3281.99950      1.20350      -999.25      1.00000
       1920.24000   1919.86738     35.25275     38.99180     30.96802     81.79765      0.61917      0.63728      0.63657      0.66390      0.65311      0.67842      0.66231      0.68637      0.66311      0.69564      0.57035      0.60336      0.55673      0.61172      0.54637      0.61902      0.54139      0.62340      0.53897      0.62567      0.42304     32.00000   3281.00019      1.20304      1.00000      -999.25
       1920.39240   1920.01864     46.51684     39.81687     28.37049     80.17272      0.62403      0.62777      0.64120      0.66074      0.65227      0.67411      0.65675      0.67873      0.65855      0.68866      0.57096      0.61214      0.56298      0.62835      0.55284      0.63562      0.54985      0.63920      0.55671      0.64783      0.42333     32.00000   3281.00019      1.20295      -999.25      -999.25
       1920.54480   1920.16990     60.43252     40.66506     24.95112     78.03368      0.69390      0.63115      0.68827      0.65723      0.67994      0.66429      0.67297      0.66828      0.67029      0.68273      0.71712      0.69297      0.70763      0.69936      0.69728      0.69899      0.69097      0.69709      0.69003      0.70007      0.42180     32.00000   3281.58614      1.20308      -999.25      -999.25
       1920.69720   1920.32116     44.85966     39.85132     21.11352     75.63300      0.67373      0.63000      0.68904      0.65767      0.69369      0.66483      0.69061      0.66432      0.68819      0.67122      0.68397      0.67682      0.67392      0.69068      0.66165      0.69332      0.65444      0.68866      0.65472      0.68746      0.42054     32.00000   3281.99950      1.20311      -999.25      1.00000
       1920.84960   1920.47242     37.98550     39.86969     21.86929     76.10578      0.69208      0.62320      0.69666      0.64326      0.69473      0.64817      0.69274      0.64841      0.69601      0.65486      0.73067      0.70786      0.71202      0.71308      0.69471      0.71066      0.69146      0.70879      0.70235      0.71453      0.42069     32.00000   3285.00033      1.20411      1.00000      1.00000
       1921.00200   1920.62368     37.64090     38.26510     26.93962     79.27762      0.67040      0.60406      0.67292      0.61583      0.67550      0.62223      0.67622      0.62510      0.67477      0.62774      0.73949      0.69757      0.72459      0.69708      0.71506      0.69980      0.71520      0.70009      0.72036      0.69493      0.42152     32.00000   3284.46224      1.20385      1.00000      -999.25
       1921.15440   1920.77493     29.12127     34.94397     30.74788     81.65994      0.57937      0.55216      0.58742      0.55628      0.59767      0.56453      0.59501      0.56991      0.57757      0.56845      0.61362      0.59792      0.59159      0.59071      0.58278      0.59326      0.58109      0.59377      0.57395      0.58315      0.41665     32.00000   3283.99957      1.20363      -999.25      1.00000
       1921.30680   1920.92619     26.22202     37.28559     32.03198     82.46323      0.56539      0.53991      0.57004      0.54750      0.58130      0.55697      0.58318      0.56035      0.56968      0.55563      0.58847      0.57940      0.56601      0.57253      0.55845      0.57515      0.56047      0.57480      0.55789      0.56271      0.42375     32.00000   3283.00026      1.20310      1.00000      1.00000
       1921.45920   1921.07744     36.66482     37.63557     32.67037     82.86259      0.49545      0.49346      0.50436      0.50452      0.51620      0.51728      0.51956      0.52286      0.51196      0.52075      0.51454      0.50845      0.50091      0.50752      0.49433      0.50910      0.49117      0.50623      0.48451      0.49654      0.42929     32.00000   3285.00033      1.20375      1.00000      1.00000
       1921.61160   1921.22869     50.66083     38.99208     33.02992     83.08751      0.46030      0.46788      0.46941      0.48186      0.47877      0.49376      0.48004      0.50008      0.47261      0.50191      0.46849      0.46415      0.45982      0.46710      0.45302      0.47012      0.44806      0.46860      0.44326      0.46250      0.43624     32.00000   3287.00040      1.20440      1.00000      1.00000
       1921.76400   1921.37993     64.30694     41.65386     31.70179     82.25668      0.43178      0.43829      0.45271      0.45909      0.46568      0.47222      0.47027      0.47965      0.47277      0.48694      0.43127      0.43035      0.43039      0.44306      0.42755      0.45019      0.42630      0.45192      0.42865      0.45384      0.43709     32.00000   3287.00040      1.20430      -999.25      1.00000
       1921.91640   1921.53118     82.71932     42.07951     28.26775     80.10845      0.43892      0.43841      0.45901      0.45725      0.47225      0.46924      0.47780      0.47608      0.48095      0.48260      0.44380      0.43730      0.44262      0.44971      0.43743      0.45555      0.43351      0.45622      0.43483      0.45828      0.43916     32.00000   3285.99964      1.20381      -999.25      -999.25
       1922.06880   1921.68242     54.65678     41.05579     24.15865     77.53793      0.44195      0.43314      0.45606      0.44899      0.46618      0.46069      0.47088      0.46895      0.47290      0.47618      0.47891      0.45159      0.47927      0.45770      0.47516      0.46161      0.47276      0.46271      0.47667      0.46311      0.43777     32.00000   3285.00033      1.20338      -999.25      -999.25
       1922.22120   1921.83366     39.88308     41.11700     22.25085     76.34447      0.42921      0.42978      0.43286      0.44367      0.43882      0.45314      0.44483      0.46209      0.44821      0.47323      0.45077      0.43118      0.43330      0.42912      0.41743      0.42631      0.40806      0.42407      0.40427      0.42321      0.43556     32.00000   3287.00040      1.20398      -999.25      -999.25
       1922.37360   1921.98490     59.25121     44.50895     23.13137     76.89530      0.42921      0.42978      0.43286      0.44367      0.43882      0.45314      0.44483      0.46209      0.44821      0.47323      0.45077      0.43118      0.43330      0.42912      0.41743      0.42631      0.40806      0.42407      0.40427      0.42321      0.43528     32.00000   3287.00040      1.20392      -999.25      -999.25
       1922.52600   1922.13613     50.57268     43.54988     22.99930     76.81268      0.43501      0.43117      0.43627      0.44340      0.44167      0.45114      0.43938      0.45796      0.42612      0.46669      0.48019      0.48768      0.49418      0.48741      0.50870      0.48907      0.52166      0.48750      0.53272      0.48093      0.43181     32.00000   3287.00040      1.20381      -999.25      -999.25
