~VERSION INFORMATION 
VERS  .    2.0                                     :CWLS Log ASCII Standard - VERSION 2.0
WRAP  .    NO                                      :One Line per Depth step
PROD  .    Schlumberger Technology Corp.           :LAS Producer
PROG  .    Horizon LASWriter 8.2.104493.3100       :LAS Program name and version
SOURCE.    Run03-Drilling                          :Run&Pass Information
CREA  .    11/08/2019                              :LAS Creation date {MM/DD/YYYY}
#--------------------------------------------------
~WELL INFORMATION 
#MNEM           .UNIT                      DATA            :DESCRIPTION
#----            ------          --------------            -----------------------------
STRT            .m                   1489.86240            :START DEPTH
STOP            .m                   2794.86360            :STOP DEPTH
STEP            .m                       0.1524            :STEP
NULL            .                       -999.25            :NULL VALUE
COMP            .                      Woodside            :COMPANY
WELL            .                         PLA07            :WELL NAME
FLD             .                 Pluto/WA-34-L            :FIELD NAME
RIGN            .                    Ocean Apex            :Rig Name
RIGTYP          .                Semi-Submersible          :Rig Type
SON             .                     19AWA0002            :Service Order Number
SRVC            .                  Schlumberger            :SERVICE COMPANY
DATE            .                    06/13/2019            :LOG DATE(Composite Date for Composite LAP) (MM/DD/YYYY)
CLAB            .                       County:            :County Label
CNTY            .                                          :COUNTY
SLAB            .                        State:            :State/Province Label
STAT            .                Western Australia         :STATE or PROVINCE
PROV            .                Western Australia         :STATE or PROVINCE
CTRY            .                     Australia            :COUNTRY
CONT_REGION     .                   Australasia            :Continent Region
SECT            .                                          :Section
TOWN            .                                          :Township
RANG            .                                          :Range
API             .                                          :API NUMBER
UWI             .                     19AWA0002            :UNIQUE WELL ID
LUL             .                        Zone 1            :Logging Unit Location
LUN             .                       1010979            :Logging Unit Number
LOC             .                       WA-34-L            :FIELD LOCATION
FL1             .                N 7 797 035.31m           :Field Location Line 1
FL2             .                 E 304 456.39m            :Field Location Line 2
LATI            .deg                 -19.913224            :LATITUDE
LONG            .deg                  115.13193            :LONGITUDE
PDAT            .                         OTHER            :Local Permanent Datum
LMF             .                            DF            :Logging Measured From
APD             .m                        23.85            :Elevation of Depth Reference (LMF) Above Permanent Datum
EPD             .m                        -1.35            :Elevation of Permanent Datum (PDAT) above Mean Sea Level
EKB             .m                      -999.25            :Elevation of Kelly Bushing Above Permanent Datum
EDF             .m                        23.85            :Elevation of Drill Floor Above Permanent Datum
EGL             .m                      -830.05            :Elevation of Ground Level Above Permanent Datum
ECF             .m                      -999.25            :Elevation of Casing Flange above Permanent Datum
#--------------------------------------------------
~CURVE INFORMATION
#MNEM           .UNIT                  API CODE            :DESCRIPTION
#----            ------          --------------            -----------------------------
DEPT            .m                                         :                                                        Depth Index
TVD             .m                                         :(RT)    (DnMWorkflow)           (6in)                   True Vertical Depth
ROP             .m/h                                       :(RT)    (DRILLING_SURFACE)      (6in)                   Rate of Penetration
ROP5            .m/h                                       :(RT)    (DRILLING_SURFACE)      (6in)                   Rate of penetration averaged over the last 5 ft (1.5 m)
GR_ARC          .gAPI                                      :(RM)    (ARC9)                  (6in)                   Gamma Ray
GR_CAL          .gAPI                                      :(RM)    (ARC9)                  (6in)                   Calibrated Gamma Ray
A16H            .ohm.m                                     :(RM)    (ARC9)                  (6in)                   Attenuation Resistivity 16 inch Spacing at 2 MHz, Environmentally Corrected
A16L            .ohm.m                                     :(RM)    (ARC9)                  (6in)                   Attenuation Resistivity 16 inch Spacing at 400 KHz, Environmentally Corrected
A22H            .ohm.m                                     :(RM)    (ARC9)                  (6in)                   Attenuation Resistivity 22 inch Spacing at 2 MHz, Environmentally Corrected
A22L            .ohm.m                                     :(RM)    (ARC9)                  (6in)                   Attenuation Resistivity 22 inch Spacing at 400 KHz, Environmentally Corrected
A28H            .ohm.m                                     :(RM)    (ARC9)                  (6in)                   Attenuation Resistivity 28 inch Spacing at 2 MHz, Environmentally Corrected
A28L            .ohm.m                                     :(RM)    (ARC9)                  (6in)                   Attenuation Resistivity 28 inch Spacing at 400 KHz, Environmentally Corrected
A34H            .ohm.m                                     :(RM)    (ARC9)                  (6in)                   Attenuation Resistivity 34 inch Spacing at 2 MHz, Environmentally Corrected
A34L            .ohm.m                                     :(RM)    (ARC9)                  (6in)                   Attenuation Resistivity 34 inch Spacing at 400 KHz, Environmentally Corrected
A40H            .ohm.m                                     :(RM)    (ARC9)                  (6in)                   Attenuation Resistivity 40 inch Spacing at 2 MHz, Environmentally Corrected.
A40L            .ohm.m                                     :(RM)    (ARC9)                  (6in)                   Attenuation Resistivity 40 inch Spacing at 400 KHz, Environmentally Corrected
P16H            .ohm.m                                     :(RM)    (ARC9)                  (6in)                   Phase Shift Resistivity 16 inch Spacing at 2 MHz, Environmentally Corrected.
P16L            .ohm.m                                     :(RM)    (ARC9)                  (6in)                   Phase Shift Resistivity 16 inch Spacing at 400 KHz, Environmentally Corrected.
P22H            .ohm.m                                     :(RM)    (ARC9)                  (6in)                   Phase Shift Resistivity 22 inch Spacing at 2 MHz, Environmentally Corrected.
P22L            .ohm.m                                     :(RM)    (ARC9)                  (6in)                   Phase Shift Resistivity 22 inch Spacing at 400 KHz, Environmentally Corrected.
P28H            .ohm.m                                     :(RM)    (ARC9)                  (6in)                   Phase Shift Resistivity 28 inch Spacing at 2 MHz, Environmentally Corrected.
P28L            .ohm.m                                     :(RM)    (ARC9)                  (6in)                   Phase Shift Resistivity 28 inch Spacing at 400 KHz, Environmentally Corrected.
P34H            .ohm.m                                     :(RM)    (ARC9)                  (6in)                   Phase Shift Resistivity 34 inch Spacing at 2 MHz, Environmentally Corrected.
P34L            .ohm.m                                     :(RM)    (ARC9)                  (6in)                   Phase Shift Resistivity 34 inch Spacing at 400 KHz, Environmentally Corrected.
P40H            .ohm.m                                     :(RM)    (ARC9)                  (6in)                   Phase Shift Resistivity 40 inch Spacing at 2 MHz, Environmentally Corrected.
P40L            .ohm.m                                     :(RM)    (ARC9)                  (6in)                   Phase Shift Resistivity 40 inch Spacing at 400 KHz, Environmentally Corrected.
TAB_RES         .h                                         :        (ARC9)                  (6in)                   Resistivity Time After Bit
DHAT            .degC                                      :(RM)    (ARC9)                  (6in)                   Downhole Annulus Temperature
DHAP            .psi                                       :(RM)    (ARC9)                  (6in)                   Downhole Annulus Pressure
ECD             .g/cm3                                     :(RM)    (ARC9)                  (6in)                   Equivalent Circulating Density
TICKS_GR        .                                          :(RM)    (ARC9)                  (1.2in)                 Gamma Ray Tick Marks
TICKS_RES       .                                          :(RM)    (ARC9)                  (1.2in)                 Resistivity Tick Marks
#-------------------------------------------------------------
#            DEPT          TVD          ROP         ROP5       GR_ARC       GR_CAL         A16H         A16L         A22H         A22L         A28H         A28L         A34H         A34L         A40H         A40L         P16H         P16L         P22H         P22L         P28H         P28L         P34H         P34L         P40H         P40L      TAB_RES         DHAT         DHAP          ECD     TICKS_GR    TICKS_RES 
#                  (DnMWorkfl)  (DRILLING_)  (DRILLING_)       (ARC9)       (ARC9)       (ARC9)       (ARC9)       (ARC9)       (ARC9)       (ARC9)       (ARC9)       (ARC9)       (ARC9)       (ARC9)       (ARC9)       (ARC9)       (ARC9)       (ARC9)       (ARC9)       (ARC9)       (ARC9)       (ARC9)       (ARC9)       (ARC9)       (ARC9)       (ARC9)       (ARC9)       (ARC9)       (ARC9)       (ARC9)       (ARC9) 
#                         (RT)         (RT)         (RT)         (RM)         (RM)         (RM)         (RM)         (RM)         (RM)         (RM)         (RM)         (RM)         (RM)         (RM)         (RM)         (RM)         (RM)         (RM)         (RM)         (RM)         (RM)         (RM)         (RM)         (RM)         (RM)                      (RM)         (RM)         (RM)         (RM)         (RM) 
#                        (6in)        (6in)        (6in)        (6in)        (6in)        (6in)        (6in)        (6in)        (6in)        (6in)        (6in)        (6in)        (6in)        (6in)        (6in)        (6in)        (6in)        (6in)        (6in)        (6in)        (6in)        (6in)        (6in)        (6in)        (6in)        (6in)        (6in)        (6in)        (6in)      (1.2in)      (1.2in) 
~ASCII
# ...
       2349.39840   2311.40250      9.80637     15.04587     17.65944     73.85789      1.01671      0.94122      1.02384      0.98792      1.02029      1.02833      1.00908      1.05056      0.99889      1.05951      1.11500      1.05403      1.06702      1.05408      1.03031      1.05274      1.02781      1.05028      1.05235      1.04798      1.05874     34.00000   3907.99978      1.18995      1.00000      -999.25
       2349.55080   2311.51845     11.57147     14.94834     19.69676     75.12479      1.03863      0.94706      1.03447      0.98901      1.02327      1.02239      1.01023      1.04006      1.00214      1.04858      1.13407      1.07274      1.07778      1.06513      1.04030      1.05825      1.04076      1.05288      1.06518      1.04885      1.05763     34.00000   3907.99978      1.18989      1.00000      1.00000
       2349.70320   2311.63438     14.99324     14.86762     23.51831     77.50121      1.04995      0.94645      1.03742      0.98655      1.02509      1.01837      1.01656      1.03870      1.01347      1.05156      1.16063      1.08298      1.09742      1.07213      1.05473      1.06321      1.04778      1.05683      1.06052      1.05194      1.05692     34.00000   3909.00054      1.19015      -999.25      1.00000
       2349.85560   2311.75029      9.52272     12.75609     22.19215     76.67654      1.04310      0.94935      1.03225      0.98657      1.02180      1.01422      1.01066      1.03380      1.00053      1.04950      1.17619      1.09291      1.10595      1.07459      1.06039      1.06376      1.05162      1.05513      1.05987      1.04335      1.04457     34.00000   3913.00068      1.19129      1.00000      1.00000
       2350.00800   2311.86618     11.89824     12.66875     18.63634     74.46537      1.07200      0.94846      1.04402      0.98449      1.02685      1.01357      1.01457      1.03331      1.00285      1.04490      1.17715      1.10184      1.11335      1.08083      1.07308      1.06815      1.06472      1.05862      1.06856      1.04638      1.04943     34.00000   3913.00068      1.19125      1.00000      1.00000
       2350.16040   2311.98205     29.17254     12.30457     18.02247     74.08364      1.10384      0.95650      1.06361      0.98840      1.04306      1.01504      1.02837      1.03445      1.01020      1.04776      1.17047      1.10710      1.11196      1.08521      1.07504      1.07239      1.06703      1.06078      1.06952      1.04413      1.05248     34.00000   3913.00068      1.19117      1.00000      1.00000
       2350.31280   2312.09789     16.30894     12.17087     21.88613     76.48624      1.11752      0.96525      1.07480      0.99207      1.04797      1.01239      1.02697      1.02747      1.00615      1.04060      1.16532      1.11408      1.11079      1.09300      1.07516      1.07749      1.06557      1.06214      1.06583      1.04392      1.05192     34.00000   3909.99985      1.19020      1.00000      1.00000
       2350.46520   2312.21372     13.64973     13.08615     23.08158     77.22962      1.11259      0.96645      1.08364      0.99492      1.05995      1.01745      1.03586      1.03086      1.01250      1.04031      1.17077      1.11636      1.10803      1.09638      1.06622      1.07999      1.05543      1.06325      1.05847      1.04482      1.05499     34.00000   3909.99985      1.19014      1.00000      1.00000
       2350.61760   2312.32953     14.86137     13.11228     19.56977     75.04582      1.12881      0.97054      1.09141      0.99726      1.06491      1.02008      1.04170      1.03454      1.01942      1.04508      1.15820      1.11557      1.10644      1.09840      1.06393      1.08042      1.04848      1.06038      1.05349      1.04078      1.05597     34.00000   3911.99992      1.19068      1.00000      1.00000
       2350.77000   2312.44532     12.26758     13.14104     17.72131     73.89636      1.12981      0.96807      1.09525      0.99930      1.06635      1.02533      1.04084      1.03926      1.02004      1.04865      1.16298      1.11751      1.11724      1.10392      1.06913      1.08418      1.04703      1.06236      1.05514      1.04527      1.05360     34.00000   3913.99999      1.19124      -999.25      1.00000
       2350.92240   2312.56109     10.73296     13.42216     17.63814     73.84464      1.14382      0.97667      1.10365      1.00127      1.07583      1.02660      1.05145      1.04068      1.02748      1.04583      1.19523      1.14421      1.15217      1.12576      1.09793      1.10241      1.06816      1.07772      1.07470      1.05780      1.05040     34.00000   3913.00068      1.19087      1.00000      1.00000
       2351.07480   2312.67683     13.74166     13.62994     16.22047     72.96307      1.13364      0.97340      1.09823      0.99907      1.07647      1.02749      1.05512      1.04237      1.02956      1.04476      1.24432      1.16181      1.19533      1.14100      1.14584      1.12378      1.12366      1.10270      1.13091      1.07690      1.05610     34.00000   3911.00061      1.19020      1.00000      1.00000
       2351.22720   2312.79256     23.06682     14.31951     15.54243     72.54144      1.13126      0.97889      1.08721      1.00165      1.07621      1.03286      1.06558      1.05012      1.03606      1.04978      1.28954      1.18580      1.20402      1.14377      1.16043      1.13087      1.15657      1.11806      1.15550      1.08357      1.06790     34.00000   3913.00068      1.19075      1.00000      1.00000
       2351.37960   2312.90827     11.70857     14.39947     18.72431     74.52007      1.11807      0.98151      1.06525      1.00459      1.05819      1.03700      1.05314      1.05795      1.02175      1.06170      1.22843      1.15622      1.11513      1.09914      1.07476      1.08964      1.07569      1.08589      1.05402      1.05067      1.06388     34.00000   3914.99930      1.19130      1.00000      1.00000
       2351.53200   2313.02395     11.08731     14.07178     23.27842     77.35203      1.08090      0.98202      1.03805      1.01503      1.03591      1.05194      1.03746      1.07475      1.01589      1.08064      1.04623      1.05521      0.95889      1.01913      0.92615      1.01793      0.92127      1.01829      0.89479      0.99117      1.07096     34.00000   3914.99930      1.19125      1.00000      1.00000
       2351.68440   2313.13962     20.55128     13.82686     24.55174     78.14384      1.03166      0.97454      1.01708      1.02099      1.02245      1.06227      1.03001      1.08705      1.02485      1.09985      0.93378      0.98179      0.88942      0.98076      0.86758      0.99047      0.86116      0.99343      0.84892      0.97939      1.07721     34.00000   3916.00006      1.19149      1.00000      1.00000
       2351.83680   2313.25527     24.68964     14.94733     19.66010     75.10199      1.01294      0.97392      1.02400      1.02966      1.03421      1.07380      1.04192      1.09716      1.04598      1.10904      0.92220      0.97238      0.90268      0.99122      0.89037      1.00754      0.88776      1.01241      0.88778      1.00802      1.08915     34.00000   3914.99930      1.19112      1.00000      -999.25
       2351.98920   2313.37089     33.99979     15.73488     15.33829     72.41450      1.04074      0.97512      1.06019      1.03252      1.07019      1.07573      1.07471      1.09925      1.07883      1.11374      0.94693      0.99102      0.93946      1.02097      0.92983      1.03811      0.93354      1.04219      0.95405      1.04429      1.09526     34.00000   3914.99930      1.19106      1.00000      1.00000
       2352.14160   2313.48649     17.75206     15.45353     17.99447     74.06623      1.09977      0.98746      1.09604      1.03970      1.09097      1.07773      1.09418      1.10077      1.10658      1.11625      1.04468      1.05995      1.02584      1.07558      1.00726      1.08303      1.01294      1.08615      1.04594      1.09177      1.10040     34.00000   3918.99944      1.19222      1.00000      1.00000
       2352.29400   2313.60208     14.85875     16.47174     21.92259     76.50891      1.11799      0.99666      1.10443      1.04723      1.09425      1.08198      1.09316      1.10293      1.09962      1.11656      1.10559      1.09631      1.06528      1.09454      1.03480      1.09289      1.03808      1.09392      1.06946      1.09746      1.11457     34.00000   3913.00068      1.19033      1.00000      1.00000
