~VERSION INFORMATION 
VERS  .    2.0                                     :CWLS Log ASCII Standard - VERSION 2.0
WRAP  .    NO                                      :One Line per Depth step
PROD  .    Schlumberger Technology Corp.           :LAS Producer
PROG  .    Horizon LASWriter 8.2.104493.3100       :LAS Program name and version
SOURCE.    Run03-Drilling                          :Run&Pass Information
CREA  .    11/08/2019                              :LAS Creation date {MM/DD/YYYY}
#--------------------------------------------------
~WELL INFORMATION 
#MNEM           .UNIT                      DATA            :DESCRIPTION
#----            ------          --------------            -----------------------------
STRT            .m                   1489.86240            :START DEPTH
STOP            .m                   2794.86360            :STOP DEPTH
STEP            .m                       0.1524            :STEP
NULL            .                       -999.25            :NULL VALUE
COMP            .                      Woodside            :COMPANY
WELL            .                         PLA07            :WELL NAME
FLD             .                 Pluto/WA-34-L            :FIELD NAME
RIGN            .                    Ocean Apex            :Rig Name
RIGTYP          .                Semi-Submersible          :Rig Type
SON             .                     19AWA0002            :Service Order Number
SRVC            .                  Schlumberger            :SERVICE COMPANY
DATE            .                    06/13/2019            :LOG DATE(Composite Date for Composite LAP) (MM/DD/YYYY)
CLAB            .                       County:            :County Label
CNTY            .                                          :COUNTY
SLAB            .                        State:            :State/Province Label
STAT            .                Western Australia         :STATE or PROVINCE
PROV            .                Western Australia         :STATE or PROVINCE
CTRY            .                     Australia            :COUNTRY
CONT_REGION     .                   Australasia            :Continent Region
SECT            .                                          :Section
TOWN            .                                          :Township
RANG            .                                          :Range
API             .                                          :API NUMBER
UWI             .                     19AWA0002            :UNIQUE WELL ID
LUL             .                        Zone 1            :Logging Unit Location
LUN             .                       1010979            :Logging Unit Number
LOC             .                       WA-34-L            :FIELD LOCATION
FL1             .                N 7 797 035.31m           :Field Location Line 1
FL2             .                 E 304 456.39m            :Field Location Line 2
LATI            .deg                 -19.913224            :LATITUDE
LONG            .deg                  115.13193            :LONGITUDE
PDAT            .                         OTHER            :Local Permanent Datum
LMF             .                            DF            :Logging Measured From
APD             .m                        23.85            :Elevation of Depth Reference (LMF) Above Permanent Datum
EPD             .m                        -1.35            :Elevation of Permanent Datum (PDAT) above Mean Sea Level
EKB             .m                      -999.25            :Elevation of Kelly Bushing Above Permanent Datum
EDF             .m                        23.85            :Elevation of Drill Floor Above Permanent Datum
EGL             .m                      -830.05            :Elevation of Ground Level Above Permanent Datum
ECF             .m                      -999.25            :Elevation of Casing Flange above Permanent Datum
#--------------------------------------------------
~CURVE INFORMATION
#MNEM           .UNIT                  API CODE            :DESCRIPTION
#----            ------          --------------            -----------------------------
DEPT            .m                                         :                                                        Depth Index
TVD             .m                                         :(RT)    (DnMWorkflow)           (6in)                   True Vertical Depth
ROP             .m/h                                       :(RT)    (DRILLING_SURFACE)      (6in)                   Rate of Penetration
ROP5            .m/h                                       :(RT)    (DRILLING_SURFACE)      (6in)                   Rate of penetration averaged over the last 5 ft (1.5 m)
GR_ARC          .gAPI                                      :(RM)    (ARC9)                  (6in)                   Gamma Ray
GR_CAL          .gAPI                                      :(RM)    (ARC9)                  (6in)                   Calibrated Gamma Ray
A16H            .ohm.m                                     :(RM)    (ARC9)                  (6in)                   Attenuation Resistivity 16 inch Spacing at 2 MHz, Environmentally Corrected
A16L            .ohm.m                                     :(RM)    (ARC9)                  (6in)                   Attenuation Resistivity 16 inch Spacing at 400 KHz, Environmentally Corrected
A22H            .ohm.m                                     :(RM)    (ARC9)                  (6in)                   Attenuation Resistivity 22 inch Spacing at 2 MHz, Environmentally Corrected
A22L            .ohm.m                                     :(RM)    (ARC9)                  (6in)                   Attenuation Resistivity 22 inch Spacing at 400 KHz, Environmentally Corrected
A28H            .ohm.m                                     :(RM)    (ARC9)                  (6in)                   Attenuation Resistivity 28 inch Spacing at 2 MHz, Environmentally Corrected
A28L            .ohm.m                                     :(RM)    (ARC9)                  (6in)                   Attenuation Resistivity 28 inch Spacing at 400 KHz, Environmentally Corrected
A34H            .ohm.m                                     :(RM)    (ARC9)                  (6in)                   Attenuation Resistivity 34 inch Spacing at 2 MHz, Environmentally Corrected
A34L            .ohm.m                                     :(RM)    (ARC9)                  (6in)                   Attenuation Resistivity 34 inch Spacing at 400 KHz, Environmentally Corrected
A40H            .ohm.m                                     :(RM)    (ARC9)                  (6in)                   Attenuation Resistivity 40 inch Spacing at 2 MHz, Environmentally Corrected.
A40L            .ohm.m                                     :(RM)    (ARC9)                  (6in)                   Attenuation Resistivity 40 inch Spacing at 400 KHz, Environmentally Corrected
P16H            .ohm.m                                     :(RM)    (ARC9)                  (6in)                   Phase Shift Resistivity 16 inch Spacing at 2 MHz, Environmentally Corrected.
P16L            .ohm.m                                     :(RM)    (ARC9)                  (6in)                   Phase Shift Resistivity 16 inch Spacing at 400 KHz, Environmentally Corrected.
P22H            .ohm.m                                     :(RM)    (ARC9)                  (6in)                   Phase Shift Resistivity 22 inch Spacing at 2 MHz, Environmentally Corrected.
P22L            .ohm.m                                     :(RM)    (ARC9)                  (6in)                   Phase Shift Resistivity 22 inch Spacing at 400 KHz, Environmentally Corrected.
P28H            .ohm.m                                     :(RM)    (ARC9)                  (6in)                   Phase Shift Resistivity 28 inch Spacing at 2 MHz, Environmentally Corrected.
P28L            .ohm.m                                     :(RM)    (ARC9)                  (6in)                   Phase Shift Resistivity 28 inch Spacing at 400 KHz, Environmentally Corrected.
P34H            .ohm.m                                     :(RM)    (ARC9)                  (6in)                   Phase Shift Resistivity 34 inch Spacing at 2 MHz, Environmentally Corrected.
P34L            .ohm.m                                     :(RM)    (ARC9)                  (6in)                   Phase Shift Resistivity 34 inch Spacing at 400 KHz, Environmentally Corrected.
P40H            .ohm.m                                     :(RM)    (ARC9)                  (6in)                   Phase Shift Resistivity 40 inch Spacing at 2 MHz, Environmentally Corrected.
P40L            .ohm.m                                     :(RM)    (ARC9)                  (6in)                   Phase Shift Resistivity 40 inch Spacing at 400 KHz, Environmentally Corrected.
TAB_RES         .h                                         :        (ARC9)                  (6in)                   Resistivity Time After Bit
DHAT            .degC                                      :(RM)    (ARC9)                  (6in)                   Downhole Annulus Temperature
DHAP            .psi                                       :(RM)    (ARC9)                  (6in)                   Downhole Annulus Pressure
ECD             .g/cm3                                     :(RM)    (ARC9)                  (6in)                   Equivalent Circulating Density
TICKS_GR        .                                          :(RM)    (ARC9)                  (1.2in)                 Gamma Ray Tick Marks
TICKS_RES       .                                          :(RM)    (ARC9)                  (1.2in)                 Resistivity Tick Marks
#-------------------------------------------------------------
#            DEPT          TVD          ROP         ROP5       GR_ARC       GR_CAL         A16H         A16L         A22H         A22L         A28H         A28L         A34H         A34L         A40H         A40L         P16H         P16L         P22H         P22L         P28H         P28L         P34H         P34L         P40H         P40L      TAB_RES         DHAT         DHAP          ECD     TICKS_GR    TICKS_RES 
#                  (DnMWorkfl)  (DRILLING_)  (DRILLING_)       (ARC9)       (ARC9)       (ARC9)       (ARC9)       (ARC9)       (ARC9)       (ARC9)       (ARC9)       (ARC9)       (ARC9)       (ARC9)       (ARC9)       (ARC9)       (ARC9)       (ARC9)       (ARC9)       (ARC9)       (ARC9)       (ARC9)       (ARC9)       (ARC9)       (ARC9)       (ARC9)       (ARC9)       (ARC9)       (ARC9)       (ARC9)       (ARC9) 
#                         (RT)         (RT)         (RT)         (RM)         (RM)         (RM)         (RM)         (RM)         (RM)         (RM)         (RM)         (RM)         (RM)         (RM)         (RM)         (RM)         (RM)         (RM)         (RM)         (RM)         (RM)         (RM)         (RM)         (RM)         (RM)                      (RM)         (RM)         (RM)         (RM)         (RM) 
#                        (6in)        (6in)        (6in)        (6in)        (6in)        (6in)        (6in)        (6in)        (6in)        (6in)        (6in)        (6in)        (6in)        (6in)        (6in)        (6in)        (6in)        (6in)        (6in)        (6in)        (6in)        (6in)        (6in)        (6in)        (6in)        (6in)        (6in)        (6in)        (6in)      (1.2in)      (1.2in) 
~ASCII
       1489.86240   1489.85510      -999.25      -999.25     45.11652     17.65127      0.18977      0.10000      0.45216      0.13482      0.65347      0.15348      0.37300      0.12488      0.27688      0.10835      0.15000      1.81811      0.44936      2.07617      0.52461      1.73513      0.42817      1.38361      0.35866      1.29438      0.00000     22.00000   2179.99987      1.03039      1.00000      1.00000
       1490.01480   1490.00750      -999.25      -999.25     45.70199     17.88032      0.25300      0.10000      0.51944      0.14530      0.63205      0.15340      0.37712      0.12147      0.28426      0.10171      0.22757      2.23901      0.50394      2.20001      0.53875      1.73932      0.42413      1.41895      0.34910      1.37177      0.00000     20.00000   2179.99987      1.03028      1.00000      1.00000
       1490.16720   1490.15990      -999.25      -999.25     46.64741     18.25021      0.27289      0.10454      0.54032      0.14988      0.61658      0.15349      0.36978      0.11973      0.27952      0.10000      0.22836      2.19244      0.49136      2.08899      0.51991      1.64871      0.40651      1.34171      0.33332      1.27957      0.00000     19.00000   2179.00056      1.02972      1.00000      1.00000
       1490.31960   1490.31230      -999.25      -999.25     47.28176     18.49839      0.36634      0.10962      0.68390      0.15389      0.68264      0.15625      0.41377      0.12337      0.31841      0.10390      0.37050      3.19438      0.57233      2.51635      0.54007      1.78255      0.40254      1.37889      0.32138      1.26076      0.00000     19.00000   2179.00056      1.02961      1.00000      1.00000
       1490.47200   1490.46470      -999.25      -999.25     47.26573     18.49212      0.41089      0.14384      0.76397      0.17456      0.72128      0.15827      0.42292      0.12154      0.31322      0.10025      0.49566      8.71828      0.65473      3.37717      0.58242      2.00268      0.43643      1.56837      0.35528      1.50338      0.00000     19.00000   2179.99987      1.02997      1.00000      1.00000
       1490.62440   1490.61710      -999.25      -999.25     48.00409     18.78099      0.25636      0.11107      0.43398      0.15615      0.46424      0.15751      0.30726      0.12208      0.24610      0.10054      0.42695      4.24010      0.60793      2.89140      0.55008      1.93532      0.38876      1.47893      0.29201      1.36250      0.00000     19.00000   2175.99973      1.02798      1.00000      1.00000
       1490.77680   1490.76950      -999.25      -999.25     48.57611     19.00479      0.30515      0.10781      0.64519      0.15729      0.70588      0.16091      0.41567      0.12402      0.31898      0.10266      0.26812      2.62370      0.52130      2.28837      0.53320      1.69351      0.41771      1.37248      0.35112      1.35122      0.00000     19.00000   2179.00056      1.02931      1.00000      1.00000
       1490.92920   1490.92190      -999.25      -999.25     48.34024     18.91251      0.26019      0.14523      0.56246      0.17891      0.70649      0.16140      0.43206      0.12130      0.33694      0.10000      0.25754      4.71423      0.52416      2.75988      0.54072      1.84566      0.42457      1.48724      0.35914      1.43423      0.00000     19.00000   2181.00063      1.03012      1.00000      1.00000
       1491.08160   1491.07429      -999.25      -999.25     49.39105     19.32362      0.29116      0.10874      0.61703      0.15664      0.72878      0.15974      0.41910      0.12455      0.30119      0.10448      0.29836      3.43974      0.53588      2.65973      0.53560      1.90740      0.41584      1.49152      0.34828      1.36248      0.00000     19.00000   2181.99994      1.03051      1.00000      1.00000
       1491.23400   1491.22669      -999.25      -999.25     51.58303     20.18121      0.11312      0.15454      0.33398      0.17923      0.74356      0.15572      0.45594      0.11926      0.37358      0.10000      0.17372     11.50497      0.50998      3.41072      0.56272      1.96065      0.44154      1.40231      0.37181      1.14328      0.00000     19.00000   2179.00056      1.02900      -999.25      1.00000
       1491.38640   1491.37909      -999.25      -999.25     51.45667     20.13177      0.52199      0.11799      0.90427      0.16071      0.72340      0.15619      0.41980      0.12264      0.31069      0.10556      0.56463      4.75424      0.65860      2.98100      0.55204      1.99063      0.41859      1.50445      0.35941      1.32681      0.00000     19.00000   2181.00063      1.02983      1.00000      1.00000
       1491.53880   1491.53149      -999.25      -999.25     50.81373     19.88023      0.24380      0.10000      0.60573      0.11250      0.84165      0.15004      0.51681      0.12442      0.42971      0.11623      0.34481      3.05019      0.59129      3.03540      0.60181      2.04965      0.46466      1.62344      0.36392      1.82524      0.00000     19.00000   2182.99925      1.03066      1.00000      1.00000
       1491.69120   1491.68389      -999.25      -999.25     53.20952     20.81755      0.39297      0.13758      0.78353      0.18096      0.81975      0.16657      0.51052      0.12633      0.39649      0.10734      0.51287     20.48580      0.65262      3.93778      0.56907      2.04611      0.41963      1.64779      0.33727      1.78681      0.00000     19.00000   2182.99925      1.03054      1.00000      1.00000
       1491.84360   1491.83629      -999.25      -999.25     55.77250     21.82028      0.45502      0.15990      0.87191      0.18292      0.77610      0.15717      0.45852      0.12003      0.34711      0.10096      0.68351    146.41790      0.73491      4.33746      0.61374      2.13662      0.46728      1.87386      0.38551      2.43258      0.00000     19.00000   2184.00001      1.03092      1.00000      1.00000
       1491.99600   1491.98869      -999.25      -999.25     53.06873     20.76247      0.25230      0.10000      0.60306      0.10446      0.81192      0.14423      0.43987      0.12140      0.30359      0.11843      0.48730      5.84346      0.73754      4.75317      0.68957      3.42438      0.52309      2.89390      0.42922      3.13487      0.00000     19.00000   2181.99994      1.02986      -999.25      -999.25
       1492.14840   1492.14109      -999.25      -999.25     51.40169     20.11026      0.64350      0.11952      1.59757      0.16705      1.09491      0.16795      0.52971      0.13072      0.34909      0.10945      0.95940   1000.00000      0.86345      6.74082      0.67598      2.74749      0.50659      1.90527      0.40944      1.77231      0.00000     19.00000   2181.00063      1.02933      1.00000      1.00000
       1492.30080   1492.29349      -999.25      -999.25     55.32756     21.64621      0.37145      0.19485      0.74550      0.17996      0.78264      0.14530      0.48069      0.11314      0.36931      0.10000      0.69560   1000.00000      0.70678      5.34390      0.57966      1.97086      0.43325      1.43701      0.34888      1.34537      0.00000     19.00000   2182.99925      1.03012      1.00000      1.00000
       1492.45320   1492.44588      -999.25      -999.25     52.89231     20.69345      0.40924      0.14957      0.63189      0.16664      0.53838      0.14333      0.32254      0.10919      0.23605      0.10000      0.59361      8.47602      0.65676      2.88005      0.56897      1.73844      0.43517      1.27252      0.34995      1.05211      0.00000     19.00000   2184.00001      1.03050      1.00000      1.00000
       1492.60560   1492.59828      -999.25      -999.25     46.32132     18.12263      0.39243      0.12783      0.86576      0.16123      0.83905      0.15392      0.47948      0.12102      0.35765      0.10035      0.61433    311.52190      0.67257      4.22588      0.57661      2.13755      0.45929      1.65397      0.39996      1.58344      0.00000     19.00000   2182.99925      1.02991      1.00000      1.00000
       1492.75800   1492.75068      -999.25      -999.25     46.40580     18.15568      0.18974      0.11136      0.53474      0.15872      0.82198      0.15302      0.38940      0.11342      0.25449      0.10000      0.37501     12.22510      0.61337      4.27270      0.56399      2.25397      0.38837      1.58661      0.28804      1.42875      0.00000     19.00000   2184.99932      1.03074      1.00000      1.00000
