~VERSION INFORMATION 
VERS  .    2.0                                     :CWLS Log ASCII Standard - VERSION 2.0
WRAP  .    NO                                      :One Line per Depth step
PROD  .    Schlumberger Technology Corp.           :LAS Producer
PROG  .    Horizon LASWriter 8.2.104493.3100       :LAS Program name and version
SOURCE.    Run03-Drilling                          :Run&Pass Information
CREA  .    11/08/2019                              :LAS Creation date {MM/DD/YYYY}
#--------------------------------------------------
~WELL INFORMATION 
#MNEM           .UNIT                      DATA            :DESCRIPTION
#----            ------          --------------            -----------------------------
STRT            .m                   1489.86240            :START DEPTH
STOP            .m                   2794.86360            :STOP DEPTH
STEP            .m                       0.1524            :STEP
NULL            .                       -999.25            :NULL VALUE
COMP            .                      Woodside            :COMPANY
WELL            .                         PLA07            :WELL NAME
FLD             .                 Pluto/WA-34-L            :FIELD NAME
RIGN            .                    Ocean Apex            :Rig Name
RIGTYP          .                Semi-Submersible          :Rig Type
SON             .                     19AWA0002            :Service Order Number
SRVC            .                  Schlumberger            :SERVICE COMPANY
DATE            .                    06/13/2019            :LOG DATE(Composite Date for Composite LAP) (MM/DD/YYYY)
CLAB            .                       County:            :County Label
CNTY            .                                          :COUNTY
SLAB            .                        State:            :State/Province Label
STAT            .                Western Australia         :STATE or PROVINCE
PROV            .                Western Australia         :STATE or PROVINCE
CTRY            .                     Australia            :COUNTRY
CONT_REGION     .                   Australasia            :Continent Region
SECT            .                                          :Section
TOWN            .                                          :Township
RANG            .                                          :Range
API             .                                          :API NUMBER
UWI             .                     19AWA0002            :UNIQUE WELL ID
LUL             .                        Zone 1            :Logging Unit Location
LUN             .                       1010979            :Logging Unit Number
LOC             .                       WA-34-L            :FIELD LOCATION
FL1             .                N 7 797 035.31m           :Field Location Line 1
FL2             .                 E 304 456.39m            :Field Location Line 2
LATI            .deg                 -19.913224            :LATITUDE
LONG            .deg                  115.13193            :LONGITUDE
PDAT            .                         OTHER            :Local Permanent Datum
LMF             .                            DF            :Logging Measured From
APD             .m                        23.85            :Elevation of Depth Reference (LMF) Above Permanent Datum
EPD             .m                        -1.35            :Elevation of Permanent Datum (PDAT) above Mean Sea Level
EKB             .m                      -999.25            :Elevation of Kelly Bushing Above Permanent Datum
EDF             .m                        23.85            :Elevation of Drill Floor Above Permanent Datum
EGL             .m                      -830.05            :Elevation of Ground Level Above Permanent Datum
ECF             .m                      -999.25            :Elevation of Casing Flange above Permanent Datum
#--------------------------------------------------
~CURVE INFORMATION
#MNEM           .UNIT                  API CODE            :DESCRIPTION
#----            ------          --------------            -----------------------------
DEPT            .m                                         :                                                        Depth Index
TVD             .m                                         :(RT)    (DnMWorkflow)           (6in)                   True Vertical Depth
ROP             .m/h                                       :(RT)    (DRILLING_SURFACE)      (6in)                   Rate of Penetration
ROP5            .m/h                                       :(RT)    (DRILLING_SURFACE)      (6in)                   Rate of penetration averaged over the last 5 ft (1.5 m)
GR_ARC          .gAPI                                      :(RM)    (ARC9)                  (6in)                   Gamma Ray
GR_CAL          .gAPI                                      :(RM)    (ARC9)                  (6in)                   Calibrated Gamma Ray
A16H            .ohm.m                                     :(RM)    (ARC9)                  (6in)                   Attenuation Resistivity 16 inch Spacing at 2 MHz, Environmentally Corrected
A16L            .ohm.m                                     :(RM)    (ARC9)                  (6in)                   Attenuation Resistivity 16 inch Spacing at 400 KHz, Environmentally Corrected
A22H            .ohm.m                                     :(RM)    (ARC9)                  (6in)                   Attenuation Resistivity 22 inch Spacing at 2 MHz, Environmentally Corrected
A22L            .ohm.m                                     :(RM)    (ARC9)                  (6in)                   Attenuation Resistivity 22 inch Spacing at 400 KHz, Environmentally Corrected
A28H            .ohm.m                                     :(RM)    (ARC9)                  (6in)                   Attenuation Resistivity 28 inch Spacing at 2 MHz, Environmentally Corrected
A28L            .ohm.m                                     :(RM)    (ARC9)                  (6in)                   Attenuation Resistivity 28 inch Spacing at 400 KHz, Environmentally Corrected
A34H            .ohm.m                                     :(RM)    (ARC9)                  (6in)                   Attenuation Resistivity 34 inch Spacing at 2 MHz, Environmentally Corrected
A34L            .ohm.m                                     :(RM)    (ARC9)                  (6in)                   Attenuation Resistivity 34 inch Spacing at 400 KHz, Environmentally Corrected
A40H            .ohm.m                                     :(RM)    (ARC9)                  (6in)                   Attenuation Resistivity 40 inch Spacing at 2 MHz, Environmentally Corrected.
A40L            .ohm.m                                     :(RM)    (ARC9)                  (6in)                   Attenuation Resistivity 40 inch Spacing at 400 KHz, Environmentally Corrected
P16H            .ohm.m                                     :(RM)    (ARC9)                  (6in)                   Phase Shift Resistivity 16 inch Spacing at 2 MHz, Environmentally Corrected.
P16L            .ohm.m                                     :(RM)    (ARC9)                  (6in)                   Phase Shift Resistivity 16 inch Spacing at 400 KHz, Environmentally Corrected.
P22H            .ohm.m                                     :(RM)    (ARC9)                  (6in)                   Phase Shift Resistivity 22 inch Spacing at 2 MHz, Environmentally Corrected.
P22L            .ohm.m                                     :(RM)    (ARC9)                  (6in)                   Phase Shift Resistivity 22 inch Spacing at 400 KHz, Environmentally Corrected.
P28H            .ohm.m                                     :(RM)    (ARC9)                  (6in)                   Phase Shift Resistivity 28 inch Spacing at 2 MHz, Environmentally Corrected.
P28L            .ohm.m                                     :(RM)    (ARC9)                  (6in)                   Phase Shift Resistivity 28 inch Spacing at 400 KHz, Environmentally Corrected.
P34H            .ohm.m                                     :(RM)    (ARC9)                  (6in)                   Phase Shift Resistivity 34 inch Spacing at 2 MHz, Environmentally Corrected.
P34L            .ohm.m                                     :(RM)    (ARC9)                  (6in)                   Phase Shift Resistivity 34 inch Spacing at 400 KHz, Environmentally Corrected.
P40H            .ohm.m                                     :(RM)    (ARC9)                  (6in)                   Phase Shift Resistivity 40 inch Spacing at 2 MHz, Environmentally Corrected.
P40L            .ohm.m                                     :(RM)    (ARC9)                  (6in)                   Phase Shift Resistivity 40 inch Spacing at 400 KHz, Environmentally Corrected.
TAB_RES         .h                                         :        (ARC9)                  (6in)                   Resistivity Time After Bit
DHAT            .degC                                      :(RM)    (ARC9)                  (6in)                   Downhole Annulus Temperature
DHAP            .psi                                       :(RM)    (ARC9)                  (6in)                   Downhole Annulus Pressure
ECD             .g/cm3                                     :(RM)    (ARC9)                  (6in)                   Equivalent Circulating Density
TICKS_GR        .                                          :(RM)    (ARC9)                  (1.2in)                 Gamma Ray Tick Marks
TICKS_RES       .                                          :(RM)    (ARC9)                  (1.2in)                 Resistivity Tick Marks
#-------------------------------------------------------------
#            DEPT          TVD          ROP         ROP5       GR_ARC       GR_CAL         A16H         A16L         A22H         A22L         A28H         A28L         A34H         A34L         A40H         A40L         P16H         P16L         P22H         P22L         P28H         P28L         P34H         P34L         P40H         P40L      TAB_RES         DHAT         DHAP          ECD     TICKS_GR    TICKS_RES 
#                  (DnMWorkfl)  (DRILLING_)  (DRILLING_)       (ARC9)       (ARC9)       (ARC9)       (ARC9)       (ARC9)       (ARC9)       (ARC9)       (ARC9)       (ARC9)       (ARC9)       (ARC9)       (ARC9)       (ARC9)       (ARC9)       (ARC9)       (ARC9)       (ARC9)       (ARC9)       (ARC9)       (ARC9)       (ARC9)       (ARC9)       (ARC9)       (ARC9)       (ARC9)       (ARC9)       (ARC9)       (ARC9) 
#                         (RT)         (RT)         (RT)         (RM)         (RM)         (RM)         (RM)         (RM)         (RM)         (RM)         (RM)         (RM)         (RM)         (RM)         (RM)         (RM)         (RM)         (RM)         (RM)         (RM)         (RM)         (RM)         (RM)         (RM)         (RM)                      (RM)         (RM)         (RM)         (RM)         (RM) 
#                        (6in)        (6in)        (6in)        (6in)        (6in)        (6in)        (6in)        (6in)        (6in)        (6in)        (6in)        (6in)        (6in)        (6in)        (6in)        (6in)        (6in)        (6in)        (6in)        (6in)        (6in)        (6in)        (6in)        (6in)        (6in)        (6in)        (6in)        (6in)        (6in)      (1.2in)      (1.2in) 
~ASCII
# ...
       2693.82240   2533.62321      9.74363      5.31255     58.29668    103.55250      0.69219      0.64464      0.68968      0.66085      0.68805      0.67199      0.68650      0.67629      0.68454      0.67668      0.71847      0.69799      0.69049      0.69487      0.67013      0.69760      0.67010      0.69736      0.68434      0.68866      2.16524     41.00000   4483.99975      1.24547      -999.25      1.00000
       2693.97480   2533.71420      4.41942      4.67220     66.98484    108.79640      0.68731      0.63669      0.68801      0.65471      0.68754      0.66737      0.68192      0.67324      0.67249      0.67522      0.75994      0.71609      0.72554      0.70709      0.70375      0.70332      0.70261      0.70083      0.71192      0.69507      2.13026     41.00000   4483.99975      1.24544      -999.25      1.00000
       2694.12720   2533.80519      3.85171      4.29014     61.55931    105.52170      0.68138      0.64049      0.68382      0.65328      0.68666      0.66309      0.68330      0.66876      0.67349      0.67149      0.76053      0.71909      0.72727      0.70984      0.71237      0.70545      0.71039      0.70001      0.70421      0.68935      2.09997     41.00000   4483.99975      1.24540      -999.25      1.00000
       2694.27960   2533.89617      5.58734      4.12616     50.14090     98.62997      0.69144      0.63659      0.68733      0.65244      0.68468      0.66324      0.67678      0.66769      0.66335      0.66869      0.77145      0.72718      0.73975      0.71405      0.72197      0.70653      0.72518      0.70147      0.73767      0.69432      2.08372     41.00000   4485.99982      1.24589      -999.25      1.00000
       2694.43200   2533.98714      2.16436      3.14380     49.19026     98.05620      0.71942      0.63710      0.69488      0.65190      0.68692      0.66330      0.68172      0.66982      0.67019      0.67283      0.77940      0.72696      0.75096      0.71846      0.73104      0.71364      0.72813      0.70819      0.73532      0.69927      1.89692     41.00000   4485.00051      1.24558      1.00000      -999.25
       2694.58440   2534.07810      2.05471      3.03569     53.28184    100.52570      0.72436      0.64121      0.69969      0.65499      0.68915      0.66537      0.67937      0.67182      0.66430      0.67574      0.75430      0.72445      0.72663      0.71366      0.71146      0.71004      0.71674      0.70890      0.73210      0.70408      1.87261     41.00000   4481.00037      1.24441      1.00000      1.00000
       2694.73680   2534.16906      6.86141      3.72186     52.37683     99.97950      0.72189      0.64589      0.69542      0.65626      0.68709      0.66535      0.68434      0.67246      0.67698      0.67734      0.75290      0.72323      0.71812      0.70894      0.69588      0.70568      0.70000      0.70713      0.72105      0.70369      1.85928     41.00000   4483.99975      1.24523      1.00000      -999.25
       2694.88920   2534.26001      9.12270      4.67788     51.38055     99.37818      0.69568      0.64275      0.68515      0.65608      0.68149      0.66615      0.67976      0.67217      0.67507      0.67550      0.77303      0.71476      0.73214      0.71158      0.70711      0.70963      0.70905      0.70618      0.72578      0.70032      1.84664     41.00000   4485.99982      1.24575      1.00000      -999.25
       2695.04160   2534.35096      8.84682      4.61654     55.66225    101.96250      0.71006      0.64126      0.69589      0.65478      0.69023      0.66488      0.68474      0.67037      0.67496      0.67281      0.75448      0.71738      0.72625      0.71416      0.70330      0.71187      0.69799      0.70704      0.70701      0.69906      1.83346     41.00000   4487.99989      1.24623      1.00000      -999.25
       2695.19400   2534.44189      7.42801      4.40071     60.43070    104.84050      0.72780      0.64726      0.70899      0.66027      0.69428      0.66925      0.68251      0.67327      0.67288      0.67453      0.76645      0.72604      0.73149      0.71486      0.70890      0.70890      0.70627      0.70671      0.71354      0.70402      1.81456     41.00000   4483.99975      1.24509      -999.25      1.00000
       2695.34640   2534.53282      5.11792      4.25234     63.43856    106.65600      0.71235      0.64328      0.70486      0.65826      0.69385      0.66953      0.68262      0.67489      0.67520      0.67611      0.74949      0.71323      0.71179      0.70802      0.69331      0.70999      0.70032      0.70880      0.71604      0.69798      1.78457     41.00000   4485.99982      1.24561      1.00000      -999.25
       2695.49880   2534.62374      4.65946      4.44633     63.79218    106.86940      0.76047      0.65055      0.73245      0.66316      0.71241      0.67318      0.69669      0.67894      0.68345      0.68134      0.70550      0.69738      0.68074      0.69452      0.66913      0.69505      0.67486      0.69612      0.68589      0.69450      1.75650     42.00000   4487.00058      1.24582      1.00000      -999.25
       2695.65120   2534.71466      4.49961      4.39197     60.77674    105.04940      0.75258      0.65335      0.73164      0.66446      0.71417      0.67283      0.69889      0.67756      0.68688      0.67983      0.70488      0.70852      0.67502      0.69776      0.65787      0.69426      0.66217      0.69503      0.67715      0.69350      1.72372     42.00000   4485.99982      1.24549      1.00000      1.00000
       2695.80360   2534.80557      4.79094      4.33173     55.90562    102.10940      0.71038      0.64000      0.69823      0.65593      0.69114      0.66634      0.68919      0.67120      0.69042      0.67371      0.77067      0.72656      0.73295      0.71618      0.71051      0.71365      0.70652      0.71287      0.70790      0.70702      1.70372     42.00000   4492.00003      1.24711      -999.25      -999.25
       2695.95600   2534.89647      5.34086      5.78940     49.19787     98.06079      0.76224      0.64771      0.73111      0.66072      0.71289      0.66954      0.69723      0.67357      0.67954      0.67511      0.88595      0.76661      0.80139      0.74814      0.76928      0.74129      0.77369      0.73952      0.76957      0.73311      1.67594     42.00000   4500.99963      1.24959      -999.25      1.00000
       2696.10840   2534.98737      4.67608      5.67253     45.20515     95.65092      0.75729      0.65117      0.72205      0.66125      0.70681      0.67053      0.69434      0.67558      0.67459      0.67608      0.83261      0.74226      0.77588      0.73110      0.74855      0.72798      0.75049      0.72840      0.75647      0.72537      1.64332     42.00000   4483.99975      1.24481      -999.25      1.00000
       2696.26080   2535.07825      3.33475      4.91267     47.62359     97.11061      0.74651      0.64908      0.70758      0.65931      0.69587      0.66647      0.68919      0.67159      0.67218      0.67604      0.79457      0.74115      0.75936      0.73191      0.74395      0.72648      0.74721      0.72376      0.75084      0.72066      1.59025     42.00000   4489.99996      1.24642      -999.25      1.00000
       2696.41320   2535.16913      2.92030      4.48731     52.27795     99.91982      0.75892      0.65260      0.71603      0.66379      0.69964      0.67082      0.69283      0.67205      0.67999      0.67016      0.74448      0.71475      0.71760      0.71117      0.70034      0.71185      0.69825      0.71183      0.70329      0.70720      1.54693     42.00000   4489.99996      1.24638      -999.25      1.00000
       2696.56560   2535.26001      4.40000      4.41691     56.74522    102.61610      0.75986      0.64822      0.72429      0.66198      0.70762      0.67156      0.69869      0.67518      0.68773      0.67523      0.72901      0.70924      0.70356      0.70729      0.68510      0.70858      0.68523      0.70901      0.69832      0.70559      1.52582     42.00000   4479.00030      1.24329      1.00000      -999.25
       2696.71800   2535.35087      5.09605      4.25221     58.35295    103.58650      0.76493      0.64544      0.72322      0.65551      0.70514      0.66523      0.69585      0.67288      0.68247      0.67741      0.75143      0.71921      0.71991      0.71183      0.70431      0.71001      0.71233      0.71079      0.73075      0.70928      1.49206     42.00000   4489.00065      1.24604      1.00000      1.00000
