~VERSION INFORMATION 
VERS  .    2.0                                     :CWLS Log ASCII Standard - VERSION 2.0
WRAP  .    NO                                      :One Line per Depth step
PROD  .    Schlumberger Technology Corp.           :LAS Producer
PROG  .    Horizon LASWriter 8.2.104493.3100       :LAS Program name and version
SOURCE.    Run03-Drilling                          :Run&Pass Information
CREA  .    11/08/2019                              :LAS Creation date {MM/DD/YYYY}
#--------------------------------------------------
~WELL INFORMATION 
#MNEM           .UNIT                      DATA            :DESCRIPTION
#----            ------          --------------            -----------------------------
STRT            .m                   1489.86240            :START DEPTH
STOP            .m                   2794.86360            :STOP DEPTH
STEP            .m                       0.1524            :STEP
NULL            .                       -999.25            :NULL VALUE
COMP            .                      Woodside            :COMPANY
WELL            .                         PLA07            :WELL NAME
FLD             .                 Pluto/WA-34-L            :FIELD NAME
RIGN            .                    Ocean Apex            :Rig Name
RIGTYP          .                Semi-Submersible          :Rig Type
SON             .                     19AWA0002            :Service Order Number
SRVC            .                  Schlumberger            :SERVICE COMPANY
DATE            .                    06/13/2019            :LOG DATE(Composite Date for Composite LAP) (MM/DD/YYYY)
CLAB            .                       County:            :County Label
CNTY            .                                          :COUNTY
SLAB            .                        State:            :State/Province Label
STAT            .                Western Australia         :STATE or PROVINCE
PROV            .                Western Australia         :STATE or PROVINCE
CTRY            .                     Australia            :COUNTRY
CONT_REGION     .                   Australasia            :Continent Region
SECT            .                                          :Section
TOWN            .                                          :Township
RANG            .                                          :Range
API             .                                          :API NUMBER
UWI             .                     19AWA0002            :UNIQUE WELL ID
LUL             .                        Zone 1            :Logging Unit Location
LUN             .                       1010979            :Logging Unit Number
LOC             .                       WA-34-L            :FIELD LOCATION
FL1             .                N 7 797 035.31m           :Field Location Line 1
FL2             .                 E 304 456.39m            :Field Location Line 2
LATI            .deg                 -19.913224            :LATITUDE
LONG            .deg                  115.13193            :LONGITUDE
PDAT            .                         OTHER            :Local Permanent Datum
LMF             .                            DF            :Logging Measured From
APD             .m                        23.85            :Elevation of Depth Reference (LMF) Above Permanent Datum
EPD             .m                        -1.35            :Elevation of Permanent Datum (PDAT) above Mean Sea Level
EKB             .m                      -999.25            :Elevation of Kelly Bushing Above Permanent Datum
EDF             .m                        23.85            :Elevation of Drill Floor Above Permanent Datum
EGL             .m                      -830.05            :Elevation of Ground Level Above Permanent Datum
ECF             .m                      -999.25            :Elevation of Casing Flange above Permanent Datum
#--------------------------------------------------
~CURVE INFORMATION
#MNEM           .UNIT                  API CODE            :DESCRIPTION
#----            ------          --------------            -----------------------------
DEPT            .m                                         :                                                        Depth Index
TVD             .m                                         :(RT)    (DnMWorkflow)           (6in)                   True Vertical Depth
GR              .gAPI                                      :(RM)    (ARC9)                  (6in)                   Gamma Ray
ROP             .m/h                                       :(RT)    (DRILLING_SURFACE)      (6in)                   Rate of Penetration
ROP5            .m/h                                       :(RT)    (DRILLING_SURFACE)      (6in)                   Rate of penetration averaged over the last 5 ft (1.5 m)
BLKP            .m                                         :(RT)    (DRILLING_SURFACE)      (6in)                   Height of block above rig floor
HKLA            .1000 lbf                                  :(RT)    (DRILLING_SURFACE)      (6in)                   Average Hookload
SWOB            .1000 lbf                                  :(RT)    (DRILLING_SURFACE)      (6in)                   Surface Weight On Bit
STOR            .1000 ft.lbf                               :(RT)    (DRILLING_SURFACE)      (6in)                   Surface Torque
RPM             .c/min                                     :(RT)    (DRILLING_SURFACE)      (6in)                   Rotational Speed
CRPM            .c/min                                     :(RM)    (TELE900)               (6in)                   Collar Rotational Speed
STICKNSLIP      .c/min                                     :(RM)    (TELE900)               (6in)                   Stick Slip Indicator
SPPA            .psi                                       :(RT)    (DRILLING_SURFACE)      (6in)                   Standpipe Pressure
TFLO            .gal/min                                   :(RT)    (DRILLING_SURFACE)      (6in)                   Total flow rate of all active pumps
TRPM            .c/min                                     :(RM)    (TELE900)               (6in)                   MWD Turbine Rotation Speed
DHAT            .degC                                      :(RM)    (ARC9)                  (6in)                   Downhole Annulus Temperature
DHAP            .psi                                       :(RM)    (ARC9)                  (6in)                   Downhole Annulus Pressure
ECD             .g/cm3                                     :(RM)    (ARC9)                  (6in)                   Equivalent Circulating Density
COBTM           .                                          :(RT)    (DRILLING_SURFACE)      (6in)                   Composite On Bottom Status
SHKL            .                                          :(RM)    (ARC9)                  (6in)                   Tool Shock Level
SHKRSK          .                                          :(RM)    (TELE900)               (6in)                   Shock Risk
SHKPK           .gn                                        :(RM)    (TELE900)               (6in)                   Shock Peak
SHOCKS_ACC      .                                          :(RM)    (TELE900)               (6in)                   Total Shocks accumulated over tool lifetime
VIB_X           .gn                                        :(RM)    (TELE900)               (6in)                   RMS Vibration, X-Axis
VIB_LAT         .gn                                        :(RM)    (TELE900)               (6in)                   Transverse RMS Vibration
INCL_CONT       .deg                                       :(RT)    (PDXCEED_900)           (6in)                   Continuous Inclination (Hole Deviation)
AZIM_CONT       .deg                                       :(RT)    (PDXCEED_900)           (6in)                   Continuous Hole Azimuth
#-------------------------------------------------------------
#            DEPT          TVD           GR          ROP         ROP5         BLKP         HKLA         SWOB         STOR          RPM         CRPM   STICKNSLIP         SPPA         TFLO         TRPM         DHAT         DHAP          ECD        COBTM         SHKL       SHKRSK        SHKPK   SHOCKS_ACC        VIB_X      VIB_LAT    INCL_CONT    AZIM_CONT 
#                  (DnMWorkfl)       (ARC9)  (DRILLING_)  (DRILLING_)  (DRILLING_)  (DRILLING_)  (DRILLING_)  (DRILLING_)  (DRILLING_)    (TELE900)    (TELE900)  (DRILLING_)  (DRILLING_)    (TELE900)       (ARC9)       (ARC9)       (ARC9)  (DRILLING_)       (ARC9)    (TELE900)    (TELE900)    (TELE900)    (TELE900)    (TELE900)  (PDXCEED_9)  (PDXCEED_9) 
#                         (RT)         (RM)         (RT)         (RT)         (RT)         (RT)         (RT)         (RT)         (RT)         (RM)         (RM)         (RT)         (RT)         (RM)         (RM)         (RM)         (RM)         (RT)         (RM)         (RM)         (RM)         (RM)         (RM)         (RM)         (RT)         (RT) 
#                        (6in)        (6in)        (6in)        (6in)        (6in)        (6in)        (6in)        (6in)        (6in)        (6in)        (6in)        (6in)        (6in)        (6in)        (6in)        (6in)        (6in)        (6in)        (6in)        (6in)        (6in)        (6in)        (6in)        (6in)        (6in)        (6in) 
~ASCII
# ...
       1840.38240   1840.34973     30.46722     46.96206     47.45576     22.14451    183.82002      7.65999     24.69000    145.00000      -999.25      -999.25   3290.41749   1159.84680      -999.25     30.00000   3161.00032      1.20919      0.00000      0.00000      -999.25      -999.25      -999.25      -999.25      -999.25      -999.25      -999.25
       1840.53480   1840.50195     32.30776     59.50831     47.64844     22.19938    184.12001      5.26999     43.09000     91.00000      -999.25      -999.25   3293.40672   1169.85971      -999.25     30.00000   3159.99956      1.20872      0.00000      0.00000      -999.25      -999.25      -999.25      -999.25      -999.25      3.18750    207.64070
       1840.68720   1840.65417     33.48019     77.79815     47.85133     21.90213    185.79001      5.69000     17.44000    146.00000      -999.25      -999.25   3274.92891   1169.85971      -999.25     30.00000   3161.00032      1.20896      0.00000      0.00000      -999.25      -999.25      -999.25      -999.25      -999.25      -999.25      -999.25
       1840.83960   1840.80639     34.01852     71.20515     63.27569     21.86570    183.75999      7.65975     37.66000    145.00000      -999.25      -999.25   3292.91359   1164.85313      -999.25     30.00000   3161.99963      1.20925      0.00000      0.00000      -999.25      -999.25      -999.25      -999.25      -999.25      -999.25      -999.25
       1840.99200   1840.95860     31.38040     43.09338     56.90672     21.72957    188.19000      5.92999     18.23000    145.00000      -999.25      -999.25   3293.40527   1159.84680      -999.25     30.00000   3161.00032      1.20876      0.00000      0.00000      -999.25      0.00000      -999.25      -999.25      -999.25      -999.25      -999.25
       1841.14440   1841.11082     25.76246     18.95286     46.07802     21.45320    190.45999      1.01999     24.10000    145.00000      -999.25    318.00000   3291.15138   1169.85971      -999.25     30.00000   3159.99956      1.20829      0.00000      0.00000      -999.25      -999.25      -999.25      -999.25      -999.25      3.18750    207.64070
       1841.29680   1841.26303     22.92697     22.04108     45.03318     21.38566    188.97000      2.50999     17.79000    146.00000      -999.25      -999.25   3258.73835   1159.84680      -999.25     30.00000   3161.00032      1.20856      0.00000      0.00000      -999.25      -999.25      -999.25      -999.25      -999.25      -999.25    199.84970
       1841.44920   1841.41524     25.63772     72.76871     44.50523     21.12598    191.11999      2.50999     29.04001    145.00000    136.00000      -999.25   3293.40962   1169.85971   3198.00000     30.00000   3159.99956      1.20811      0.00000      0.00000      0.00000      0.00000      0.00000      -999.25      -999.25      -999.25      -999.25
       1841.60160   1841.56745     28.16502     74.07414     43.02082     21.07370    192.43999     -0.96001     13.63000    146.00000      -999.25      -999.25   3280.70722   1164.85313      -999.25     30.00000   3161.99963      1.20874      0.00000      0.00000      -999.25      -999.25      -999.25      -999.25      -999.25      3.18750    199.84970
       1841.75400   1841.71966     26.91395     34.98140     39.70158     20.87393    192.32001      1.37999     10.50000    146.00000      -999.25      -999.25   3289.28040   1164.85313      -999.25     30.00000   3159.99956      1.20791      0.00000      0.00000      -999.25      -999.25      -999.25      -999.25      -999.25      -999.25    194.54040
       1841.90640   1841.87187     27.57067     33.92869     40.19209     20.72355    192.55999     -0.60001     15.04000    146.00000      -999.25      -999.25   3273.06373   1169.85971      -999.25     30.00000   3159.99956      1.20782      0.00000      0.00000      -999.25      -999.25      -999.25      -999.25      -999.25      -999.25      -999.25
       1842.05880   1842.02408     33.20234     65.34927     40.18079     20.60259    195.25000     -3.77000     13.11000    146.00000      -999.25      -999.25   3283.24538   1169.85971      -999.25     30.00000   3161.99963      1.20844      0.00000      0.00000      -999.25      -999.25      -999.25      -999.25      -999.25      -999.25      -999.25
       1842.21120   1842.17628     39.21557     88.55214     40.70282     20.46013    193.03001     -1.55000     17.18000    146.00000      -999.25      -999.25   3271.29427   1169.85971      -999.25     30.00000   3161.00032      1.20799      0.00000      0.00000      -999.25      -999.25      -999.25      -999.25      -999.25      3.18750    185.48080
       1842.36360   1842.32849     41.18940    102.02570     41.59903     20.24832    195.67000     -4.19000      9.46000    146.00000      -999.25      -999.25   3290.46535   1164.85313      -999.25     30.00000   3159.99956      1.20750      0.00000      0.00000      -999.25      0.00000      -999.25      -999.25      -999.25      3.18750    194.54040
       1842.51600   1842.48069     38.66525    104.98580     45.80379     20.11935    196.21000     -4.73001      7.28000    146.00000      -999.25      -999.25   3274.92166   1164.85313      -999.25     30.00000   3161.00032      1.20776      0.00000      0.00000      -999.25      -999.25      -999.25      -999.25      -999.25      3.18750    194.54040
       1842.66840   1842.63289     34.54882     97.41477     64.35171     19.97073    196.26999     -3.11000     13.00000    146.00000      -999.25      -999.25   3284.13301   1164.85313      -999.25     30.00000   3161.00032      1.20767      0.00000      0.00000      -999.25      -999.25      -999.25      -999.25      -999.25      -999.25      -999.25
       1842.82080   1842.78509     31.10743     95.64436     67.34292     19.81813    194.89001     -4.79001      8.68000    146.00000      -999.25      -999.25   3281.71813   1164.85313      -999.25     30.00000   3159.99956      1.20718      0.00000      0.00000      -999.25      -999.25      -999.25      -999.25      -999.25      -999.25      -999.25
       1842.97320   1842.93728     27.72036     96.64450     67.29199     19.63071    196.50000     -3.41000     13.69000    145.00000      -999.25      -999.25   3298.72960   1159.84680      -999.25     30.00000   3161.45284      1.20767      0.00000      0.00000      -999.25      -999.25      -999.25      -999.25      -999.25      3.18750    194.54040
       1843.12560   1843.08948     26.25471     69.34823     66.51869     19.43117    193.57001     -2.33000     13.51000    146.00000      -999.25    141.00000   3288.41307   1169.85971      -999.25     30.00000   3163.00039      1.20816      0.00000      0.00000      -999.25      -999.25      -999.25      -999.25      -999.25      -999.25      -999.25
       1843.27800   1843.24167     26.63963     49.81488     75.99853     19.27134    188.97000      2.50999     19.97000    146.00000      -999.25      -999.25   3278.36196   1169.85971      -999.25     30.00000   3159.99956      1.20690      0.00000      0.00000      -999.25      -999.25      -999.25      -999.25      -999.25      -999.25      -999.25
       1843.43040   1843.39387     27.81177     62.10794     80.91367     19.26364    193.81001     -2.33000     22.71000    145.00000      -999.25      -999.25   3283.73705   1164.85313      -999.25     30.00000   3163.00039      1.20795      0.00000      0.00000      -999.25      -999.25      -999.25      -999.25      -999.25      -999.25      -999.25
       1843.58280   1843.54606     32.04665    108.26250     83.71680     19.14153    190.10000      1.37999     24.94000    145.00000      -999.25      -999.25   3271.59014   1164.85313      -999.25     30.00000   3161.00032      1.20708      0.00000      0.00000      -999.25      -999.25      -999.25      -999.25      -999.25      -999.25      -999.25
       1843.73520   1843.69825     34.93037    133.27680     86.19997     18.91471    193.63000     -2.05632      9.89000    146.00000    161.00000      -999.25   3267.99466   1169.85971      -999.25     30.00000   3163.99970      1.20818      0.00000      0.00000      -999.25      0.00000      -999.25      -999.25      -999.25      3.18750    185.48080
