~VERSION INFORMATION 
VERS  .    2.0                                     :CWLS Log ASCII Standard - VERSION 2.0
WRAP  .    NO                                      :One Line per Depth step
PROD  .    Schlumberger Technology Corp.           :LAS Producer
PROG  .    Horizon LASWriter 8.2.104493.3100       :LAS Program name and version
SOURCE.    Run03-Drilling                          :Run&Pass Information
CREA  .    11/08/2019                              :LAS Creation date {MM/DD/YYYY}
#--------------------------------------------------
~WELL INFORMATION 
#MNEM           .UNIT                      DATA            :DESCRIPTION
#----            ------          --------------            -----------------------------
STRT            .m                   1489.86240            :START DEPTH
STOP            .m                   2794.86360            :STOP DEPTH
STEP            .m                       0.1524            :STEP
NULL            .                       -999.25            :NULL VALUE
COMP            .                      Woodside            :COMPANY
WELL            .                         PLA07            :WELL NAME
FLD             .                 Pluto/WA-34-L            :FIELD NAME
RIGN            .                    Ocean Apex            :Rig Name
RIGTYP          .                Semi-Submersible          :Rig Type
SON             .                     19AWA0002            :Service Order Number
SRVC            .                  Schlumberger            :SERVICE COMPANY
DATE            .                    06/13/2019            :LOG DATE(Composite Date for Composite LAP) (MM/DD/YYYY)
CLAB            .                       County:            :County Label
CNTY            .                                          :COUNTY
SLAB            .                        State:            :State/Province Label
STAT            .                Western Australia         :STATE or PROVINCE
PROV            .                Western Australia         :STATE or PROVINCE
CTRY            .                     Australia            :COUNTRY
CONT_REGION     .                   Australasia            :Continent Region
SECT            .                                          :Section
TOWN            .                                          :Township
RANG            .                                          :Range
API             .                                          :API NUMBER
UWI             .                     19AWA0002            :UNIQUE WELL ID
LUL             .                        Zone 1            :Logging Unit Location
LUN             .                       1010979            :Logging Unit Number
LOC             .                       WA-34-L            :FIELD LOCATION
FL1             .                N 7 797 035.31m           :Field Location Line 1
FL2             .                 E 304 456.39m            :Field Location Line 2
LATI            .deg                 -19.913224            :LATITUDE
LONG            .deg                  115.13193            :LONGITUDE
PDAT            .                         OTHER            :Local Permanent Datum
LMF             .                            DF            :Logging Measured From
APD             .m                        23.85            :Elevation of Depth Reference (LMF) Above Permanent Datum
EPD             .m                        -1.35            :Elevation of Permanent Datum (PDAT) above Mean Sea Level
EKB             .m                      -999.25            :Elevation of Kelly Bushing Above Permanent Datum
EDF             .m                        23.85            :Elevation of Drill Floor Above Permanent Datum
EGL             .m                      -830.05            :Elevation of Ground Level Above Permanent Datum
ECF             .m                      -999.25            :Elevation of Casing Flange above Permanent Datum
#--------------------------------------------------
~CURVE INFORMATION
#MNEM           .UNIT                  API CODE            :DESCRIPTION
#----            ------          --------------            -----------------------------
DEPT            .m                                         :                                                        Depth Index
TVD             .m                                         :(RT)    (DnMWorkflow)           (6in)                   True Vertical Depth
GR              .gAPI                                      :(RM)    (ARC9)                  (6in)                   Gamma Ray
ROP             .m/h                                       :(RT)    (DRILLING_SURFACE)      (6in)                   Rate of Penetration
ROP5            .m/h                                       :(RT)    (DRILLING_SURFACE)      (6in)                   Rate of penetration averaged over the last 5 ft (1.5 m)
BLKP            .m                                         :(RT)    (DRILLING_SURFACE)      (6in)                   Height of block above rig floor
HKLA            .1000 lbf                                  :(RT)    (DRILLING_SURFACE)      (6in)                   Average Hookload
SWOB            .1000 lbf                                  :(RT)    (DRILLING_SURFACE)      (6in)                   Surface Weight On Bit
STOR            .1000 ft.lbf                               :(RT)    (DRILLING_SURFACE)      (6in)                   Surface Torque
RPM             .c/min                                     :(RT)    (DRILLING_SURFACE)      (6in)                   Rotational Speed
CRPM            .c/min                                     :(RM)    (TELE900)               (6in)                   Collar Rotational Speed
STICKNSLIP      .c/min                                     :(RM)    (TELE900)               (6in)                   Stick Slip Indicator
SPPA            .psi                                       :(RT)    (DRILLING_SURFACE)      (6in)                   Standpipe Pressure
TFLO            .gal/min                                   :(RT)    (DRILLING_SURFACE)      (6in)                   Total flow rate of all active pumps
TRPM            .c/min                                     :(RM)    (TELE900)               (6in)                   MWD Turbine Rotation Speed
DHAT            .degC                                      :(RM)    (ARC9)                  (6in)                   Downhole Annulus Temperature
DHAP            .psi                                       :(RM)    (ARC9)                  (6in)                   Downhole Annulus Pressure
ECD             .g/cm3                                     :(RM)    (ARC9)                  (6in)                   Equivalent Circulating Density
COBTM           .                                          :(RT)    (DRILLING_SURFACE)      (6in)                   Composite On Bottom Status
SHKL            .                                          :(RM)    (ARC9)                  (6in)                   Tool Shock Level
SHKRSK          .                                          :(RM)    (TELE900)               (6in)                   Shock Risk
SHKPK           .gn                                        :(RM)    (TELE900)               (6in)                   Shock Peak
SHOCKS_ACC      .                                          :(RM)    (TELE900)               (6in)                   Total Shocks accumulated over tool lifetime
VIB_X           .gn                                        :(RM)    (TELE900)               (6in)                   RMS Vibration, X-Axis
VIB_LAT         .gn                                        :(RM)    (TELE900)               (6in)                   Transverse RMS Vibration
INCL_CONT       .deg                                       :(RT)    (PDXCEED_900)           (6in)                   Continuous Inclination (Hole Deviation)
AZIM_CONT       .deg                                       :(RT)    (PDXCEED_900)           (6in)                   Continuous Hole Azimuth
#-------------------------------------------------------------
#            DEPT          TVD           GR          ROP         ROP5         BLKP         HKLA         SWOB         STOR          RPM         CRPM   STICKNSLIP         SPPA         TFLO         TRPM         DHAT         DHAP          ECD        COBTM         SHKL       SHKRSK        SHKPK   SHOCKS_ACC        VIB_X      VIB_LAT    INCL_CONT    AZIM_CONT 
#                  (DnMWorkfl)       (ARC9)  (DRILLING_)  (DRILLING_)  (DRILLING_)  (DRILLING_)  (DRILLING_)  (DRILLING_)  (DRILLING_)    (TELE900)    (TELE900)  (DRILLING_)  (DRILLING_)    (TELE900)       (ARC9)       (ARC9)       (ARC9)  (DRILLING_)       (ARC9)    (TELE900)    (TELE900)    (TELE900)    (TELE900)    (TELE900)  (PDXCEED_9)  (PDXCEED_9) 
#                         (RT)         (RM)         (RT)         (RT)         (RT)         (RT)         (RT)         (RT)         (RT)         (RM)         (RM)         (RT)         (RT)         (RM)         (RM)         (RM)         (RM)         (RT)         (RM)         (RM)         (RM)         (RM)         (RM)         (RM)         (RT)         (RT) 
#                        (6in)        (6in)        (6in)        (6in)        (6in)        (6in)        (6in)        (6in)        (6in)        (6in)        (6in)        (6in)        (6in)        (6in)        (6in)        (6in)        (6in)        (6in)        (6in)        (6in)        (6in)        (6in)        (6in)        (6in)        (6in)        (6in) 
~ASCII
# ...
       2359.15200   2318.78219     21.55693      9.39973     10.99183      9.66537    201.83000     22.16887     35.73000    100.00000    106.00000    291.00000   3115.24961   1149.91790   3023.00000     34.00000   3922.99959      1.19072      0.00000      0.00000      0.00000      0.00000      0.00000      -999.25      -999.25     41.27738    199.30430
       2359.30440   2318.89683     16.24620      8.50355      9.83493      9.58507    203.81000     19.74834     15.82000    101.00000      -999.25      -999.25   3094.68761   1149.91790      -999.25     34.00000   3918.99944      1.18944      0.00000      0.00000      -999.25      0.00000      -999.25      -999.25      -999.25     41.32957    199.27270
       2359.45680   2319.01145     13.64346     10.26870      9.74874      9.40303    204.52000     19.47886     29.13000    100.00000      -999.25      -999.25   3126.96576   1149.91790      -999.25     34.00000   3924.99966      1.19120      0.00000      0.00000      -999.25      -999.25      -999.25      -999.25      -999.25     41.32957    198.87980
       2359.60920   2319.12605     16.40944     18.69394     10.17636      9.16378    204.46001     25.15887     30.04000    101.00000     43.00000    261.00000   3124.04035   1144.93270      -999.25     34.00000   3922.00028      1.19024      0.00000      0.00000      -999.25      0.00000      -999.25      -999.25      -999.25     41.32957    199.27270
       2359.76160   2319.24063     21.47214     23.30939     10.74080      9.11106    199.50000     23.32590     27.90000    100.00000      -999.25      -999.25   3127.59668   1144.93270   3021.00000     34.00000   3920.99951      1.18986      0.00000      0.00000      0.00000      -999.25      0.00000      -999.25      -999.25      -999.25      -999.25
       2359.91400   2319.35519     21.71278     18.31001     10.77176      9.04045    199.13999     24.55886     35.05000    100.00000      -999.25      -999.25   3118.57098   1149.91790      -999.25     34.00000   3924.00035      1.19073      0.00000      0.00000      -999.25      0.00000      -999.25      -999.25      -999.25     41.38170    198.84770
       2360.06640   2319.46973     18.15559     12.71871     11.84042      8.82916    198.00000     25.99887     27.40000    100.00000      -999.25    261.00000   3103.36812   1149.91790      -999.25     34.00000   3922.99959      1.19036      0.00000      0.00000      -999.25      -999.25      -999.25      -999.25      -999.25      -999.25      -999.25
       2360.21880   2319.58425     16.44675     11.28052     11.81540      8.63416    199.61998     24.37887     35.67000    100.00000    130.00000      -999.25   3121.55731   1149.91790   3017.00000     34.00000   3922.99959      1.19029      0.00000      0.00000      0.00000     23.96333      0.00000      0.62458      1.74881     41.32957    198.87980
       2360.37120   2319.69874     15.52035     10.50438     11.89080      8.58659    198.00000     24.06160     31.84000    100.00000      -999.25    261.00000   3119.01915   1144.93270      -999.25     34.00000   3922.99959      1.19024      0.00000      0.00000      -999.25     23.96333      -999.25      -999.25      -999.25      -999.25      -999.25
       2360.52360   2319.81322     11.53946     11.50334     12.45995      8.38189    201.17001     22.82887     16.46000    100.00000    139.00000      -999.25   3128.75698   1144.93270   3003.00000     34.00000   3924.00035      1.19048      0.00000      0.00000      0.00000      0.00000      0.00000      -999.25      -999.25      -999.25      -999.25
       2360.67600   2319.92767      6.89053     16.96938     13.40350      8.22272    197.93999     25.70857     17.94000    101.00000      -999.25      -999.25   3081.48628   1149.91790      -999.25     34.00000   3922.99959      1.19012      0.00000      0.00000      -999.25      -999.25      -999.25      -999.25      -999.25     41.32957    199.27270
       2360.82840   2320.04211      7.67703     17.61155     14.68563      8.04287    202.30999     23.66887     12.29000    101.00000      -999.25      -999.25   3121.42532   1149.91790      -999.25     34.00000   3924.00035      1.19036      0.00000      0.00000      -999.25      0.00000      -999.25      -999.25      -999.25      -999.25      -999.25
       2360.98080   2320.15652     16.72355     16.58919     14.88388      7.90704    203.91999     20.07887     21.29000    101.00000      -999.25      -999.25   3095.37944   1149.91790      -999.25     34.00000   3924.99966      1.19061      0.00000      0.00000      -999.25      -999.25      -999.25      -999.25      -999.25     41.32957    199.27270
       2361.13320   2320.27091     24.11807     18.85576     14.70546      7.70363    197.88000     26.11887     34.38000    100.00000    125.00000    246.00000   3074.54187   1149.91790   3011.00000     34.00000   3926.00042      1.19085      0.00000      0.00000      0.00000      0.00000      0.00000      -999.25      -999.25     41.38170    199.24090
       2361.28560   2320.38528     23.33378     16.54012     14.14461      7.60416    201.11000     22.88888     32.84000    100.00000      -999.25      -999.25   3085.30077   1144.93270      -999.25     34.00000   3924.99966      1.19052      0.00000      0.00000      -999.25      -999.25      -999.25      -999.25      -999.25     41.32957    199.27270
       2361.43800   2320.49964     17.64995     16.06890     14.38324      7.38302    201.41000     22.58887     26.62000    100.00000      -999.25      -999.25   3119.03800   1149.91790      -999.25     34.00000   3922.99959      1.18983      0.00000      0.00000      -999.25      0.00000      -999.25      0.37475      1.49898      -999.25      -999.25
       2361.59040   2320.61397     10.07643     16.71189     14.93853      7.29287    203.75001     21.44887     10.41000    101.00000      -999.25    264.00000   3130.32049   1149.91790      -999.25     34.00000   3926.00042      1.19067      0.00000      0.00000      -999.25      -999.25      -999.25      -999.25      -999.25      -999.25      -999.25
       2361.74280   2320.72828     11.95398     16.64913     15.67194      7.12325    199.98000     24.01888     24.27000    100.00000    134.00000      -999.25   3133.19658   1149.91790   3017.00000     34.00000   3926.99973      1.19092      0.00000      0.00000      0.00000      0.00000      0.00000      -999.25      -999.25     41.38170    198.84770
       2361.89520   2320.84257     20.78945     14.42489     16.19007      6.95196    202.85002     23.18888     20.10000    101.00000      -999.25      -999.25   3134.79925   1149.91790      -999.25     34.00000   3926.99973      1.19086      0.00000      0.00000      -999.25      0.00000      -999.25      -999.25      -999.25      -999.25      -999.25
       2362.04760   2320.95683     22.11221     12.25563     15.93852      6.85499    203.33001     20.66887      5.56000    101.00000    155.00000    309.00000   3082.10414   1149.91790   3021.00000     34.00000   3926.00042      1.19051      0.00000      0.00000      0.00000      0.00000      0.00000      -999.25      -999.25     41.43378    199.20870
       2362.20000   2321.07108     20.20405     12.46018     15.14430      6.69053    202.25001     21.74887     32.77000    100.00000      -999.25      -999.25   3123.13677   1144.93270      -999.25     34.00000   3928.99980      1.19138      0.00000      0.00000      -999.25      -999.25      -999.25      -999.25      -999.25      -999.25      -999.25
       2362.35240   2321.18531     21.92430     12.95669     14.96537      6.44052    202.55001     21.44887     36.86000    100.00000      -999.25      -999.25   3125.74745   1149.91790      -999.25     34.00000   3926.99973      1.19070      0.00000      0.00000      -999.25      0.00000      -999.25      -999.25      -999.25     41.48581    199.17620
       2362.50480   2321.29952     22.82961     13.28113     14.48554      6.36810    198.36002     25.82993     32.62000    101.00000     67.00000    285.00000   3113.11611   1149.91790   3018.00000     34.00000   3926.00042      1.19032      0.00000      0.00000      0.00000     15.90757      0.00000      0.62458      1.74881      -999.25      -999.25
