~VERSION INFORMATION 
VERS  .    2.0                                     :CWLS Log ASCII Standard - VERSION 2.0
WRAP  .    NO                                      :One Line per Depth step
PROD  .    Schlumberger Technology Corp.           :LAS Producer
PROG  .    Horizon LASWriter 8.2.104493.3100       :LAS Program name and version
SOURCE.    Run03-Drilling                          :Run&Pass Information
CREA  .    11/08/2019                              :LAS Creation date {MM/DD/YYYY}
#--------------------------------------------------
~WELL INFORMATION 
#MNEM           .UNIT                      DATA            :DESCRIPTION
#----            ------          --------------            -----------------------------
STRT            .m                   1489.86240            :START DEPTH
STOP            .m                   2794.86360            :STOP DEPTH
STEP            .m                       0.1524            :STEP
NULL            .                       -999.25            :NULL VALUE
COMP            .                      Woodside            :COMPANY
WELL            .                         PLA07            :WELL NAME
FLD             .                 Pluto/WA-34-L            :FIELD NAME
RIGN            .                    Ocean Apex            :Rig Name
RIGTYP          .                Semi-Submersible          :Rig Type
SON             .                     19AWA0002            :Service Order Number
SRVC            .                  Schlumberger            :SERVICE COMPANY
DATE            .                    06/13/2019            :LOG DATE(Composite Date for Composite LAP) (MM/DD/YYYY)
CLAB            .                       County:            :County Label
CNTY            .                                          :COUNTY
SLAB            .                        State:            :State/Province Label
STAT            .                Western Australia         :STATE or PROVINCE
PROV            .                Western Australia         :STATE or PROVINCE
CTRY            .                     Australia            :COUNTRY
CONT_REGION     .                   Australasia            :Continent Region
SECT            .                                          :Section
TOWN            .                                          :Township
RANG            .                                          :Range
API             .                                          :API NUMBER
UWI             .                     19AWA0002            :UNIQUE WELL ID
LUL             .                        Zone 1            :Logging Unit Location
LUN             .                       1010979            :Logging Unit Number
LOC             .                       WA-34-L            :FIELD LOCATION
FL1             .                N 7 797 035.31m           :Field Location Line 1
FL2             .                 E 304 456.39m            :Field Location Line 2
LATI            .deg                 -19.913224            :LATITUDE
LONG            .deg                  115.13193            :LONGITUDE
PDAT            .                         OTHER            :Local Permanent Datum
LMF             .                            DF            :Logging Measured From
APD             .m                        23.85            :Elevation of Depth Reference (LMF) Above Permanent Datum
EPD             .m                        -1.35            :Elevation of Permanent Datum (PDAT) above Mean Sea Level
EKB             .m                      -999.25            :Elevation of Kelly Bushing Above Permanent Datum
EDF             .m                        23.85            :Elevation of Drill Floor Above Permanent Datum
EGL             .m                      -830.05            :Elevation of Ground Level Above Permanent Datum
ECF             .m                      -999.25            :Elevation of Casing Flange above Permanent Datum
#--------------------------------------------------
~CURVE INFORMATION
#MNEM           .UNIT                  API CODE            :DESCRIPTION
#----            ------          --------------            -----------------------------
DEPT            .m                                         :                                                        Depth Index
TVD             .m                                         :(RT)    (DnMWorkflow)           (6in)                   True Vertical Depth
GR              .gAPI                                      :(RM)    (ARC9)                  (6in)                   Gamma Ray
ROP             .m/h                                       :(RT)    (DRILLING_SURFACE)      (6in)                   Rate of Penetration
ROP5            .m/h                                       :(RT)    (DRILLING_SURFACE)      (6in)                   Rate of penetration averaged over the last 5 ft (1.5 m)
BLKP            .m                                         :(RT)    (DRILLING_SURFACE)      (6in)                   Height of block above rig floor
HKLA            .1000 lbf                                  :(RT)    (DRILLING_SURFACE)      (6in)                   Average Hookload
SWOB            .1000 lbf                                  :(RT)    (DRILLING_SURFACE)      (6in)                   Surface Weight On Bit
STOR            .1000 ft.lbf                               :(RT)    (DRILLING_SURFACE)      (6in)                   Surface Torque
RPM             .c/min                                     :(RT)    (DRILLING_SURFACE)      (6in)                   Rotational Speed
CRPM            .c/min                                     :(RM)    (TELE900)               (6in)                   Collar Rotational Speed
STICKNSLIP      .c/min                                     :(RM)    (TELE900)               (6in)                   Stick Slip Indicator
SPPA            .psi                                       :(RT)    (DRILLING_SURFACE)      (6in)                   Standpipe Pressure
TFLO            .gal/min                                   :(RT)    (DRILLING_SURFACE)      (6in)                   Total flow rate of all active pumps
TRPM            .c/min                                     :(RM)    (TELE900)               (6in)                   MWD Turbine Rotation Speed
DHAT            .degC                                      :(RM)    (ARC9)                  (6in)                   Downhole Annulus Temperature
DHAP            .psi                                       :(RM)    (ARC9)                  (6in)                   Downhole Annulus Pressure
ECD             .g/cm3                                     :(RM)    (ARC9)                  (6in)                   Equivalent Circulating Density
COBTM           .                                          :(RT)    (DRILLING_SURFACE)      (6in)                   Composite On Bottom Status
SHKL            .                                          :(RM)    (ARC9)                  (6in)                   Tool Shock Level
SHKRSK          .                                          :(RM)    (TELE900)               (6in)                   Shock Risk
SHKPK           .gn                                        :(RM)    (TELE900)               (6in)                   Shock Peak
SHOCKS_ACC      .                                          :(RM)    (TELE900)               (6in)                   Total Shocks accumulated over tool lifetime
VIB_X           .gn                                        :(RM)    (TELE900)               (6in)                   RMS Vibration, X-Axis
VIB_LAT         .gn                                        :(RM)    (TELE900)               (6in)                   Transverse RMS Vibration
INCL_CONT       .deg                                       :(RT)    (PDXCEED_900)           (6in)                   Continuous Inclination (Hole Deviation)
AZIM_CONT       .deg                                       :(RT)    (PDXCEED_900)           (6in)                   Continuous Hole Azimuth
#-------------------------------------------------------------
#            DEPT          TVD           GR          ROP         ROP5         BLKP         HKLA         SWOB         STOR          RPM         CRPM   STICKNSLIP         SPPA         TFLO         TRPM         DHAT         DHAP          ECD        COBTM         SHKL       SHKRSK        SHKPK   SHOCKS_ACC        VIB_X      VIB_LAT    INCL_CONT    AZIM_CONT 
#                  (DnMWorkfl)       (ARC9)  (DRILLING_)  (DRILLING_)  (DRILLING_)  (DRILLING_)  (DRILLING_)  (DRILLING_)  (DRILLING_)    (TELE900)    (TELE900)  (DRILLING_)  (DRILLING_)    (TELE900)       (ARC9)       (ARC9)       (ARC9)  (DRILLING_)       (ARC9)    (TELE900)    (TELE900)    (TELE900)    (TELE900)    (TELE900)  (PDXCEED_9)  (PDXCEED_9) 
#                         (RT)         (RM)         (RT)         (RT)         (RT)         (RT)         (RT)         (RT)         (RT)         (RM)         (RM)         (RT)         (RT)         (RM)         (RM)         (RM)         (RM)         (RT)         (RM)         (RM)         (RM)         (RM)         (RM)         (RM)         (RT)         (RT) 
#                        (6in)        (6in)        (6in)        (6in)        (6in)        (6in)        (6in)        (6in)        (6in)        (6in)        (6in)        (6in)        (6in)        (6in)        (6in)        (6in)        (6in)        (6in)        (6in)        (6in)        (6in)        (6in)        (6in)        (6in)        (6in)        (6in) 
~ASCII
# ...
       2187.39720   2176.36457     14.06716     29.83984     29.75337     12.57233    205.29999     21.97392      9.05000    154.00000      -999.25      -999.25   3193.89923   1169.88058      -999.25     33.00000   3705.00061      1.19820      0.00000      0.00000      -999.25      -999.25      -999.25      -999.25      -999.25     27.20946    191.67360
       2187.54960   2176.50037     14.94485     28.81623     28.48638     12.48193    204.88001     22.39392     25.83000    153.00000      -999.25    336.00000   3243.99961   1164.87426      -999.25     33.00000   3705.00061      1.19813      0.00000      0.00000      -999.25      -999.25      -999.25      -999.25      -999.25      -999.25      -999.25
       2187.70200   2176.63616     18.97676     29.05346     30.07918     12.25060    209.07001     20.52332     13.56000    154.00000    151.00000      -999.25   3236.45040   1169.88058   3132.00000     33.00000   3705.00061      1.19806      0.00000      0.00000      0.00000      0.00000      0.00000      -999.25      -999.25      -999.25      -999.25
       2187.85440   2176.77193     17.54066     28.73870     31.97183     12.18292    205.96001     19.94988     21.75000    153.00000      -999.25      -999.25   3240.89291   1164.87426      -999.25     33.00000   3703.00054      1.19735      0.00000      0.00000      -999.25      -999.25      -999.25      -999.25      -999.25     27.28456    191.89970
       2188.00680   2176.90768     12.15708     29.55053     31.45354     12.00663    206.86001     20.41392     18.01000    154.00000      -999.25      -999.25   3240.44184   1169.88058      -999.25     33.00000   3703.00054      1.19727      0.00000      0.00000      -999.25      -999.25      -999.25      -999.25      -999.25      -999.25      -999.25
       2188.15920   2177.04342     12.96363     37.97457     32.07766     11.80350    203.57000     23.41393     21.07000    153.00000      -999.25      -999.25   3245.11495   1169.88058      -999.25     33.00000   3703.99985      1.19752      0.00000      0.00000      -999.25      0.00000      -999.25      0.37475      0.99932     27.35947    192.11840
       2188.31160   2177.17913     16.63842     22.69629     28.56213     11.69931    206.44000     21.63006     13.96000    154.00000      -999.25     90.00000   3234.57796   1169.88058      -999.25     33.00000   3703.00054      1.19710      0.00000      0.00000      -999.25      -999.25      -999.25      -999.25      -999.25      -999.25      -999.25
       2188.46400   2177.31483     17.78309     17.25025     26.95374     11.51303    204.99999     22.27392     17.68000    154.00000    152.00000      -999.25   3246.40289   1169.88058   3140.00000     33.00000   3701.00047      1.19639      0.00000      0.00000      0.00000      0.00000      0.00000      -999.25      -999.25      -999.25      -999.25
       2188.61640   2177.45051     19.45530     20.94258     25.82891     11.40335    200.69002     26.58391     23.48000    154.00000      -999.25      -999.25   3245.82709   1169.88058      -999.25     33.00000   3707.00068      1.19827      0.00000      0.00000      -999.25      -999.25      -999.25      -999.25      -999.25     27.35947    192.11840
       2188.76880   2177.58617     20.94549     22.85890     25.31015     11.20396    205.78000     23.58393     15.21000    154.00000      -999.25      -999.25   3245.08885   1169.88058      -999.25     33.00000   3703.00054      1.19691      0.00000      0.00000      -999.25      0.00000      -999.25      -999.25      -999.25      -999.25      -999.25
       2188.92120   2177.72181     21.06910     12.45247     20.80086     11.09268    206.80000     22.00250     12.73000    151.00000      -999.25      -999.25   3255.17767   1159.90967      -999.25     33.00000   3703.00054      1.19682      0.00000      0.00000      -999.25      -999.25      -999.25      0.24983      1.24915     27.35947    191.19470
       2189.07360   2177.85744     20.17673     13.58021     21.14316     10.93688    205.29999     21.97392     24.75000    150.00000      -999.25    174.00000   3267.81771   1159.90967      -999.25     33.00000   3703.00054      1.19674      0.00000      0.00000      -999.25      -999.25      -999.25      -999.25      -999.25     27.35947    191.19470
       2189.22600   2177.99305     20.37980     31.73505     21.05562     10.72621    210.80998     19.96161     14.76000    151.00000    151.00000      -999.25   3270.46320   1159.90967   3142.00000     33.00000   3703.00054      1.19666      0.00000      0.00000      0.00000      0.00000      0.00000      -999.25      -999.25     27.28456    190.95530
       2189.37840   2178.12864     21.73573     24.00543     20.54704     10.68894    204.04001     23.23392     20.44000    151.00000      -999.25      -999.25   3257.62736   1159.90967      -999.25     33.00000   3703.00054      1.19659      0.00000      0.00000      -999.25      -999.25      -999.25      -999.25      -999.25     27.28456    190.95530
       2189.53080   2178.26421     23.23782     22.52168     20.15905     10.39649    208.05002     22.63391     15.99000    151.00000      -999.25      -999.25   3260.95888   1159.90967      -999.25     33.00000   3701.99978      1.19619      0.00000      0.00000      -999.25      -999.25      -999.25      -999.25      -999.25      -999.25      -999.25
       2189.68320   2178.39977     22.08292     24.58183     19.40308     10.38902    202.37000     24.90392     25.00000    150.00000      -999.25      -999.25   3278.10234   1159.90967      -999.25     33.00000   3705.00061      1.19708      0.00000      0.00000      -999.25      0.00000      -999.25      -999.25      -999.25     27.35947    190.95530
       2189.83560   2178.53530     18.00293     25.45518     20.55479     10.10983    201.17001     26.10392     26.85000    151.00000      -999.25    306.00000   3188.09192   1159.90967      -999.25     33.00000   3705.99992      1.19733      0.00000      0.00000      -999.25      -999.25      -999.25      -999.25      -999.25      -999.25      -999.25
       2189.98800   2178.67082     15.26797     20.31030     20.08379      9.93025    206.26000     24.19315     25.50000    150.00000    168.00000      -999.25   3237.35689   1159.90967   3146.00000     33.00000   3705.00061      1.19696      0.00000      0.00000      0.00000      0.00000      0.00000      -999.25      -999.25      -999.25      -999.25
       2190.14040   2178.80632     16.79984     20.92096     20.55062      9.97881    201.65000     25.62393     28.78000    150.00000      -999.25      -999.25   3270.08320   1159.90967      -999.25     33.00000   3705.00061      1.19688      0.00000      0.00000      -999.25      -999.25      -999.25      -999.25      -999.25      -999.25      -999.25
       2190.29280   2178.94180     19.39938     19.59275     19.51222      9.55457    197.16000     30.11391     38.59000    150.00000      -999.25    312.00000   3258.35255   1159.90967      -999.25     33.00000   3703.99985      1.19647      0.00000      0.00000      -999.25      0.00000      -999.25      -999.25      -999.25      -999.25      -999.25
       2190.44520   2179.07727     16.89924     11.04881     19.72358      9.71562    202.25001     27.23392     25.26000    151.00000    117.00000      -999.25   3260.61949   1159.90967   3106.00000     33.00000   3705.00061      1.19671      0.00000      0.00000      0.00000      0.00000      0.00000      1.12424      1.24915      -999.25      -999.25
       2190.59760   2179.21271     17.45138     13.32273     19.40446      9.40990    202.49000     26.82393     28.99000    150.00000      -999.25      -999.25   3179.22286   1159.90967      -999.25     33.00000   3703.99985      1.19633      0.00000      0.00000      -999.25      -999.25      -999.25      -999.25      -999.25      -999.25      -999.25
       2190.75000   2179.34814     25.29582     28.57421     19.45605      9.19268    202.42999     24.84394     31.67000    150.00000      -999.25      -999.25   3187.92512   1159.90967      -999.25     33.00000   3703.99985      1.19624      0.00000      0.00000      -999.25      -999.25      -999.25      -999.25      -999.25      -999.25      -999.25
