~VERSION INFORMATION 
VERS  .    2.0                                     :CWLS Log ASCII Standard - VERSION 2.0
WRAP  .    NO                                      :One Line per Depth step
PROD  .    Schlumberger Technology Corp.           :LAS Producer
PROG  .    Horizon LASWriter 8.2.104493.3100       :LAS Program name and version
SOURCE.    Run03-Drilling                          :Run&Pass Information
CREA  .    11/08/2019                              :LAS Creation date {MM/DD/YYYY}
#--------------------------------------------------
~WELL INFORMATION 
#MNEM           .UNIT                      DATA            :DESCRIPTION
#----            ------          --------------            -----------------------------
STRT            .m                   1489.86240            :START DEPTH
STOP            .m                   2794.86360            :STOP DEPTH
STEP            .m                       0.1524            :STEP
NULL            .                       -999.25            :NULL VALUE
COMP            .                      Woodside            :COMPANY
WELL            .                         PLA07            :WELL NAME
FLD             .                 Pluto/WA-34-L            :FIELD NAME
RIGN            .                    Ocean Apex            :Rig Name
RIGTYP          .                Semi-Submersible          :Rig Type
SON             .                     19AWA0002            :Service Order Number
SRVC            .                  Schlumberger            :SERVICE COMPANY
DATE            .                    06/13/2019            :LOG DATE(Composite Date for Composite LAP) (MM/DD/YYYY)
CLAB            .                       County:            :County Label
CNTY            .                                          :COUNTY
SLAB            .                        State:            :State/Province Label
STAT            .                Western Australia         :STATE or PROVINCE
PROV            .                Western Australia         :STATE or PROVINCE
CTRY            .                     Australia            :COUNTRY
CONT_REGION     .                   Australasia            :Continent Region
SECT            .                                          :Section
TOWN            .                                          :Township
RANG            .                                          :Range
API             .                                          :API NUMBER
UWI             .                     19AWA0002            :UNIQUE WELL ID
LUL             .                        Zone 1            :Logging Unit Location
LUN             .                       1010979            :Logging Unit Number
LOC             .                       WA-34-L            :FIELD LOCATION
FL1             .                N 7 797 035.31m           :Field Location Line 1
FL2             .                 E 304 456.39m            :Field Location Line 2
LATI            .deg                 -19.913224            :LATITUDE
LONG            .deg                  115.13193            :LONGITUDE
PDAT            .                         OTHER            :Local Permanent Datum
LMF             .                            DF            :Logging Measured From
APD             .m                        23.85            :Elevation of Depth Reference (LMF) Above Permanent Datum
EPD             .m                        -1.35            :Elevation of Permanent Datum (PDAT) above Mean Sea Level
EKB             .m                      -999.25            :Elevation of Kelly Bushing Above Permanent Datum
EDF             .m                        23.85            :Elevation of Drill Floor Above Permanent Datum
EGL             .m                      -830.05            :Elevation of Ground Level Above Permanent Datum
ECF             .m                      -999.25            :Elevation of Casing Flange above Permanent Datum
#--------------------------------------------------
~CURVE INFORMATION
#MNEM           .UNIT                  API CODE            :DESCRIPTION
#----            ------          --------------            -----------------------------
DEPT            .m                                         :                                                        Depth Index
TVD             .m                                         :(RT)    (DnMWorkflow)           (6in)                   True Vertical Depth
GR              .gAPI                                      :(RM)    (ARC9)                  (6in)                   Gamma Ray
ROP             .m/h                                       :(RT)    (DRILLING_SURFACE)      (6in)                   Rate of Penetration
ROP5            .m/h                                       :(RT)    (DRILLING_SURFACE)      (6in)                   Rate of penetration averaged over the last 5 ft (1.5 m)
BLKP            .m                                         :(RT)    (DRILLING_SURFACE)      (6in)                   Height of block above rig floor
HKLA            .1000 lbf                                  :(RT)    (DRILLING_SURFACE)      (6in)                   Average Hookload
SWOB            .1000 lbf                                  :(RT)    (DRILLING_SURFACE)      (6in)                   Surface Weight On Bit
STOR            .1000 ft.lbf                               :(RT)    (DRILLING_SURFACE)      (6in)                   Surface Torque
RPM             .c/min                                     :(RT)    (DRILLING_SURFACE)      (6in)                   Rotational Speed
CRPM            .c/min                                     :(RM)    (TELE900)               (6in)                   Collar Rotational Speed
STICKNSLIP      .c/min                                     :(RM)    (TELE900)               (6in)                   Stick Slip Indicator
SPPA            .psi                                       :(RT)    (DRILLING_SURFACE)      (6in)                   Standpipe Pressure
TFLO            .gal/min                                   :(RT)    (DRILLING_SURFACE)      (6in)                   Total flow rate of all active pumps
TRPM            .c/min                                     :(RM)    (TELE900)               (6in)                   MWD Turbine Rotation Speed
DHAT            .degC                                      :(RM)    (ARC9)                  (6in)                   Downhole Annulus Temperature
DHAP            .psi                                       :(RM)    (ARC9)                  (6in)                   Downhole Annulus Pressure
ECD             .g/cm3                                     :(RM)    (ARC9)                  (6in)                   Equivalent Circulating Density
COBTM           .                                          :(RT)    (DRILLING_SURFACE)      (6in)                   Composite On Bottom Status
SHKL            .                                          :(RM)    (ARC9)                  (6in)                   Tool Shock Level
SHKRSK          .                                          :(RM)    (TELE900)               (6in)                   Shock Risk
SHKPK           .gn                                        :(RM)    (TELE900)               (6in)                   Shock Peak
SHOCKS_ACC      .                                          :(RM)    (TELE900)               (6in)                   Total Shocks accumulated over tool lifetime
VIB_X           .gn                                        :(RM)    (TELE900)               (6in)                   RMS Vibration, X-Axis
VIB_LAT         .gn                                        :(RM)    (TELE900)               (6in)                   Transverse RMS Vibration
INCL_CONT       .deg                                       :(RT)    (PDXCEED_900)           (6in)                   Continuous Inclination (Hole Deviation)
AZIM_CONT       .deg                                       :(RT)    (PDXCEED_900)           (6in)                   Continuous Hole Azimuth
#-------------------------------------------------------------
#            DEPT          TVD           GR          ROP         ROP5         BLKP         HKLA         SWOB         STOR          RPM         CRPM   STICKNSLIP         SPPA         TFLO         TRPM         DHAT         DHAP          ECD        COBTM         SHKL       SHKRSK        SHKPK   SHOCKS_ACC        VIB_X      VIB_LAT    INCL_CONT    AZIM_CONT 
#                  (DnMWorkfl)       (ARC9)  (DRILLING_)  (DRILLING_)  (DRILLING_)  (DRILLING_)  (DRILLING_)  (DRILLING_)  (DRILLING_)    (TELE900)    (TELE900)  (DRILLING_)  (DRILLING_)    (TELE900)       (ARC9)       (ARC9)       (ARC9)  (DRILLING_)       (ARC9)    (TELE900)    (TELE900)    (TELE900)    (TELE900)    (TELE900)  (PDXCEED_9)  (PDXCEED_9) 
#                         (RT)         (RM)         (RT)         (RT)         (RT)         (RT)         (RT)         (RT)         (RT)         (RM)         (RM)         (RT)         (RT)         (RM)         (RM)         (RM)         (RM)         (RT)         (RM)         (RM)         (RM)         (RM)         (RM)         (RM)         (RT)         (RT) 
#                        (6in)        (6in)        (6in)        (6in)        (6in)        (6in)        (6in)        (6in)        (6in)        (6in)        (6in)        (6in)        (6in)        (6in)        (6in)        (6in)        (6in)        (6in)        (6in)        (6in)        (6in)        (6in)        (6in)        (6in)        (6in)        (6in) 
~ASCII
# ...
       2446.78200   2380.20038     23.52821      5.40889      6.90231      5.81636    203.69000     24.04661     24.77000    137.00000     82.00000    312.00000   3197.22639   1154.50022   3085.00000     36.00000   4033.99987      1.19277      0.00000      0.00000      0.00000      0.00000      0.00000      0.37475      0.99932      -999.25      -999.25
       2446.93440   2380.29898     19.32106      5.45907      6.66040      5.66787    204.34001     26.37663     31.97000    136.00000      -999.25    327.00000   3161.48474   1154.50022      -999.25     36.00000   4035.00063      1.19304      0.00000      0.00000      -999.25      0.00000      -999.25      -999.25      -999.25     50.16877    192.61340
       2447.08680   2380.39755     19.82582      6.13412      6.27957      5.56969    200.33000     29.01663     12.92000    137.00000    125.50000    366.00000   3211.11956   1144.25220   3021.50000     36.00000   4035.00063      1.19298      0.00000      0.00000      0.00000      0.00000      0.00000      -999.25      -999.25      -999.25      -999.25
       2447.23920   2380.49609     24.22243      4.84093      5.80749      5.33984    207.57000     21.77662      1.55000    138.00000    137.00000    315.00000   3185.55231   1139.24587   3059.00000     36.00000   4033.99987      1.19264      0.00000      0.00000      0.00000      0.00000      0.00000      0.37475      1.49898     50.16877    192.61340
       2447.39160   2380.59461     24.07445      4.23990      5.51194      5.22242    205.83999     23.50663     24.32000    137.00000    148.00000    321.00000   3216.46420   1154.50022   3068.00000     36.00000   4035.00063      1.19288      0.00000      0.00000      0.00000      0.00000      0.00000      -999.25      -999.25      -999.25      -999.25
       2447.54400   2380.69309     18.39688      3.74260      5.30380      5.00446    208.58999     26.07663     25.51000    137.00000    170.00000    294.00000   3195.21327   1149.37608   3055.00000     36.00000   4031.99980      1.19193      0.00000      0.00000      0.00000      0.00000      0.00000      0.49966      1.49898      -999.25      -999.25
       2447.69640   2380.79155     15.94892      3.90383      5.07468     33.07159    209.31000     21.82894     20.71000    119.00000      -999.25      -999.25   3469.50574   1169.89326      -999.25     36.00000   4033.00056      1.19219      0.00000      0.00000      -999.25      -999.25      -999.25      -999.25      -999.25      -999.25      -999.25
       2447.84880   2380.88998     17.39860      8.60195      5.45200     32.88871    211.11001     20.02894     20.19000    119.00000      -999.25      -999.25   3466.82834   1180.00260      -999.25     36.00000   4033.00056      1.19214      0.00000      0.00000      -999.25      -999.25      -999.25      -999.25      -999.25     50.16877    192.61340
       2448.00120   2380.98838     16.22255    119.75150      5.89437     32.63977    210.09000     21.04894     21.13000    119.00000      -999.25      -999.25   3478.51548   1180.00260      -999.25     36.00000   4031.99980      1.19180      0.00000      0.00000      -999.25      0.00000      -999.25      0.12492      1.74881     50.21354    192.00160
       2448.15360   2381.08675     20.00051     88.21586      6.37320     32.53840    205.47998     22.12894     32.87000    118.00000      -999.25      -999.25   3398.75633   1180.00260      -999.25     36.00000   4033.99987      1.19233      0.00000      0.00000      -999.25      -999.25      -999.25      -999.25      -999.25     50.21354    192.00160
       2448.30600   2381.18510     26.93824     12.34858      6.71711     32.44113    201.22999     27.01633     18.39000    120.00000    165.00000    324.00000   3429.76250   1164.76912   3165.00000     36.00000   4033.99987      1.19228      0.00000      0.00000      0.00000     23.96333      0.00000      -999.25      -999.25     50.25829    192.42620
       2448.45840   2381.28341     25.64351      6.47535      6.61563     32.19113    205.29999     28.16895     14.47000    120.00000    178.00000      -999.25   2762.12768    983.83320   3031.00000     36.00000   4033.99987      1.19224      0.00000      0.00000      0.00000     23.96333      0.00000      -999.25      -999.25     50.25829    191.90390
       2448.61080   2381.38170     22.96008      7.03420      6.91078     32.08454    202.91000     26.37895     27.27000    119.00000     56.00000    315.00000   2775.91642    973.70273      -999.25     36.00000   4033.00056      1.19188      0.00000      0.00000      -999.25     15.90757      -999.25      -999.25      -999.25      -999.25      -999.25
       2448.76320   2381.47996     23.53948      7.22735      7.27191     31.91409    206.26000     26.40221     12.57000    120.00000      -999.25      -999.25   3029.10590   1149.27966   2999.00000     36.00000   4017.99930      1.18740      0.00000      0.00000      0.00000      -999.25      0.00000      0.37475      1.49898     50.25829    192.42620
       2448.91560   2381.57819     26.78107     11.12056      8.65687     31.72878    204.04001     27.32894     22.89000    120.00000      -999.25      -999.25   3014.17427   1113.76437      -999.25     36.00000   4038.99932      1.19357      0.00000      0.00000      -999.25      -999.25      -999.25      -999.25      -999.25      -999.25      -999.25
       2449.06800   2381.67640     30.61737     27.27731     10.93987     31.62696    203.33001     27.83122     33.44000    119.00000      -999.25      -999.25   2765.51142   1029.94918      -999.25     36.00000   4035.99994      1.19263      0.00000      0.00000      -999.25      0.00000      -999.25      -999.25      -999.25      -999.25      -999.25
       2449.22040   2381.77457     28.70540     19.35281     13.40160     31.43409    202.78999     28.34896     35.08000    118.00000    129.00000    297.00000   3052.34530   1118.79183      -999.25     36.00000   4038.99932      1.19347      0.00000      0.00000      -999.25     15.90757      -999.25      -999.25      -999.25     50.30300    192.33130
       2449.37280   2381.87272     28.00192     14.23643     12.16446     31.33469    205.90000     25.23894     28.32000    141.00000      -999.25      -999.25   3328.20127   1164.65156   2998.00000     36.00000   4038.99932      1.19342      0.00000      0.00000      0.00000      -999.25      0.00000      -999.25      -999.25      -999.25      -999.25
       2449.52520   2381.97084     28.07352      9.91280     10.73840     31.18045    207.99001     23.14893     25.78000    140.00000      -999.25    279.00000   3328.76547   1169.77571      -999.25     36.00000   4040.00008      1.19366      0.00000      0.00000      -999.25      0.00000      -999.25      -999.25      -999.25     50.30300    192.33130
       2449.67760   2382.06893     23.96863     13.08134     10.50106     30.98234    204.16000     26.97894     30.18000    141.00000    187.00000      -999.25   3330.20279   1169.77571      -999.25     36.00000   4038.00001      1.19303      0.00000      0.00000      -999.25     15.90757      -999.25      -999.25      -999.25      -999.25      -999.25
       2449.83000   2382.16699     25.54754     28.63875     11.91737     30.83075    201.28998     29.81869     38.17000    141.00000      -999.25      -999.25   3305.26355   1169.77571   3090.00000     36.00000   4036.99925      1.19268      0.00000      0.00000      0.00000      -999.25      0.00000      -999.25      -999.25     50.30300    192.33130
       2449.98240   2382.26503     29.49929     19.42668     13.39813     30.68727    204.04001     27.09893     22.21000    141.00000      -999.25      -999.25   3307.59431   1149.39721      -999.25     36.00000   4036.99925      1.19264      0.00000      0.00000      -999.25     23.96333      -999.25      0.49966      2.24847      -999.25      -999.25
       2450.13480   2382.36303     26.23674     14.46622     14.42920     30.61939    199.02001     32.11893     17.70000    142.00000      -999.25    339.00000   3206.15637   1149.39721      -999.25     36.00000   4038.00001      1.19288      0.00000      0.00000      -999.25      -999.25      -999.25      -999.25      -999.25     50.34769    192.23550
