~VERSION INFORMATION 
VERS  .    2.0                                     :CWLS Log ASCII Standard - VERSION 2.0
WRAP  .    NO                                      :One Line per Depth step
PROD  .    Schlumberger Technology Corp.           :LAS Producer
PROG  .    Horizon LASWriter 8.2.104493.3100       :LAS Program name and version
SOURCE.    Run03-Drilling                          :Run&Pass Information
CREA  .    11/08/2019                              :LAS Creation date {MM/DD/YYYY}
#--------------------------------------------------
~WELL INFORMATION 
#MNEM           .UNIT                      DATA            :DESCRIPTION
#----            ------          --------------            -----------------------------
STRT            .m                   1489.86240            :START DEPTH
STOP            .m                   2794.86360            :STOP DEPTH
STEP            .m                       0.1524            :STEP
NULL            .                       -999.25            :NULL VALUE
COMP            .                      Woodside            :COMPANY
WELL            .                         PLA07            :WELL NAME
FLD             .                 Pluto/WA-34-L            :FIELD NAME
RIGN            .                    Ocean Apex            :Rig Name
RIGTYP          .                Semi-Submersible          :Rig Type
SON             .                     19AWA0002            :Service Order Number
SRVC            .                  Schlumberger            :SERVICE COMPANY
DATE            .                    06/13/2019            :LOG DATE(Composite Date for Composite LAP) (MM/DD/YYYY)
CLAB            .                       County:            :County Label
CNTY            .                                          :COUNTY
SLAB            .                        State:            :State/Province Label
STAT            .                Western Australia         :STATE or PROVINCE
PROV            .                Western Australia         :STATE or PROVINCE
CTRY            .                     Australia            :COUNTRY
CONT_REGION     .                   Australasia            :Continent Region
SECT            .                                          :Section
TOWN            .                                          :Township
RANG            .                                          :Range
API             .                                          :API NUMBER
UWI             .                     19AWA0002            :UNIQUE WELL ID
LUL             .                        Zone 1            :Logging Unit Location
LUN             .                       1010979            :Logging Unit Number
LOC             .                       WA-34-L            :FIELD LOCATION
FL1             .                N 7 797 035.31m           :Field Location Line 1
FL2             .                 E 304 456.39m            :Field Location Line 2
LATI            .deg                 -19.913224            :LATITUDE
LONG            .deg                  115.13193            :LONGITUDE
PDAT            .                         OTHER            :Local Permanent Datum
LMF             .                            DF            :Logging Measured From
APD             .m                        23.85            :Elevation of Depth Reference (LMF) Above Permanent Datum
EPD             .m                        -1.35            :Elevation of Permanent Datum (PDAT) above Mean Sea Level
EKB             .m                      -999.25            :Elevation of Kelly Bushing Above Permanent Datum
EDF             .m                        23.85            :Elevation of Drill Floor Above Permanent Datum
EGL             .m                      -830.05            :Elevation of Ground Level Above Permanent Datum
ECF             .m                      -999.25            :Elevation of Casing Flange above Permanent Datum
#--------------------------------------------------
~CURVE INFORMATION
#MNEM           .UNIT                  API CODE            :DESCRIPTION
#----            ------          --------------            -----------------------------
DEPT            .m                                         :                                                        Depth Index
TVD             .m                                         :(RT)    (DnMWorkflow)           (6in)                   True Vertical Depth
GR              .gAPI                                      :(RM)    (ARC9)                  (6in)                   Gamma Ray
ROP             .m/h                                       :(RT)    (DRILLING_SURFACE)      (6in)                   Rate of Penetration
ROP5            .m/h                                       :(RT)    (DRILLING_SURFACE)      (6in)                   Rate of penetration averaged over the last 5 ft (1.5 m)
BLKP            .m                                         :(RT)    (DRILLING_SURFACE)      (6in)                   Height of block above rig floor
HKLA            .1000 lbf                                  :(RT)    (DRILLING_SURFACE)      (6in)                   Average Hookload
SWOB            .1000 lbf                                  :(RT)    (DRILLING_SURFACE)      (6in)                   Surface Weight On Bit
STOR            .1000 ft.lbf                               :(RT)    (DRILLING_SURFACE)      (6in)                   Surface Torque
RPM             .c/min                                     :(RT)    (DRILLING_SURFACE)      (6in)                   Rotational Speed
CRPM            .c/min                                     :(RM)    (TELE900)               (6in)                   Collar Rotational Speed
STICKNSLIP      .c/min                                     :(RM)    (TELE900)               (6in)                   Stick Slip Indicator
SPPA            .psi                                       :(RT)    (DRILLING_SURFACE)      (6in)                   Standpipe Pressure
TFLO            .gal/min                                   :(RT)    (DRILLING_SURFACE)      (6in)                   Total flow rate of all active pumps
TRPM            .c/min                                     :(RM)    (TELE900)               (6in)                   MWD Turbine Rotation Speed
DHAT            .degC                                      :(RM)    (ARC9)                  (6in)                   Downhole Annulus Temperature
DHAP            .psi                                       :(RM)    (ARC9)                  (6in)                   Downhole Annulus Pressure
ECD             .g/cm3                                     :(RM)    (ARC9)                  (6in)                   Equivalent Circulating Density
COBTM           .                                          :(RT)    (DRILLING_SURFACE)      (6in)                   Composite On Bottom Status
SHKL            .                                          :(RM)    (ARC9)                  (6in)                   Tool Shock Level
SHKRSK          .                                          :(RM)    (TELE900)               (6in)                   Shock Risk
SHKPK           .gn                                        :(RM)    (TELE900)               (6in)                   Shock Peak
SHOCKS_ACC      .                                          :(RM)    (TELE900)               (6in)                   Total Shocks accumulated over tool lifetime
VIB_X           .gn                                        :(RM)    (TELE900)               (6in)                   RMS Vibration, X-Axis
VIB_LAT         .gn                                        :(RM)    (TELE900)               (6in)                   Transverse RMS Vibration
INCL_CONT       .deg                                       :(RT)    (PDXCEED_900)           (6in)                   Continuous Inclination (Hole Deviation)
AZIM_CONT       .deg                                       :(RT)    (PDXCEED_900)           (6in)                   Continuous Hole Azimuth
#-------------------------------------------------------------
#            DEPT          TVD           GR          ROP         ROP5         BLKP         HKLA         SWOB         STOR          RPM         CRPM   STICKNSLIP         SPPA         TFLO         TRPM         DHAT         DHAP          ECD        COBTM         SHKL       SHKRSK        SHKPK   SHOCKS_ACC        VIB_X      VIB_LAT    INCL_CONT    AZIM_CONT 
#                  (DnMWorkfl)       (ARC9)  (DRILLING_)  (DRILLING_)  (DRILLING_)  (DRILLING_)  (DRILLING_)  (DRILLING_)  (DRILLING_)    (TELE900)    (TELE900)  (DRILLING_)  (DRILLING_)    (TELE900)       (ARC9)       (ARC9)       (ARC9)  (DRILLING_)       (ARC9)    (TELE900)    (TELE900)    (TELE900)    (TELE900)    (TELE900)  (PDXCEED_9)  (PDXCEED_9) 
#                         (RT)         (RM)         (RT)         (RT)         (RT)         (RT)         (RT)         (RT)         (RT)         (RM)         (RM)         (RT)         (RT)         (RM)         (RM)         (RM)         (RM)         (RT)         (RM)         (RM)         (RM)         (RM)         (RM)         (RM)         (RT)         (RT) 
#                        (6in)        (6in)        (6in)        (6in)        (6in)        (6in)        (6in)        (6in)        (6in)        (6in)        (6in)        (6in)        (6in)        (6in)        (6in)        (6in)        (6in)        (6in)        (6in)        (6in)        (6in)        (6in)        (6in)        (6in)        (6in)        (6in) 
~ASCII
# ...
       1928.01240   1927.57861      8.86692     24.28901     17.41431     19.91951    187.53001     37.60156      7.54000    151.00000      -999.25      -999.25   3220.77617   1159.84680      -999.25     32.00000   3304.99959      1.20699      0.00000      0.00000      -999.25      -999.25      -999.25      -999.25      -999.25      -999.25      -999.25
       1928.16480   1927.72974     10.62796     34.95782     18.22964     19.79733    184.41999     40.71155     37.95000    149.00000      -999.25      -999.25   3189.37695   1149.85502      -999.25     32.00000   3304.99959      1.20691      0.00000      0.00000      -999.25      -999.25      -999.25      -999.25      -999.25      -999.25      -999.25
       1928.31720   1927.88086     13.73913     53.75131     20.80729     19.62492    192.14000     32.99156     34.50000    149.00000      -999.25    369.00000   3192.02534   1149.85502      -999.25     32.00000   3304.99959      1.20681      0.00000      0.00000      -999.25      -999.25      -999.25      -999.25      -999.25      -999.25      -999.25
       1928.46960   1928.03198     15.39745     68.51273     22.85110     19.53490    190.34000     37.42155     19.39000    151.00000      -999.25      -999.25   3204.95836   1154.84048      -999.25     32.00000   3304.99959      1.20669      0.00000      0.00000      -999.25      -999.25      -999.25      -999.25      -999.25      -999.25      -999.25
       1928.62200   1928.18309     17.21720     88.87138     23.50856     19.29954    194.77001     34.79157     33.81000    150.00000      -999.25      -999.25   3226.57333   1154.84048      -999.25     32.00000   3303.74646      1.20616      0.00000      0.00000      -999.25      -999.25      -999.25      -999.25      -999.25      -999.25      -999.25
       1928.77440   1928.33420     18.44259     27.22921     26.81481     19.17636    188.43000     37.66155      4.63000    151.00000    138.00000      -999.25   3186.47475   1159.84680   3164.00000     32.00000   3302.00021      1.20543      0.00000      0.00000      0.00000      0.00000      0.00000      0.87441      0.99932      -999.25      -999.25
       1928.92680   1928.48531     19.34514     20.36360     25.43904     19.03856    190.57999     36.58155     21.91000    151.00000      -999.25      -999.25   3224.08593   1159.84680      -999.25     32.00000   3303.97997      1.20606      0.00000      0.00000      -999.25      -999.25      -999.25      -999.25      -999.25      6.74273    187.91630
       1929.07920   1928.63642     18.11240     28.14064     26.09064     19.02378    191.84000     33.29157     22.61000    150.00000      -999.25      -999.25   3224.79517   1149.85502      -999.25     32.00000   3306.00035      1.20670      0.00000      0.00000      -999.25      0.00000      -999.25      -999.25      -999.25      -999.25      -999.25
       1929.23160   1928.78752     14.15005     31.14905     32.84326     18.84420    191.66001     33.47155      5.35000    151.00000      -999.25      -999.25   3162.40863   1154.84048      -999.25     32.00000   3308.00042      1.20734      0.00000      0.00000      -999.25      -999.25      -999.25      -999.25      -999.25      -999.25      -999.25
       1929.38400   1928.93862     12.67517     47.91582     36.67498     18.53094    193.03001     32.25233     29.47000    150.00000      -999.25      -999.25   3157.30476   1149.85502      -999.25     32.00000   3306.99966      1.20689      0.00000      0.00000      -999.25      -999.25      -999.25      -999.25      -999.25      -999.25      -999.25
       1929.53640   1929.08971     15.27271     43.12472     37.24231     18.41059    188.61001     36.82156     25.45000    150.00000      -999.25    366.00000   3224.85898   1149.85502      -999.25     32.00000   3306.00035      1.20646      0.00000      0.00000      -999.25      -999.25      -999.25      -999.25      -999.25      -999.25      -999.25
       1929.68880   1929.24081     22.11877     27.45702     34.68672     18.31783    188.72998     36.34448     24.89000    150.00000    139.00000      -999.25   3193.57724   1154.84048   3165.00000     32.00000   3310.00049      1.20778      0.00000      0.00000      0.00000      0.00000      0.00000      -999.25      -999.25      -999.25      -999.25
       1929.84120   1929.39190     30.02146     41.24987     35.74129     18.07118    189.09000     36.04157     20.71000    151.00000      -999.25      -999.25   3184.29338   1154.84048      -999.25     32.00000   3310.00049      1.20765      0.00000      0.00000      -999.25      -999.25      -999.25      -999.25      -999.25      -999.25      -999.25
       1929.99360   1929.54298     30.37681    106.91920     35.99598     17.91570    187.11000     38.02156     22.43000    149.00000      -999.25      -999.25   3218.12488   1154.84048      -999.25     32.00000   3308.00042      1.20683      0.00000      0.00000      -999.25      -999.25      -999.25      -999.25      -999.25      -999.25      -999.25
       1930.14600   1929.69407     25.93331     31.40434     31.15561     17.79702    184.36000     40.77156     21.85000    150.00000      -999.25      -999.25   3205.77927   1154.84048      -999.25     32.00000   3309.90621      1.20747      0.00000      0.00000      -999.25      -999.25      -999.25      -999.25      -999.25      -999.25      -999.25
       1930.29840   1929.84515     24.14711     29.64784     36.78948     17.63033    185.07999     40.05156     18.01000    151.00000      -999.25      -999.25   3230.24278   1154.84048      -999.25     32.00000   3312.99987      1.20850      0.00000      0.00000      -999.25      -999.25      -999.25      -999.25      -999.25      -999.25      -999.25
       1930.45080   1929.99622     19.38915     70.42239     39.81604     17.46425    187.29001     37.87024     15.01000    151.00000      -999.25      -999.25   3231.96003   1154.84048      -999.25     32.00000   3310.00049      1.20727      0.00000      0.00000      -999.25      0.00000      -999.25      -999.25      -999.25      -999.25      -999.25
       1930.60320   1930.14730     14.01063     39.45477     39.77153     17.33810    188.97000     36.21889     34.01000    138.00000      -999.25      -999.25   3176.99943   1149.85502      -999.25     32.00000   3310.99980      1.20753      0.00000      0.00000      -999.25      -999.25      -999.25      -999.25      -999.25      7.02982    192.89320
       1930.75560   1930.29837     19.22039     29.22435     39.15676     17.17423    190.69999     39.40157     35.54000    150.00000      -999.25    381.00000   3247.11357   1149.85502      -999.25     32.00000   3310.09911      1.20716      0.00000      0.00000      -999.25      -999.25      -999.25      -999.25      -999.25      -999.25      -999.25
       1930.90800   1930.44944     29.39775     44.28761     39.23789     17.00899    188.97000     36.16157     12.35000    151.00000      -999.25      -999.25   3193.17839   1154.84048      -999.25     32.00000   3312.00056      1.20771      0.00000      0.00000      -999.25      -999.25      -999.25      -999.25      -999.25      -999.25      -999.25
       1931.06040   1930.60050     32.44729     38.19643     38.26030     16.84496    189.38002     35.75155     17.89000    151.00000    168.00000      -999.25   3229.36821   1159.84680   3176.00000     32.00000   3312.99987      1.20800      0.00000      0.00000      0.00000      0.00000      0.00000      -999.25      -999.25      -999.25      -999.25
       1931.21280   1930.75156     27.76292     14.11107     30.88830     16.70762    191.36001     33.77156      2.49000    151.00000      -999.25      -999.25   3201.91111   1154.86135      -999.25     32.00000   3312.00056      1.20755      0.00000      0.00000      -999.25      0.00000      -999.25      1.12424      0.99932      -999.25      -999.25
       1931.36520   1930.90262     19.74137     16.70971     30.06855     16.50731    189.86001     35.27156     37.00000    150.00000      -999.25      -999.25   3205.04973   1154.84048      -999.25     32.00000   3312.99987      1.20779      0.00000      0.00000      -999.25      -999.25      -999.25      -999.25      -999.25      -999.25      -999.25
