~VERSION INFORMATION 
VERS  .    2.0                                     :CWLS Log ASCII Standard - VERSION 2.0
WRAP  .    NO                                      :One Line per Depth step
PROD  .    Schlumberger Technology Corp.           :LAS Producer
PROG  .    Horizon LASWriter 8.2.104493.3100       :LAS Program name and version
SOURCE.    Run03-Drilling                          :Run&Pass Information
CREA  .    11/08/2019                              :LAS Creation date {MM/DD/YYYY}
#--------------------------------------------------
~WELL INFORMATION 
#MNEM           .UNIT                      DATA            :DESCRIPTION
#----            ------          --------------            -----------------------------
STRT            .m                   1489.86240            :START DEPTH
STOP            .m                   2794.86360            :STOP DEPTH
STEP            .m                       0.1524            :STEP
NULL            .                       -999.25            :NULL VALUE
COMP            .                      Woodside            :COMPANY
WELL            .                         PLA07            :WELL NAME
FLD             .                 Pluto/WA-34-L            :FIELD NAME
RIGN            .                    Ocean Apex            :Rig Name
RIGTYP          .                Semi-Submersible          :Rig Type
SON             .                     19AWA0002            :Service Order Number
SRVC            .                  Schlumberger            :SERVICE COMPANY
DATE            .                    06/13/2019            :LOG DATE(Composite Date for Composite LAP) (MM/DD/YYYY)
CLAB            .                       County:            :County Label
CNTY            .                                          :COUNTY
SLAB            .                        State:            :State/Province Label
STAT            .                Western Australia         :STATE or PROVINCE
PROV            .                Western Australia         :STATE or PROVINCE
CTRY            .                     Australia            :COUNTRY
CONT_REGION     .                   Australasia            :Continent Region
SECT            .                                          :Section
TOWN            .                                          :Township
RANG            .                                          :Range
API             .                                          :API NUMBER
UWI             .                     19AWA0002            :UNIQUE WELL ID
LUL             .                        Zone 1            :Logging Unit Location
LUN             .                       1010979            :Logging Unit Number
LOC             .                       WA-34-L            :FIELD LOCATION
FL1             .                N 7 797 035.31m           :Field Location Line 1
FL2             .                 E 304 456.39m            :Field Location Line 2
LATI            .deg                 -19.913224            :LATITUDE
LONG            .deg                  115.13193            :LONGITUDE
PDAT            .                         OTHER            :Local Permanent Datum
LMF             .                            DF            :Logging Measured From
APD             .m                        23.85            :Elevation of Depth Reference (LMF) Above Permanent Datum
EPD             .m                        -1.35            :Elevation of Permanent Datum (PDAT) above Mean Sea Level
EKB             .m                      -999.25            :Elevation of Kelly Bushing Above Permanent Datum
EDF             .m                        23.85            :Elevation of Drill Floor Above Permanent Datum
EGL             .m                      -830.05            :Elevation of Ground Level Above Permanent Datum
ECF             .m                      -999.25            :Elevation of Casing Flange above Permanent Datum
#--------------------------------------------------
~CURVE INFORMATION
#MNEM           .UNIT                  API CODE            :DESCRIPTION
#----            ------          --------------            -----------------------------
DEPT            .m                                         :                                                        Depth Index
TVD             .m                                         :(RT)    (DnMWorkflow)           (6in)                   True Vertical Depth
ROP             .m/h                                       :(RT)    (DRILLING_SURFACE)      (6in)                   Rate of Penetration
ROP5            .m/h                                       :(RT)    (DRILLING_SURFACE)      (6in)                   Rate of penetration averaged over the last 5 ft (1.5 m)
GR_ARC          .gAPI                                      :(RM)    (ARC9)                  (6in)                   Gamma Ray
GR_CAL          .gAPI                                      :(RM)    (ARC9)                  (6in)                   Calibrated Gamma Ray
A16H            .ohm.m                                     :(RM)    (ARC9)                  (6in)                   Attenuation Resistivity 16 inch Spacing at 2 MHz, Environmentally Corrected
A16L            .ohm.m                                     :(RM)    (ARC9)                  (6in)                   Attenuation Resistivity 16 inch Spacing at 400 KHz, Environmentally Corrected
A22H            .ohm.m                                     :(RM)    (ARC9)                  (6in)                   Attenuation Resistivity 22 inch Spacing at 2 MHz, Environmentally Corrected
A22L            .ohm.m                                     :(RM)    (ARC9)                  (6in)                   Attenuation Resistivity 22 inch Spacing at 400 KHz, Environmentally Corrected
A28H            .ohm.m                                     :(RM)    (ARC9)                  (6in)                   Attenuation Resistivity 28 inch Spacing at 2 MHz, Environmentally Corrected
A28L            .ohm.m                                     :(RM)    (ARC9)                  (6in)                   Attenuation Resistivity 28 inch Spacing at 400 KHz, Environmentally Corrected
A34H            .ohm.m                                     :(RM)    (ARC9)                  (6in)                   Attenuation Resistivity 34 inch Spacing at 2 MHz, Environmentally Corrected
A34L            .ohm.m                                     :(RM)    (ARC9)                  (6in)                   Attenuation Resistivity 34 inch Spacing at 400 KHz, Environmentally Corrected
A40H            .ohm.m                                     :(RM)    (ARC9)                  (6in)                   Attenuation Resistivity 40 inch Spacing at 2 MHz, Environmentally Corrected.
A40L            .ohm.m                                     :(RM)    (ARC9)                  (6in)                   Attenuation Resistivity 40 inch Spacing at 400 KHz, Environmentally Corrected
P16H            .ohm.m                                     :(RM)    (ARC9)                  (6in)                   Phase Shift Resistivity 16 inch Spacing at 2 MHz, Environmentally Corrected.
P16L            .ohm.m                                     :(RM)    (ARC9)                  (6in)                   Phase Shift Resistivity 16 inch Spacing at 400 KHz, Environmentally Corrected.
P22H            .ohm.m                                     :(RM)    (ARC9)                  (6in)                   Phase Shift Resistivity 22 inch Spacing at 2 MHz, Environmentally Corrected.
P22L            .ohm.m                                     :(RM)    (ARC9)                  (6in)                   Phase Shift Resistivity 22 inch Spacing at 400 KHz, Environmentally Corrected.
P28H            .ohm.m                                     :(RM)    (ARC9)                  (6in)                   Phase Shift Resistivity 28 inch Spacing at 2 MHz, Environmentally Corrected.
P28L            .ohm.m                                     :(RM)    (ARC9)                  (6in)                   Phase Shift Resistivity 28 inch Spacing at 400 KHz, Environmentally Corrected.
P34H            .ohm.m                                     :(RM)    (ARC9)                  (6in)                   Phase Shift Resistivity 34 inch Spacing at 2 MHz, Environmentally Corrected.
P34L            .ohm.m                                     :(RM)    (ARC9)                  (6in)                   Phase Shift Resistivity 34 inch Spacing at 400 KHz, Environmentally Corrected.
P40H            .ohm.m                                     :(RM)    (ARC9)                  (6in)                   Phase Shift Resistivity 40 inch Spacing at 2 MHz, Environmentally Corrected.
P40L            .ohm.m                                     :(RM)    (ARC9)                  (6in)                   Phase Shift Resistivity 40 inch Spacing at 400 KHz, Environmentally Corrected.
TAB_RES         .h                                         :        (ARC9)                  (6in)                   Resistivity Time After Bit
DHAT            .degC                                      :(RM)    (ARC9)                  (6in)                   Downhole Annulus Temperature
DHAP            .psi                                       :(RM)    (ARC9)                  (6in)                   Downhole Annulus Pressure
ECD             .g/cm3                                     :(RM)    (ARC9)                  (6in)                   Equivalent Circulating Density
TICKS_GR        .                                          :(RM)    (ARC9)                  (1.2in)                 Gamma Ray Tick Marks
TICKS_RES       .                                          :(RM)    (ARC9)                  (1.2in)                 Resistivity Tick Marks
#-------------------------------------------------------------
#            DEPT          TVD          ROP         ROP5       GR_ARC       GR_CAL         A16H         A16L         A22H         A22L         A28H         A28L         A34H         A34L         A40H         A40L         P16H         P16L         P22H         P22L         P28H         P28L         P34H         P34L         P40H         P40L      TAB_RES         DHAT         DHAP          ECD     TICKS_GR    TICKS_RES 
#                  (DnMWorkfl)  (DRILLING_)  (DRILLING_)       (ARC9)       (ARC9)       (ARC9)       (ARC9)       (ARC9)       (ARC9)       (ARC9)       (ARC9)       (ARC9)       (ARC9)       (ARC9)       (ARC9)       (ARC9)       (ARC9)       (ARC9)       (ARC9)       (ARC9)       (ARC9)       (ARC9)       (ARC9)       (ARC9)       (ARC9)       (ARC9)       (ARC9)       (ARC9)       (ARC9)       (ARC9)       (ARC9) 
#                         (RT)         (RT)         (RT)         (RM)         (RM)         (RM)         (RM)         (RM)         (RM)         (RM)         (RM)         (RM)         (RM)         (RM)         (RM)         (RM)         (RM)         (RM)         (RM)         (RM)         (RM)         (RM)         (RM)         (RM)         (RM)                      (RM)         (RM)         (RM)         (RM)         (RM) 
#                        (6in)        (6in)        (6in)        (6in)        (6in)        (6in)        (6in)        (6in)        (6in)        (6in)        (6in)        (6in)        (6in)        (6in)        (6in)        (6in)        (6in)        (6in)        (6in)        (6in)        (6in)        (6in)        (6in)        (6in)        (6in)        (6in)        (6in)        (6in)        (6in)      (1.2in)      (1.2in) 
~ASCII
# ...
       2608.47840   2481.94113     10.03407     12.15279     10.99784     75.00459      1.02041      1.16621      1.17185      1.24719      1.28195      1.29537      1.32981      1.31713      1.34453      1.32976      1.35939      1.24592      1.41898      1.31743      1.44212      1.37188      1.44000      1.39603      1.45249      1.40585      1.01943     38.00000   4370.99940      1.23939      1.00000      1.00000
       2608.63080   2482.03517      9.75730     12.03822     11.88536     75.54027      1.02513      1.18908      1.18400      1.26253      1.29520      1.31022      1.34006      1.33274      1.35418      1.34240      1.41339      1.26306      1.45094      1.33335      1.46039      1.39458      1.46829      1.42747      1.50583      1.43950      1.01194     38.00000   4372.99947      1.23991      -999.25      -999.25
       2608.78320   2482.12919     10.86479     11.23322     14.78748     77.29189      1.03674      1.20143      1.20832      1.27293      1.32752      1.31775      1.37092      1.34208      1.37925      1.35846      1.43406      1.28787      1.47171      1.36293      1.48474      1.42452      1.49221      1.45434      1.52089      1.46469      1.00138     38.00000   4372.99947      1.23988      1.00000      -999.25
       2608.93560   2482.22321     10.63536     10.73634     14.36464     77.03667      1.04765      1.20522      1.23135      1.28386      1.35258      1.33489      1.39207      1.35895      1.40068      1.36941      1.44040      1.30429      1.48911      1.38567      1.50467      1.44672      1.50294      1.46938      1.51913      1.47345      0.99498     39.00000   4374.99954      1.24039      1.00000      1.00000
       2609.08800   2482.31722      9.42172     10.34251     15.01184     77.42730      1.02810      1.21287      1.23136      1.28784      1.36730      1.33425      1.40964      1.35338      1.41555      1.36010      1.45054      1.30693      1.49569      1.39185      1.50795      1.45598      1.50404      1.47744      1.51825      1.47679      0.98415     39.00000   4374.99954      1.24034      -999.25      1.00000
       2609.24040   2482.41122     10.29929     10.51739     21.21843     81.17338      1.05224      1.21851      1.24035      1.29292      1.36569      1.33756      1.40815      1.35625      1.41895      1.36472      1.45300      1.30144      1.49058      1.38674      1.49935      1.45104      1.49407      1.47646      1.50525      1.48365      0.98026     39.00000   4374.00023      1.24003      1.00000      1.00000
       2609.39280   2482.50521      9.83039      9.99912     23.35017     82.46002      1.03071      1.21889      1.23049      1.28932      1.36464      1.33806      1.41277      1.36008      1.42974      1.36509      1.45812      1.29733      1.48146      1.38371      1.48609      1.44961      1.48478      1.47364      1.49735      1.47606      0.96485     39.00000   4372.99947      1.23970      -999.25      1.00000
       2609.54520   2482.59919      8.56572      9.54664     21.11653     81.11188      1.04967      1.22436      1.23436      1.29065      1.36393      1.33605      1.41268      1.35810      1.42394      1.36589      1.43965      1.29446      1.47017      1.37967      1.46878      1.44684      1.46456      1.47420      1.49149      1.47930      0.95138     39.00000   4376.00030      1.24048      -999.25      -999.25
       2609.69760   2482.69316     10.33987     10.07502     21.02104     81.05424      1.05665      1.22093      1.23805      1.29375      1.35894      1.34259      1.40080      1.36160      1.41222      1.36265      1.41361      1.29421      1.46400      1.37877      1.48147      1.44482      1.48100      1.47025      1.49850      1.47311      0.94513     39.00000   4376.00030      1.24045      1.00000      1.00000
       2609.85000   2482.78713     12.48782     10.19514     18.13402     79.31174      1.04512      1.20960      1.22933      1.28131      1.35254      1.32982      1.39454      1.35272      1.40466      1.36053      1.41397      1.28782      1.47237      1.37289      1.49741      1.44031      1.49894      1.46635      1.51362      1.46826      0.96513     39.00000   4378.99968      1.24124      1.00000      1.00000
       2610.00240   2482.88108     13.44203     10.61548     13.06998     76.25526      0.98442      1.17388      1.17483      1.25843      1.30665      1.31378      1.35378      1.33848      1.36804      1.34703      1.43300      1.25891      1.46284      1.33990      1.47044      1.40492      1.46534      1.42991      1.47083      1.43020      1.22400     38.00000   4374.99954      1.24007      1.00000      1.00000
       2610.15480   2482.97503     14.14802     10.90218     12.41616     75.86064      0.94969      1.15643      1.13664      1.24423      1.27276      1.30120      1.32045      1.32760      1.33320      1.33881      1.38500      1.22075      1.41528      1.30271      1.42119      1.36624      1.41660      1.39301      1.42699      1.40091      1.24650     38.00000   4372.99947      1.23947      1.00000      1.00000
       2610.30720   2483.06896     10.92360     10.62666     16.50417     78.32802      0.95182      1.14112      1.13268      1.23326      1.26432      1.29276      1.31193      1.32129      1.32625      1.33513      1.34583      1.20119      1.38538      1.28430      1.39398      1.34615      1.38827      1.37224      1.40083      1.38349      1.27498     39.00000   4376.99961      1.24053      1.00000      1.00000
       2610.45960   2483.16289     10.36762     10.84477     20.33399     80.63956      0.95049      1.13306      1.13200      1.22273      1.26203      1.27920      1.30715      1.30532      1.32085      1.31816      1.29635      1.17344      1.34378      1.26025      1.35758      1.32373      1.35459      1.34910      1.37073      1.35974      1.30970     39.00000   4372.00016      1.23906      1.00000      1.00000
       2610.61200   2483.25681     15.56033     11.66473     21.64785     81.43256      0.94413      1.11793      1.12540      1.20668      1.25363      1.26314      1.29501      1.29019      1.30631      1.30408      1.26833      1.15500      1.31821      1.23827      1.33437      1.30084      1.32828      1.32530      1.33569      1.33212      1.32775     39.00000   4374.00023      1.23958      1.00000      1.00000
       2610.76440   2483.35072     21.57000     12.18566     22.27257     81.80962      0.93047      1.10148      1.10607      1.19237      1.23670      1.25104      1.28384      1.27933      1.29906      1.29333      1.27109      1.14522      1.31220      1.22442      1.32428      1.28493      1.31530      1.30770      1.31541      1.31093      1.34553     39.00000   4378.99968      1.24096      1.00000      1.00000
       2610.91680   2483.44462     23.64542     13.54247     21.29759     81.22116      0.89587      1.07894      1.06568      1.17239      1.19946      1.23155      1.24872      1.26152      1.26384      1.27956      1.32038      1.14404      1.33548      1.21340      1.33162      1.27008      1.31858      1.29517      1.31527      1.30005      1.36124     39.00000   4376.99961      1.24034      1.00000      1.00000
       2611.06920   2483.53851     15.37661     13.94280     21.16190     81.13926      0.86487      1.05958      1.03270      1.15213      1.16930      1.21138      1.21652      1.24316      1.22795      1.26377      1.33846      1.13623      1.35590      1.20729      1.35208      1.26332      1.34199      1.28783      1.34714      1.29474      1.44636     39.00000   4378.00037      1.24058      1.00000      1.00000
       2611.22160   2483.63239     10.27550     13.52028     21.77979     81.51220      0.89369      1.05964      1.05697      1.15166      1.18281      1.20788      1.22238      1.23537      1.22785      1.25282      1.32147      1.14182      1.34990      1.21389      1.35344      1.26689      1.34790      1.28779      1.35910      1.29478      1.45372     39.00000   4374.99954      1.23969      1.00000      1.00000
       2611.37400   2483.72627     10.00964     13.21236     20.19445     80.55534      0.90251      1.06035      1.07408      1.14972      1.20153      1.20351      1.23643      1.22957      1.23644      1.24661      1.30707      1.13450      1.34066      1.21256      1.34417      1.26960      1.33803      1.29049      1.35367      1.29575      1.45304     39.00000   4378.99968      1.24077      1.00000      1.00000
