~VERSION INFORMATION 
VERS  .    2.0                                     :CWLS Log ASCII Standard - VERSION 2.0
WRAP  .    NO                                      :One Line per Depth step
PROD  .    Schlumberger Technology Corp.           :LAS Producer
PROG  .    Horizon LASWriter 8.2.104493.3100       :LAS Program name and version
SOURCE.    Run03-Drilling                          :Run&Pass Information
CREA  .    11/08/2019                              :LAS Creation date {MM/DD/YYYY}
#--------------------------------------------------
~WELL INFORMATION 
#MNEM           .UNIT                      DATA            :DESCRIPTION
#----            ------          --------------            -----------------------------
STRT            .m                   1489.86240            :START DEPTH
STOP            .m                   2794.86360            :STOP DEPTH
STEP            .m                       0.1524            :STEP
NULL            .                       -999.25            :NULL VALUE
COMP            .                      Woodside            :COMPANY
WELL            .                         PLA07            :WELL NAME
FLD             .                 Pluto/WA-34-L            :FIELD NAME
RIGN            .                    Ocean Apex            :Rig Name
RIGTYP          .                Semi-Submersible          :Rig Type
SON             .                     19AWA0002            :Service Order Number
SRVC            .                  Schlumberger            :SERVICE COMPANY
DATE            .                    06/13/2019            :LOG DATE(Composite Date for Composite LAP) (MM/DD/YYYY)
CLAB            .                       County:            :County Label
CNTY            .                                          :COUNTY
SLAB            .                        State:            :State/Province Label
STAT            .                Western Australia         :STATE or PROVINCE
PROV            .                Western Australia         :STATE or PROVINCE
CTRY            .                     Australia            :COUNTRY
CONT_REGION     .                   Australasia            :Continent Region
SECT            .                                          :Section
TOWN            .                                          :Township
RANG            .                                          :Range
API             .                                          :API NUMBER
UWI             .                     19AWA0002            :UNIQUE WELL ID
LUL             .                        Zone 1            :Logging Unit Location
LUN             .                       1010979            :Logging Unit Number
LOC             .                       WA-34-L            :FIELD LOCATION
FL1             .                N 7 797 035.31m           :Field Location Line 1
FL2             .                 E 304 456.39m            :Field Location Line 2
LATI            .deg                 -19.913224            :LATITUDE
LONG            .deg                  115.13193            :LONGITUDE
PDAT            .                         OTHER            :Local Permanent Datum
LMF             .                            DF            :Logging Measured From
APD             .m                        23.85            :Elevation of Depth Reference (LMF) Above Permanent Datum
EPD             .m                        -1.35            :Elevation of Permanent Datum (PDAT) above Mean Sea Level
EKB             .m                      -999.25            :Elevation of Kelly Bushing Above Permanent Datum
EDF             .m                        23.85            :Elevation of Drill Floor Above Permanent Datum
EGL             .m                      -830.05            :Elevation of Ground Level Above Permanent Datum
ECF             .m                      -999.25            :Elevation of Casing Flange above Permanent Datum
#--------------------------------------------------
~CURVE INFORMATION
#MNEM           .UNIT                  API CODE            :DESCRIPTION
#----            ------          --------------            -----------------------------
DEPT            .m                                         :                                                        Depth Index
TVD             .m                                         :(RT)    (DnMWorkflow)           (6in)                   True Vertical Depth
GR              .gAPI                                      :(RM)    (ARC9)                  (6in)                   Gamma Ray
ROP             .m/h                                       :(RT)    (DRILLING_SURFACE)      (6in)                   Rate of Penetration
ROP5            .m/h                                       :(RT)    (DRILLING_SURFACE)      (6in)                   Rate of penetration averaged over the last 5 ft (1.5 m)
BLKP            .m                                         :(RT)    (DRILLING_SURFACE)      (6in)                   Height of block above rig floor
HKLA            .1000 lbf                                  :(RT)    (DRILLING_SURFACE)      (6in)                   Average Hookload
SWOB            .1000 lbf                                  :(RT)    (DRILLING_SURFACE)      (6in)                   Surface Weight On Bit
STOR            .1000 ft.lbf                               :(RT)    (DRILLING_SURFACE)      (6in)                   Surface Torque
RPM             .c/min                                     :(RT)    (DRILLING_SURFACE)      (6in)                   Rotational Speed
CRPM            .c/min                                     :(RM)    (TELE900)               (6in)                   Collar Rotational Speed
STICKNSLIP      .c/min                                     :(RM)    (TELE900)               (6in)                   Stick Slip Indicator
SPPA            .psi                                       :(RT)    (DRILLING_SURFACE)      (6in)                   Standpipe Pressure
TFLO            .gal/min                                   :(RT)    (DRILLING_SURFACE)      (6in)                   Total flow rate of all active pumps
TRPM            .c/min                                     :(RM)    (TELE900)               (6in)                   MWD Turbine Rotation Speed
DHAT            .degC                                      :(RM)    (ARC9)                  (6in)                   Downhole Annulus Temperature
DHAP            .psi                                       :(RM)    (ARC9)                  (6in)                   Downhole Annulus Pressure
ECD             .g/cm3                                     :(RM)    (ARC9)                  (6in)                   Equivalent Circulating Density
COBTM           .                                          :(RT)    (DRILLING_SURFACE)      (6in)                   Composite On Bottom Status
SHKL            .                                          :(RM)    (ARC9)                  (6in)                   Tool Shock Level
SHKRSK          .                                          :(RM)    (TELE900)               (6in)                   Shock Risk
SHKPK           .gn                                        :(RM)    (TELE900)               (6in)                   Shock Peak
SHOCKS_ACC      .                                          :(RM)    (TELE900)               (6in)                   Total Shocks accumulated over tool lifetime
VIB_X           .gn                                        :(RM)    (TELE900)               (6in)                   RMS Vibration, X-Axis
VIB_LAT         .gn                                        :(RM)    (TELE900)               (6in)                   Transverse RMS Vibration
INCL_CONT       .deg                                       :(RT)    (PDXCEED_900)           (6in)                   Continuous Inclination (Hole Deviation)
AZIM_CONT       .deg                                       :(RT)    (PDXCEED_900)           (6in)                   Continuous Hole Azimuth
#-------------------------------------------------------------
#            DEPT          TVD           GR          ROP         ROP5         BLKP         HKLA         SWOB         STOR          RPM         CRPM   STICKNSLIP         SPPA         TFLO         TRPM         DHAT         DHAP          ECD        COBTM         SHKL       SHKRSK        SHKPK   SHOCKS_ACC        VIB_X      VIB_LAT    INCL_CONT    AZIM_CONT 
#                  (DnMWorkfl)       (ARC9)  (DRILLING_)  (DRILLING_)  (DRILLING_)  (DRILLING_)  (DRILLING_)  (DRILLING_)  (DRILLING_)    (TELE900)    (TELE900)  (DRILLING_)  (DRILLING_)    (TELE900)       (ARC9)       (ARC9)       (ARC9)  (DRILLING_)       (ARC9)    (TELE900)    (TELE900)    (TELE900)    (TELE900)    (TELE900)  (PDXCEED_9)  (PDXCEED_9) 
#                         (RT)         (RM)         (RT)         (RT)         (RT)         (RT)         (RT)         (RT)         (RT)         (RM)         (RM)         (RT)         (RT)         (RM)         (RM)         (RM)         (RM)         (RT)         (RM)         (RM)         (RM)         (RM)         (RM)         (RM)         (RT)         (RT) 
#                        (6in)        (6in)        (6in)        (6in)        (6in)        (6in)        (6in)        (6in)        (6in)        (6in)        (6in)        (6in)        (6in)        (6in)        (6in)        (6in)        (6in)        (6in)        (6in)        (6in)        (6in)        (6in)        (6in)        (6in)        (6in)        (6in) 
~ASCII
# ...
       2015.64240   2014.01464     30.40535     18.62642     44.21399     14.46621    192.61999     23.51272     14.81000    148.00000      -999.25      -999.25   3338.85284   1164.87426      -999.25     31.00000   3451.00037      1.20613      0.00000      0.00000      -999.25      0.00000      -999.25      -999.25      -999.25      -999.25      -999.25
       2015.79480   2014.16419     32.65675     10.05572     29.92044     14.33806    194.05000     23.69273     14.10000    148.00000    150.00000    114.00000   3334.52057   1159.88880   3211.00000     31.00000   3449.00030      1.20535      0.00000      0.00000      0.00000      0.00000      0.00000      -999.25      -999.25      -999.25      -999.25
       2015.94720   2014.31374     28.67594     10.22987     25.16138     14.23288    192.50000     25.92795     15.13000    148.00000      -999.25      -999.25   3336.70629   1159.88880      -999.25     31.00000   3451.99968      1.20635      0.00000      0.00000      -999.25      -999.25      -999.25      -999.25      -999.25     10.52440    188.90460
       2016.09960   2014.46328     30.74659     17.36469     23.73320     13.94834    189.19999     29.26273     22.87000    148.00000      -999.25      -999.25   3337.63598   1159.88880      -999.25     31.00000   3451.99968      1.20625      0.00000      0.00000      -999.25      -999.25      -999.25      -999.25      -999.25      -999.25      -999.25
       2016.25200   2014.61281     37.20858     29.60060     23.00504     13.83160    191.53999     26.92272     25.49000    148.00000      -999.25      -999.25   3336.59606   1159.88880      -999.25     31.00000   3449.99961      1.20545      0.00000      0.00000      -999.25      0.00000      -999.25      0.62458      0.74949     10.52440    188.90460
       2016.40440   2014.76233     36.17383     31.31893     21.89509     13.66764    192.80000     25.66271     19.18000    148.00000      -999.25      -999.25   3330.89752   1159.88880      -999.25     31.00000   3453.00044      1.20637      0.00000      0.00000      -999.25      -999.25      -999.25      -999.25      -999.25      -999.25      -999.25
       2016.55680   2014.91185     30.24542     32.17089     21.23145     13.54909    196.80000     21.66272     18.34000    148.00000      -999.25    168.00000   3333.62133   1159.88880      -999.25     32.00000   3453.00044      1.20630      0.00000      0.00000      -999.25      -999.25      -999.25      -999.25      -999.25      -999.25      -999.25
       2016.70920   2015.06137     29.31288     35.22884     20.62433     13.39241    195.67000     22.79271     18.27000    148.00000    139.00000      -999.25   3319.44099   1159.88880   3208.00000     32.00000   3453.99975      1.20660      0.00000      0.00000      0.00000      0.00000      0.00000      -999.25      -999.25      -999.25      -999.25
       2016.86160   2015.21088     35.55665     39.42410     20.68916     13.31561    192.14000     21.78273     25.37000    148.00000      -999.25      -999.25   3326.74509   1159.88880      -999.25     32.00000   3453.00044      1.20611      0.00000      0.00000      -999.25      -999.25      -999.25      -999.25      -999.25     10.71127    190.51730
       2017.01400   2015.36038     41.28373     62.66675     21.43101     12.99068    197.58000     20.88272     22.36000    148.00000      -999.25      -999.25   3327.35280   1159.88880      -999.25     32.00000   3451.99968      1.20567      0.00000      0.00000      -999.25      -999.25      -999.25      -999.25      -999.25      -999.25      -999.25
       2017.16640   2015.50988     41.00429     83.33685     25.00190     12.97222    196.68001     21.78273     14.79000    148.00000      -999.25      -999.25   3318.12695   1159.88880      -999.25     32.00000   3451.99968      1.20558      0.00000      0.00000      -999.25      -999.25      -999.25      -999.25      -999.25      -999.25      -999.25
       2017.31880   2015.65937     37.30716     71.95678     33.83907     12.71794    197.88000     20.58272     15.12000    148.00000      -999.25      -999.25   3324.68411   1159.88880      -999.25     32.00000   3451.99968      1.20550      0.00000      0.00000      -999.25      -999.25      -999.25      -999.25      -999.25      -999.25      -999.25
       2017.47120   2015.80885     32.42053     46.54203     40.41457     12.60300    196.39001     22.07273     18.52000    148.00000      -999.25      -999.25   3327.57471   1159.88880      -999.25     32.00000   3451.99968      1.20545      0.00000      0.00000      -999.25      -999.25      -999.25      -999.25      -999.25      -999.25      -999.25
       2017.62360   2015.95833     27.41581     29.68222     40.36807     12.45502    194.05000     24.41271     17.44000    148.00000      -999.25      -999.25   3321.70793   1159.88880      -999.25     32.00000   3451.99968      1.20535      0.00000      0.00000      -999.25      0.00000      -999.25      -999.25      -999.25      -999.25      -999.25
       2017.77600   2016.10780     24.84702     20.47843     36.03175     12.27079    198.96000     23.93272     13.06000    148.00000      -999.25     48.00000   3316.58085   1159.88880      -999.25     32.00000   3451.99968      1.20522      0.00000      0.00000      -999.25      -999.25      -999.25      -999.25      -999.25     10.71127    181.67150
       2017.92840   2016.25727     24.44840     20.16701     35.33154     12.15660    198.84001     19.62272     11.88000    148.00000    141.00000      -999.25   3315.54963   1159.88880   3200.00000     32.00000   3451.99968      1.20517      0.00000      0.00000      0.00000      0.00000      0.00000      -999.25      -999.25      -999.25      -999.25
       2018.08080   2016.40673     24.75844     25.42279     34.00960     11.95277    194.77001     23.69273     22.92000    148.00000      -999.25      -999.25   3313.37407   1159.88880      -999.25     32.00000   3453.00044      1.20542      0.00000      0.00000      -999.25      -999.25      -999.25      -999.25      -999.25      -999.25      -999.25
       2018.23320   2016.55618     27.94728     28.08929     33.61761     11.76403    197.93999     20.52272     16.22000    148.00000      -999.25      -999.25   3313.07094   1159.88880      -999.25     32.00000   3453.00044      1.20534      0.00000      0.00000      -999.25      -999.25      -999.25      -999.25      -999.25      -999.25      -999.25
       2018.38560   2016.70563     33.20003     24.65616     30.82425     11.78505    195.07001     23.39272     19.19000    148.00000      -999.25      -999.25   3307.37530   1164.87426      -999.25     32.00000   3453.00044      1.20530      0.00000      0.00000      -999.25      0.00000      -999.25      -999.25      -999.25      -999.25      -999.25
       2018.53800   2016.85507     34.49490     25.49166     29.06932     11.50577    194.83002     23.57273     21.26000    148.00000      -999.25      -999.25   3290.06505   1164.89513      -999.25     32.00000   3453.99975      1.20552      0.00000      0.00000      -999.25      -999.25      -999.25      -999.25      -999.25     10.89498    189.27500
       2018.69040   2017.00450     32.73969     24.30014     26.12843     11.46403    195.97001     22.49273     17.80000    148.00000    150.00000     87.00000   3292.00856   1159.88880   3189.00000     32.00000   3455.99983      1.20612      0.00000      0.00000      0.00000      0.00000      0.00000      0.49966      0.74949      -999.25      -999.25
       2018.84280   2017.15393     36.61933     21.56941     24.45378     11.21441    196.45000     22.12074     20.83000    148.00000      -999.25      -999.25   3299.86380   1159.88880      -999.25     32.00000   3455.00052      1.20568      0.00000      0.00000      -999.25      -999.25      -999.25      -999.25      -999.25      -999.25      -999.25
       2018.99520   2017.30336     43.28624     27.90615     24.30596     11.04219    192.14000     26.32273     19.40000    148.00000      -999.25      -999.25   3287.60956   1159.88880      -999.25     32.00000   3455.99983      1.20591      0.00000      0.00000      -999.25      -999.25      -999.25      -999.25      -999.25     10.71127    187.53730
