~VERSION INFORMATION 
VERS  .    2.0                                     :CWLS Log ASCII Standard - VERSION 2.0
WRAP  .    NO                                      :One Line per Depth step
PROD  .    Schlumberger Technology Corp.           :LAS Producer
PROG  .    Horizon LASWriter 8.2.104493.3100       :LAS Program name and version
SOURCE.    Run03-Drilling                          :Run&Pass Information
CREA  .    11/08/2019                              :LAS Creation date {MM/DD/YYYY}
#--------------------------------------------------
~WELL INFORMATION 
#MNEM           .UNIT                      DATA            :DESCRIPTION
#----            ------          --------------            -----------------------------
STRT            .m                   1489.86240            :START DEPTH
STOP            .m                   2794.86360            :STOP DEPTH
STEP            .m                       0.1524            :STEP
NULL            .                       -999.25            :NULL VALUE
COMP            .                      Woodside            :COMPANY
WELL            .                         PLA07            :WELL NAME
FLD             .                 Pluto/WA-34-L            :FIELD NAME
RIGN            .                    Ocean Apex            :Rig Name
RIGTYP          .                Semi-Submersible          :Rig Type
SON             .                     19AWA0002            :Service Order Number
SRVC            .                  Schlumberger            :SERVICE COMPANY
DATE            .                    06/13/2019            :LOG DATE(Composite Date for Composite LAP) (MM/DD/YYYY)
CLAB            .                       County:            :County Label
CNTY            .                                          :COUNTY
SLAB            .                        State:            :State/Province Label
STAT            .                Western Australia         :STATE or PROVINCE
PROV            .                Western Australia         :STATE or PROVINCE
CTRY            .                     Australia            :COUNTRY
CONT_REGION     .                   Australasia            :Continent Region
SECT            .                                          :Section
TOWN            .                                          :Township
RANG            .                                          :Range
API             .                                          :API NUMBER
UWI             .                     19AWA0002            :UNIQUE WELL ID
LUL             .                        Zone 1            :Logging Unit Location
LUN             .                       1010979            :Logging Unit Number
LOC             .                       WA-34-L            :FIELD LOCATION
FL1             .                N 7 797 035.31m           :Field Location Line 1
FL2             .                 E 304 456.39m            :Field Location Line 2
LATI            .deg                 -19.913224            :LATITUDE
LONG            .deg                  115.13193            :LONGITUDE
PDAT            .                         OTHER            :Local Permanent Datum
LMF             .                            DF            :Logging Measured From
APD             .m                        23.85            :Elevation of Depth Reference (LMF) Above Permanent Datum
EPD             .m                        -1.35            :Elevation of Permanent Datum (PDAT) above Mean Sea Level
EKB             .m                      -999.25            :Elevation of Kelly Bushing Above Permanent Datum
EDF             .m                        23.85            :Elevation of Drill Floor Above Permanent Datum
EGL             .m                      -830.05            :Elevation of Ground Level Above Permanent Datum
ECF             .m                      -999.25            :Elevation of Casing Flange above Permanent Datum
#--------------------------------------------------
~CURVE INFORMATION
#MNEM           .UNIT                  API CODE            :DESCRIPTION
#----            ------          --------------            -----------------------------
DEPT            .m                                         :                                                        Depth Index
TVD             .m                                         :(RT)    (DnMWorkflow)           (6in)                   True Vertical Depth
GR              .gAPI                                      :(RM)    (ARC9)                  (6in)                   Gamma Ray
ROP             .m/h                                       :(RT)    (DRILLING_SURFACE)      (6in)                   Rate of Penetration
ROP5            .m/h                                       :(RT)    (DRILLING_SURFACE)      (6in)                   Rate of penetration averaged over the last 5 ft (1.5 m)
BLKP            .m                                         :(RT)    (DRILLING_SURFACE)      (6in)                   Height of block above rig floor
HKLA            .1000 lbf                                  :(RT)    (DRILLING_SURFACE)      (6in)                   Average Hookload
SWOB            .1000 lbf                                  :(RT)    (DRILLING_SURFACE)      (6in)                   Surface Weight On Bit
STOR            .1000 ft.lbf                               :(RT)    (DRILLING_SURFACE)      (6in)                   Surface Torque
RPM             .c/min                                     :(RT)    (DRILLING_SURFACE)      (6in)                   Rotational Speed
CRPM            .c/min                                     :(RM)    (TELE900)               (6in)                   Collar Rotational Speed
STICKNSLIP      .c/min                                     :(RM)    (TELE900)               (6in)                   Stick Slip Indicator
SPPA            .psi                                       :(RT)    (DRILLING_SURFACE)      (6in)                   Standpipe Pressure
TFLO            .gal/min                                   :(RT)    (DRILLING_SURFACE)      (6in)                   Total flow rate of all active pumps
TRPM            .c/min                                     :(RM)    (TELE900)               (6in)                   MWD Turbine Rotation Speed
DHAT            .degC                                      :(RM)    (ARC9)                  (6in)                   Downhole Annulus Temperature
DHAP            .psi                                       :(RM)    (ARC9)                  (6in)                   Downhole Annulus Pressure
ECD             .g/cm3                                     :(RM)    (ARC9)                  (6in)                   Equivalent Circulating Density
COBTM           .                                          :(RT)    (DRILLING_SURFACE)      (6in)                   Composite On Bottom Status
SHKL            .                                          :(RM)    (ARC9)                  (6in)                   Tool Shock Level
SHKRSK          .                                          :(RM)    (TELE900)               (6in)                   Shock Risk
SHKPK           .gn                                        :(RM)    (TELE900)               (6in)                   Shock Peak
SHOCKS_ACC      .                                          :(RM)    (TELE900)               (6in)                   Total Shocks accumulated over tool lifetime
VIB_X           .gn                                        :(RM)    (TELE900)               (6in)                   RMS Vibration, X-Axis
VIB_LAT         .gn                                        :(RM)    (TELE900)               (6in)                   Transverse RMS Vibration
INCL_CONT       .deg                                       :(RT)    (PDXCEED_900)           (6in)                   Continuous Inclination (Hole Deviation)
AZIM_CONT       .deg                                       :(RT)    (PDXCEED_900)           (6in)                   Continuous Hole Azimuth
#-------------------------------------------------------------
#            DEPT          TVD           GR          ROP         ROP5         BLKP         HKLA         SWOB         STOR          RPM         CRPM   STICKNSLIP         SPPA         TFLO         TRPM         DHAT         DHAP          ECD        COBTM         SHKL       SHKRSK        SHKPK   SHOCKS_ACC        VIB_X      VIB_LAT    INCL_CONT    AZIM_CONT 
#                  (DnMWorkfl)       (ARC9)  (DRILLING_)  (DRILLING_)  (DRILLING_)  (DRILLING_)  (DRILLING_)  (DRILLING_)  (DRILLING_)    (TELE900)    (TELE900)  (DRILLING_)  (DRILLING_)    (TELE900)       (ARC9)       (ARC9)       (ARC9)  (DRILLING_)       (ARC9)    (TELE900)    (TELE900)    (TELE900)    (TELE900)    (TELE900)  (PDXCEED_9)  (PDXCEED_9) 
#                         (RT)         (RM)         (RT)         (RT)         (RT)         (RT)         (RT)         (RT)         (RT)         (RM)         (RM)         (RT)         (RT)         (RM)         (RM)         (RM)         (RM)         (RT)         (RM)         (RM)         (RM)         (RM)         (RM)         (RM)         (RT)         (RT) 
#                        (6in)        (6in)        (6in)        (6in)        (6in)        (6in)        (6in)        (6in)        (6in)        (6in)        (6in)        (6in)        (6in)        (6in)        (6in)        (6in)        (6in)        (6in)        (6in)        (6in)        (6in)        (6in)        (6in)        (6in)        (6in)        (6in) 
~ASCII
# ...
       2790.29160   2590.13089      -999.25      4.45145      6.22720     29.63531    195.07001     43.59441     16.24000    118.00000    170.00000    321.00000   3883.05184   1169.38922   3295.00000      -999.25      -999.25      -999.25      0.00000      -999.25      0.00000      0.00000      0.00000      0.12492      1.24915      -999.25      -999.25
       2790.44400   2590.21766      -999.25      4.39709      5.79231     29.51574    194.40999     44.19894     24.69000    118.00000    116.50000    336.00000   3873.94347   1169.38922   3306.00000      -999.25      -999.25      -999.25      0.00000      -999.25      0.00000      0.00000      0.00000      -999.25      -999.25      -999.25      -999.25
       2790.59640   2590.30442      -999.25      3.92273      5.15978     29.50688    194.58998     43.97753     22.40000    119.00000     21.00000    292.50000   3918.29746   1174.40823   3322.00000      -999.25      -999.25      -999.25      0.00000      -999.25      0.00000      0.00000      0.00000      0.12492      1.49898      -999.25      -999.25
       2790.74880   2590.39116      -999.25      3.25671      4.72389     29.22293    199.86000     36.28778     30.40000    118.00000    118.00000    265.28570   3917.55632   1174.40823   3293.25000      -999.25      -999.25      -999.25      0.00000      -999.25      0.00000      0.00000      0.00000      0.12492      1.08260      -999.25      -999.25
       2790.90120   2590.47790      -999.25      0.80609      2.37526     29.13524    201.46999     36.02777     21.64000    119.00000    133.00000    258.00000   3834.55122   1174.40823   3290.66700      -999.25      -999.25      -999.25      0.00000      -999.25      0.00000      0.00000      0.00000      0.12492      0.74949      -999.25      -999.25
       2791.05360   2590.56462      -999.25      0.82599      2.35489     28.99487    196.14999     40.44779     13.86000    119.00000      -999.25      -999.25   3825.39499   1174.40823      -999.25      -999.25      -999.25      -999.25      0.00000      -999.25      -999.25      -999.25      -999.25      -999.25      -999.25      -999.25      -999.25
       2791.20600   2590.65133      -999.25      6.62102      2.41443     28.81032    191.60000     45.22071     20.26000    118.00000     49.00000    237.00000   3852.30384   1174.40823   3284.00000      -999.25      -999.25      -999.25      0.00000      -999.25      0.00000      0.00000      0.00000      -999.25      -999.25      -999.25      -999.25
       2791.35840   2590.73803      -999.25      7.22125      2.42468     28.61743    194.29000     42.30779     12.23000    119.00000    105.50000    191.50000   3873.78683   1174.40823   3293.00000      -999.25      -999.25      -999.25      0.00000      -999.25      0.00000      0.00000      0.00000      0.12492      0.87441      -999.25      -999.25
       2791.51080   2590.82472      -999.25      1.48371      1.96453     28.42759    194.94999     44.75779     18.35000    161.00000    155.16670     31.50000   3868.11295   1174.40823   3290.50000      -999.25      -999.25      -999.25      0.00000      -999.25      0.00000      0.00000      0.00000      0.12492      0.49966      -999.25      -999.25
       2791.66320   2590.91140      -999.25      0.63042      1.44097     28.32821    199.13999     33.80273     18.74000    154.00000    148.66670     40.00000   3872.68164   1174.39555   3298.75000      -999.25      -999.25      -999.25      0.00000      -999.25      0.00000      0.00000      0.00000      0.12492      0.37475      -999.25      -999.25
       2791.81560   2590.99806      -999.25      0.85584      1.43310     28.11307    196.08998     40.50778     18.34000    154.00000      -999.25      -999.25   3877.85224   1174.39555      -999.25      -999.25      -999.25      -999.25      0.00000      -999.25      -999.25      -999.25      -999.25      -999.25      -999.25      -999.25      -999.25
       2791.96800   2591.08472      -999.25      4.40086      1.44106     28.09900    195.25000     41.88779     23.28000    130.00000    142.40000     50.40000   3874.59614   1174.39555   3310.66700      -999.25      -999.25      -999.25      0.00000      -999.25      0.00000      0.00000      0.00000      0.12492      0.49966      -999.25      -999.25
       2792.12040   2591.17136      -999.25      1.21752      1.23294     27.75045    192.68000     43.08778     31.16000    129.00000    100.00000    269.00000   3838.81243   1174.39555   3306.40000      -999.25      -999.25      -999.25      0.00000      -999.25      0.00000      0.00000      0.00000      0.12492      0.99932      -999.25      -999.25
       2792.27280   2591.25800      -999.25      0.69612      1.08716     27.62522    195.19001     41.64779     13.06000    131.00000    139.28570    267.37500   3905.16720   1174.39555   3308.28600      -999.25      -999.25      -999.25      0.00000      -999.25      0.00000      0.00000      0.00000      0.12492      1.06178      -999.25      -999.25
       2792.42520   2591.34462      -999.25      0.57741      1.09970     27.70229    192.90999     41.04778     17.62000    130.00000    138.00000    264.00000   3861.05687   1174.39555   3310.33300      -999.25      -999.25      -999.25      0.00000      -999.25      0.00000      0.00000      0.00000      0.12492      1.12424      -999.25      -999.25
       2792.57760   2591.43123      -999.25      0.68741      1.03237     27.42469    196.62000     45.71779      4.23000    131.00000     97.40000    279.00000   3889.39144   1174.39555   3301.60000      -999.25      -999.25      -999.25      0.00000      -999.25      0.00000      0.00000      0.00000      0.12492      0.99932      -999.25      -999.25
       2792.73000   2591.51783      -999.25      1.02116      0.93024     27.35794    191.84000     41.87048     16.39000    130.00000     96.25000    297.75000   3849.75408   1174.39555   3317.75000      -999.25      -999.25      -999.25      0.00000      -999.25      0.00000      0.00000      0.00000      0.12492      1.49898      -999.25      -999.25
       2792.88240   2591.60441      -999.25      1.01016      0.87801     27.19640    192.97000     45.35777     17.61000    130.00000    104.33330    273.00000   3874.07110   1174.39555   3317.33300      -999.25      -999.25      -999.25      0.00000      -999.25      0.00000      0.00000      0.00000      0.12492      1.49898      -999.25      -999.25
       2793.03480   2591.69099      -999.25      1.36759      0.92044     27.10527    193.99001     44.46636     21.51000    129.00000    115.00000    293.25000   3798.53400   1174.39555   3302.33300      -999.25      -999.25      -999.25      0.00000      -999.25      0.00000      0.00000      0.00000      0.12492      1.24915      -999.25      -999.25
       2793.18720   2591.77756      -999.25      1.51653      1.04870     26.98172    192.73999     42.00778     14.62000    131.00000    130.66670    297.00000   3802.02361   1174.39555   3301.33300      -999.25      -999.25      -999.25      0.00000      -999.25      0.00000      0.00000      0.00000      0.12492      1.49898      -999.25      -999.25
       2793.33960   2591.86411      -999.25      1.38784      1.00316     26.82079    189.15001     45.47504      5.86000    131.00000    137.00000    292.50000   3794.40187   1174.39555   3304.25000      -999.25      -999.25      -999.25      0.00000      -999.25      0.00000      0.00000      0.00000      0.12492      1.74881      -999.25      -999.25
       2793.49200   2591.95065      -999.25      1.29391      0.94101     26.64747    193.75000     44.45778     25.14000    130.00000    115.50000    287.00000   3855.09437   1174.39555   3307.00000      -999.25      -999.25      -999.25      0.00000      -999.25      0.00000      0.00000      0.00000      0.12492      1.87373      -999.25      -999.25
       2793.64440   2592.03719      -999.25      1.12518      0.98977     26.63532    192.07999     43.20778      6.63000     79.00000     74.16666    265.28570   3812.08633   1174.39555   3299.85700      -999.25      -999.25      -999.25      0.00000      -999.25      0.00000      0.00000      0.00000      0.12492      1.12424      -999.25      -999.25
