~VERSION INFORMATION 
VERS  .    2.0                                     :CWLS Log ASCII Standard - VERSION 2.0
WRAP  .    NO                                      :One Line per Depth step
PROD  .    Schlumberger Technology Corp.           :LAS Producer
PROG  .    Horizon LASWriter 8.2.104493.3100       :LAS Program name and version
SOURCE.    Run03-Drilling                          :Run&Pass Information
CREA  .    11/08/2019                              :LAS Creation date {MM/DD/YYYY}
#--------------------------------------------------
~WELL INFORMATION 
#MNEM           .UNIT                      DATA            :DESCRIPTION
#----            ------          --------------            -----------------------------
STRT            .m                   1489.86240            :START DEPTH
STOP            .m                   2794.86360            :STOP DEPTH
STEP            .m                       0.1524            :STEP
NULL            .                       -999.25            :NULL VALUE
COMP            .                      Woodside            :COMPANY
WELL            .                         PLA07            :WELL NAME
FLD             .                 Pluto/WA-34-L            :FIELD NAME
RIGN            .                    Ocean Apex            :Rig Name
RIGTYP          .                Semi-Submersible          :Rig Type
SON             .                     19AWA0002            :Service Order Number
SRVC            .                  Schlumberger            :SERVICE COMPANY
DATE            .                    06/13/2019            :LOG DATE(Composite Date for Composite LAP) (MM/DD/YYYY)
CLAB            .                       County:            :County Label
CNTY            .                                          :COUNTY
SLAB            .                        State:            :State/Province Label
STAT            .                Western Australia         :STATE or PROVINCE
PROV            .                Western Australia         :STATE or PROVINCE
CTRY            .                     Australia            :COUNTRY
CONT_REGION     .                   Australasia            :Continent Region
SECT            .                                          :Section
TOWN            .                                          :Township
RANG            .                                          :Range
API             .                                          :API NUMBER
UWI             .                     19AWA0002            :UNIQUE WELL ID
LUL             .                        Zone 1            :Logging Unit Location
LUN             .                       1010979            :Logging Unit Number
LOC             .                       WA-34-L            :FIELD LOCATION
FL1             .                N 7 797 035.31m           :Field Location Line 1
FL2             .                 E 304 456.39m            :Field Location Line 2
LATI            .deg                 -19.913224            :LATITUDE
LONG            .deg                  115.13193            :LONGITUDE
PDAT            .                         OTHER            :Local Permanent Datum
LMF             .                            DF            :Logging Measured From
APD             .m                        23.85            :Elevation of Depth Reference (LMF) Above Permanent Datum
EPD             .m                        -1.35            :Elevation of Permanent Datum (PDAT) above Mean Sea Level
EKB             .m                      -999.25            :Elevation of Kelly Bushing Above Permanent Datum
EDF             .m                        23.85            :Elevation of Drill Floor Above Permanent Datum
EGL             .m                      -830.05            :Elevation of Ground Level Above Permanent Datum
ECF             .m                      -999.25            :Elevation of Casing Flange above Permanent Datum
#--------------------------------------------------
~CURVE INFORMATION
#MNEM           .UNIT                  API CODE            :DESCRIPTION
#----            ------          --------------            -----------------------------
DEPT            .m                                         :                                                        Depth Index
TVD             .m                                         :(RT)    (DnMWorkflow)           (6in)                   True Vertical Depth
ROP             .m/h                                       :(RT)    (DRILLING_SURFACE)      (6in)                   Rate of Penetration
ROP5            .m/h                                       :(RT)    (DRILLING_SURFACE)      (6in)                   Rate of penetration averaged over the last 5 ft (1.5 m)
GR_ARC          .gAPI                                      :(RM)    (ARC9)                  (6in)                   Gamma Ray
GR_CAL          .gAPI                                      :(RM)    (ARC9)                  (6in)                   Calibrated Gamma Ray
A16H            .ohm.m                                     :(RM)    (ARC9)                  (6in)                   Attenuation Resistivity 16 inch Spacing at 2 MHz, Environmentally Corrected
A16L            .ohm.m                                     :(RM)    (ARC9)                  (6in)                   Attenuation Resistivity 16 inch Spacing at 400 KHz, Environmentally Corrected
A22H            .ohm.m                                     :(RM)    (ARC9)                  (6in)                   Attenuation Resistivity 22 inch Spacing at 2 MHz, Environmentally Corrected
A22L            .ohm.m                                     :(RM)    (ARC9)                  (6in)                   Attenuation Resistivity 22 inch Spacing at 400 KHz, Environmentally Corrected
A28H            .ohm.m                                     :(RM)    (ARC9)                  (6in)                   Attenuation Resistivity 28 inch Spacing at 2 MHz, Environmentally Corrected
A28L            .ohm.m                                     :(RM)    (ARC9)                  (6in)                   Attenuation Resistivity 28 inch Spacing at 400 KHz, Environmentally Corrected
A34H            .ohm.m                                     :(RM)    (ARC9)                  (6in)                   Attenuation Resistivity 34 inch Spacing at 2 MHz, Environmentally Corrected
A34L            .ohm.m                                     :(RM)    (ARC9)                  (6in)                   Attenuation Resistivity 34 inch Spacing at 400 KHz, Environmentally Corrected
A40H            .ohm.m                                     :(RM)    (ARC9)                  (6in)                   Attenuation Resistivity 40 inch Spacing at 2 MHz, Environmentally Corrected.
A40L            .ohm.m                                     :(RM)    (ARC9)                  (6in)                   Attenuation Resistivity 40 inch Spacing at 400 KHz, Environmentally Corrected
P16H            .ohm.m                                     :(RM)    (ARC9)                  (6in)                   Phase Shift Resistivity 16 inch Spacing at 2 MHz, Environmentally Corrected.
P16L            .ohm.m                                     :(RM)    (ARC9)                  (6in)                   Phase Shift Resistivity 16 inch Spacing at 400 KHz, Environmentally Corrected.
P22H            .ohm.m                                     :(RM)    (ARC9)                  (6in)                   Phase Shift Resistivity 22 inch Spacing at 2 MHz, Environmentally Corrected.
P22L            .ohm.m                                     :(RM)    (ARC9)                  (6in)                   Phase Shift Resistivity 22 inch Spacing at 400 KHz, Environmentally Corrected.
P28H            .ohm.m                                     :(RM)    (ARC9)                  (6in)                   Phase Shift Resistivity 28 inch Spacing at 2 MHz, Environmentally Corrected.
P28L            .ohm.m                                     :(RM)    (ARC9)                  (6in)                   Phase Shift Resistivity 28 inch Spacing at 400 KHz, Environmentally Corrected.
P34H            .ohm.m                                     :(RM)    (ARC9)                  (6in)                   Phase Shift Resistivity 34 inch Spacing at 2 MHz, Environmentally Corrected.
P34L            .ohm.m                                     :(RM)    (ARC9)                  (6in)                   Phase Shift Resistivity 34 inch Spacing at 400 KHz, Environmentally Corrected.
P40H            .ohm.m                                     :(RM)    (ARC9)                  (6in)                   Phase Shift Resistivity 40 inch Spacing at 2 MHz, Environmentally Corrected.
P40L            .ohm.m                                     :(RM)    (ARC9)                  (6in)                   Phase Shift Resistivity 40 inch Spacing at 400 KHz, Environmentally Corrected.
TAB_RES         .h                                         :        (ARC9)                  (6in)                   Resistivity Time After Bit
DHAT            .degC                                      :(RM)    (ARC9)                  (6in)                   Downhole Annulus Temperature
DHAP            .psi                                       :(RM)    (ARC9)                  (6in)                   Downhole Annulus Pressure
ECD             .g/cm3                                     :(RM)    (ARC9)                  (6in)                   Equivalent Circulating Density
TICKS_GR        .                                          :(RM)    (ARC9)                  (1.2in)                 Gamma Ray Tick Marks
TICKS_RES       .                                          :(RM)    (ARC9)                  (1.2in)                 Resistivity Tick Marks
#-------------------------------------------------------------
#            DEPT          TVD          ROP         ROP5       GR_ARC       GR_CAL         A16H         A16L         A22H         A22L         A28H         A28L         A34H         A34L         A40H         A40L         P16H         P16L         P22H         P22L         P28H         P28L         P34H         P34L         P40H         P40L      TAB_RES         DHAT         DHAP          ECD     TICKS_GR    TICKS_RES 
#                  (DnMWorkfl)  (DRILLING_)  (DRILLING_)       (ARC9)       (ARC9)       (ARC9)       (ARC9)       (ARC9)       (ARC9)       (ARC9)       (ARC9)       (ARC9)       (ARC9)       (ARC9)       (ARC9)       (ARC9)       (ARC9)       (ARC9)       (ARC9)       (ARC9)       (ARC9)       (ARC9)       (ARC9)       (ARC9)       (ARC9)       (ARC9)       (ARC9)       (ARC9)       (ARC9)       (ARC9)       (ARC9) 
#                         (RT)         (RT)         (RT)         (RM)         (RM)         (RM)         (RM)         (RM)         (RM)         (RM)         (RM)         (RM)         (RM)         (RM)         (RM)         (RM)         (RM)         (RM)         (RM)         (RM)         (RM)         (RM)         (RM)         (RM)         (RM)                      (RM)         (RM)         (RM)         (RM)         (RM) 
#                        (6in)        (6in)        (6in)        (6in)        (6in)        (6in)        (6in)        (6in)        (6in)        (6in)        (6in)        (6in)        (6in)        (6in)        (6in)        (6in)        (6in)        (6in)        (6in)        (6in)        (6in)        (6in)        (6in)        (6in)        (6in)        (6in)        (6in)        (6in)        (6in)      (1.2in)      (1.2in) 
~ASCII
# ...
       2178.71040   2168.59467     45.51890     30.06758     18.02015     74.08220      0.60218      0.63334      0.64375      0.66765      0.67340      0.69162      0.68441      0.70758      0.68524      0.72068      0.65929      0.63726      0.66057      0.65999      0.65873      0.67697      0.65886      0.68430      0.66433      0.68761      0.57472     33.00000   3691.00012      1.19796      1.00000      1.00000
       2178.86280   2168.73147     54.99912     31.49749     15.05220     72.23659      0.62019      0.64116      0.65941      0.67363      0.68871      0.69514      0.70307      0.71033      0.70889      0.72414      0.66639      0.64984      0.66131      0.66781      0.66126      0.68467      0.66865      0.69649      0.67881      0.70392      0.58917     33.00000   3693.00019      1.19854      -999.25      1.00000
       2179.01520   2168.86825     49.72764     33.58245     14.17321     71.68999      0.65463      0.65448      0.67559      0.68013      0.69383      0.69829      0.70575      0.71365      0.71136      0.72729      0.71564      0.69119      0.71762      0.70373      0.71741      0.71769      0.71974      0.72837      0.72718      0.73368      0.59153     33.00000   3695.00026      1.19912      -999.25      1.00000
       2179.16760   2169.00501     48.55729     35.25623     15.20664     72.33263      0.66869      0.66468      0.68934      0.68841      0.71091      0.70928      0.72249      0.72805      0.72153      0.74363      0.74834      0.71122      0.73039      0.71713      0.72007      0.72525      0.71460      0.73065      0.70688      0.73079      0.59347     33.00000   3693.99950      1.19871      1.00000      -999.25
       2179.32000   2169.14176     45.69411     36.42731     14.71208     72.02509      0.67147      0.67650      0.70853      0.70099      0.73835      0.72251      0.75148      0.73779      0.75509      0.75129      0.70469      0.69879      0.69594      0.71119      0.68581      0.72073      0.67949      0.72420      0.67848      0.72392      0.59680     33.00000   3693.99950      1.19863      -999.25      1.00000
       2179.47240   2169.27849     38.34167     41.09386     12.12852     70.41851      0.67500      0.68888      0.71274      0.70901      0.74079      0.72640      0.74608      0.73889      0.73807      0.74844      0.74641      0.72439      0.75378      0.74528      0.75353      0.76170      0.75800      0.77109      0.77600      0.77723      0.59874     33.00000   3691.99943      1.19793      1.00000      1.00000
       2179.62480   2169.41521     41.63623     45.85873     11.82586     70.23031      0.69230      0.69823      0.72541      0.71953      0.75340      0.73690      0.75796      0.74695      0.74247      0.75082      0.80172      0.75225      0.82316      0.77623      0.83466      0.79517      0.84267      0.80508      0.85842      0.81028      0.60014     33.00000   3693.00019      1.19816      -999.25      -999.25
       2179.77720   2169.55190     47.29401     44.28535     12.03993     70.36343      0.71637      0.70639      0.75705      0.72986      0.78647      0.74807      0.79280      0.75807      0.78286      0.76154      0.80697      0.76884      0.81303      0.78441      0.81657      0.79933      0.82203      0.80545      0.83229      0.80284      0.59930     33.00000   3695.00026      1.19873      1.00000      1.00000
       2179.92960   2169.68858     34.56463     42.76723     11.51878     70.03935      0.72442      0.71571      0.76413      0.74089      0.79358      0.76013      0.79817      0.76838      0.78411      0.76810      0.74821      0.74894      0.73446      0.76057      0.71827      0.77129      0.71523      0.77301      0.72907      0.76628      0.59694     33.00000   3693.00019      1.19801      -999.25      -999.25
       2180.08200   2169.82524     35.03112     43.64982     12.48725     70.64159      0.70943      0.71636      0.74243      0.73951      0.76477      0.75827      0.76965      0.76853      0.76367      0.77134      0.75746      0.74330      0.75506      0.76120      0.74434      0.77398      0.73761      0.77753      0.74350      0.77634      0.59749     33.00000   3693.00019      1.19794      1.00000      1.00000
       2180.23440   2169.96189     51.27283     43.68851     15.87185     72.74628      0.69034      0.70884      0.73671      0.73705      0.76655      0.75852      0.77388      0.76811      0.77119      0.76866      0.77979      0.75043      0.78146      0.77011      0.77451      0.78221      0.76909      0.78289      0.77409      0.77911      0.60292     33.00000   3691.99943      1.19755      1.00000      1.00000
       2180.38680   2170.09852     32.91137     39.44757     20.25697     75.47315      0.68368      0.69810      0.73321      0.73249      0.76707      0.75781      0.77772      0.76944      0.77765      0.77200      0.79027      0.74579      0.78006      0.76397      0.76711      0.77738      0.76474      0.78219      0.77657      0.78250      0.60319     34.00000   3693.99950      1.19817      1.00000      1.00000
       2180.53920   2170.23513     25.25959     37.33407     20.44317     75.58894      0.68545      0.69777      0.73062      0.72965      0.76538      0.75283      0.77979      0.76511      0.78126      0.77075      0.78610      0.74428      0.76817      0.75728      0.75475      0.76913      0.75668      0.77661      0.77093      0.78027      0.62167     34.00000   3697.00033      1.19906      1.00000      1.00000
       2180.69160   2170.37172     30.17833     35.89565     18.15295     74.16478      0.68727      0.69714      0.72594      0.72828      0.75623      0.75161      0.76849      0.76401      0.76847      0.76926      0.77858      0.73993      0.76104      0.75061      0.75067      0.76205      0.75065      0.76969      0.75459      0.77223      0.62611     34.00000   3695.00026      1.19828      -999.25      -999.25
       2180.84400   2170.50830     29.26548     34.19710     19.43924     74.96465      0.68841      0.69427      0.71800      0.71938      0.73775      0.73723      0.74338      0.74813      0.74258      0.75624      0.78945      0.74122      0.77831      0.75290      0.76795      0.76076      0.76329      0.76112      0.76388      0.75734      0.62514     34.00000   3697.99964      1.19919      1.00000      1.00000
       2180.99640   2170.64486     32.01322     34.61442     21.82203     76.44638      0.67707      0.68697      0.70927      0.71710      0.73133      0.74022      0.73497      0.75277      0.72995      0.76017      0.79874      0.74255      0.77527      0.74835      0.75665      0.75302      0.74346      0.75227      0.73165      0.74701      0.62540     34.00000   3695.99957      1.19845      1.00000      1.00000
       2181.14880   2170.78140     42.43789     34.30354     23.57780     77.53819      0.67289      0.68839      0.72093      0.71934      0.75416      0.74327      0.76447      0.75680      0.76532      0.76488      0.72511      0.70396      0.71069      0.72058      0.69461      0.73175      0.68337      0.73377      0.67929      0.73146      0.62985     34.00000   3697.00033      1.19869      1.00000      -999.25
       2181.30120   2170.91792     30.77592     32.09303     23.22206     77.31698      0.67421      0.68765      0.71621      0.71624      0.74802      0.74284      0.75809      0.75839      0.75585      0.76410      0.73989      0.71208      0.74801      0.73560      0.74178      0.75112      0.73482      0.75523      0.74183      0.75527      0.63652     34.00000   3697.00033      1.19862      1.00000      1.00000
       2181.45360   2171.05443     29.93244     33.28123     17.90208     74.00877      0.67882      0.69097      0.70930      0.71213      0.73772      0.73541      0.74757      0.75051      0.74104      0.75505      0.82215      0.74980      0.83185      0.77000      0.83377      0.78689      0.83551      0.79076      0.84544      0.78434      0.64486     34.00000   3693.00019      1.19725      1.00000      1.00000
       2181.60600   2171.19092     43.19551     33.24433     14.89180     72.13685      0.68921      0.69304      0.71952      0.71466      0.75253      0.73773      0.76380      0.75319      0.74977      0.75860      0.82217      0.75750      0.81979      0.76748      0.81926      0.78138      0.81878      0.78648      0.81628      0.77849      0.65110     34.00000   3695.00026      1.19786      -999.25      -999.25
