~VERSION INFORMATION 
VERS  .    2.0                                     :CWLS Log ASCII Standard - VERSION 2.0
WRAP  .    NO                                      :One Line per Depth step
PROD  .    Schlumberger Technology Corp.           :LAS Producer
PROG  .    Horizon LASWriter 8.2.104493.3100       :LAS Program name and version
SOURCE.    Run03-Drilling                          :Run&Pass Information
CREA  .    11/08/2019                              :LAS Creation date {MM/DD/YYYY}
#--------------------------------------------------
~WELL INFORMATION 
#MNEM           .UNIT                      DATA            :DESCRIPTION
#----            ------          --------------            -----------------------------
STRT            .m                   1489.86240            :START DEPTH
STOP            .m                   2794.86360            :STOP DEPTH
STEP            .m                       0.1524            :STEP
NULL            .                       -999.25            :NULL VALUE
COMP            .                      Woodside            :COMPANY
WELL            .                         PLA07            :WELL NAME
FLD             .                 Pluto/WA-34-L            :FIELD NAME
RIGN            .                    Ocean Apex            :Rig Name
RIGTYP          .                Semi-Submersible          :Rig Type
SON             .                     19AWA0002            :Service Order Number
SRVC            .                  Schlumberger            :SERVICE COMPANY
DATE            .                    06/13/2019            :LOG DATE(Composite Date for Composite LAP) (MM/DD/YYYY)
CLAB            .                       County:            :County Label
CNTY            .                                          :COUNTY
SLAB            .                        State:            :State/Province Label
STAT            .                Western Australia         :STATE or PROVINCE
PROV            .                Western Australia         :STATE or PROVINCE
CTRY            .                     Australia            :COUNTRY
CONT_REGION     .                   Australasia            :Continent Region
SECT            .                                          :Section
TOWN            .                                          :Township
RANG            .                                          :Range
API             .                                          :API NUMBER
UWI             .                     19AWA0002            :UNIQUE WELL ID
LUL             .                        Zone 1            :Logging Unit Location
LUN             .                       1010979            :Logging Unit Number
LOC             .                       WA-34-L            :FIELD LOCATION
FL1             .                N 7 797 035.31m           :Field Location Line 1
FL2             .                 E 304 456.39m            :Field Location Line 2
LATI            .deg                 -19.913224            :LATITUDE
LONG            .deg                  115.13193            :LONGITUDE
PDAT            .                         OTHER            :Local Permanent Datum
LMF             .                            DF            :Logging Measured From
APD             .m                        23.85            :Elevation of Depth Reference (LMF) Above Permanent Datum
EPD             .m                        -1.35            :Elevation of Permanent Datum (PDAT) above Mean Sea Level
EKB             .m                      -999.25            :Elevation of Kelly Bushing Above Permanent Datum
EDF             .m                        23.85            :Elevation of Drill Floor Above Permanent Datum
EGL             .m                      -830.05            :Elevation of Ground Level Above Permanent Datum
ECF             .m                      -999.25            :Elevation of Casing Flange above Permanent Datum
#--------------------------------------------------
~CURVE INFORMATION
#MNEM           .UNIT                  API CODE            :DESCRIPTION
#----            ------          --------------            -----------------------------
DEPT            .m                                         :                                                        Depth Index
TVD             .m                                         :(RT)    (DnMWorkflow)           (6in)                   True Vertical Depth
GR              .gAPI                                      :(RM)    (ARC9)                  (6in)                   Gamma Ray
ROP             .m/h                                       :(RT)    (DRILLING_SURFACE)      (6in)                   Rate of Penetration
ROP5            .m/h                                       :(RT)    (DRILLING_SURFACE)      (6in)                   Rate of penetration averaged over the last 5 ft (1.5 m)
BLKP            .m                                         :(RT)    (DRILLING_SURFACE)      (6in)                   Height of block above rig floor
HKLA            .1000 lbf                                  :(RT)    (DRILLING_SURFACE)      (6in)                   Average Hookload
SWOB            .1000 lbf                                  :(RT)    (DRILLING_SURFACE)      (6in)                   Surface Weight On Bit
STOR            .1000 ft.lbf                               :(RT)    (DRILLING_SURFACE)      (6in)                   Surface Torque
RPM             .c/min                                     :(RT)    (DRILLING_SURFACE)      (6in)                   Rotational Speed
CRPM            .c/min                                     :(RM)    (TELE900)               (6in)                   Collar Rotational Speed
STICKNSLIP      .c/min                                     :(RM)    (TELE900)               (6in)                   Stick Slip Indicator
SPPA            .psi                                       :(RT)    (DRILLING_SURFACE)      (6in)                   Standpipe Pressure
TFLO            .gal/min                                   :(RT)    (DRILLING_SURFACE)      (6in)                   Total flow rate of all active pumps
TRPM            .c/min                                     :(RM)    (TELE900)               (6in)                   MWD Turbine Rotation Speed
DHAT            .degC                                      :(RM)    (ARC9)                  (6in)                   Downhole Annulus Temperature
DHAP            .psi                                       :(RM)    (ARC9)                  (6in)                   Downhole Annulus Pressure
ECD             .g/cm3                                     :(RM)    (ARC9)                  (6in)                   Equivalent Circulating Density
COBTM           .                                          :(RT)    (DRILLING_SURFACE)      (6in)                   Composite On Bottom Status
SHKL            .                                          :(RM)    (ARC9)                  (6in)                   Tool Shock Level
SHKRSK          .                                          :(RM)    (TELE900)               (6in)                   Shock Risk
SHKPK           .gn                                        :(RM)    (TELE900)               (6in)                   Shock Peak
SHOCKS_ACC      .                                          :(RM)    (TELE900)               (6in)                   Total Shocks accumulated over tool lifetime
VIB_X           .gn                                        :(RM)    (TELE900)               (6in)                   RMS Vibration, X-Axis
VIB_LAT         .gn                                        :(RM)    (TELE900)               (6in)                   Transverse RMS Vibration
INCL_CONT       .deg                                       :(RT)    (PDXCEED_900)           (6in)                   Continuous Inclination (Hole Deviation)
AZIM_CONT       .deg                                       :(RT)    (PDXCEED_900)           (6in)                   Continuous Hole Azimuth
#-------------------------------------------------------------
#            DEPT          TVD           GR          ROP         ROP5         BLKP         HKLA         SWOB         STOR          RPM         CRPM   STICKNSLIP         SPPA         TFLO         TRPM         DHAT         DHAP          ECD        COBTM         SHKL       SHKRSK        SHKPK   SHOCKS_ACC        VIB_X      VIB_LAT    INCL_CONT    AZIM_CONT 
#                  (DnMWorkfl)       (ARC9)  (DRILLING_)  (DRILLING_)  (DRILLING_)  (DRILLING_)  (DRILLING_)  (DRILLING_)  (DRILLING_)    (TELE900)    (TELE900)  (DRILLING_)  (DRILLING_)    (TELE900)       (ARC9)       (ARC9)       (ARC9)  (DRILLING_)       (ARC9)    (TELE900)    (TELE900)    (TELE900)    (TELE900)    (TELE900)  (PDXCEED_9)  (PDXCEED_9) 
#                         (RT)         (RM)         (RT)         (RT)         (RT)         (RT)         (RT)         (RT)         (RT)         (RM)         (RM)         (RT)         (RT)         (RM)         (RM)         (RM)         (RM)         (RT)         (RM)         (RM)         (RM)         (RM)         (RM)         (RM)         (RT)         (RT) 
#                        (6in)        (6in)        (6in)        (6in)        (6in)        (6in)        (6in)        (6in)        (6in)        (6in)        (6in)        (6in)        (6in)        (6in)        (6in)        (6in)        (6in)        (6in)        (6in)        (6in)        (6in)        (6in)        (6in)        (6in)        (6in)        (6in) 
~ASCII
# ...
       2530.90680   2433.57898     45.62719      3.68476      4.17381      6.54969    196.21000     36.50297      4.56000    140.00000    128.00000    315.00000   3620.02155   1164.35754   3244.00000     37.00000   4262.99995      1.23282      0.00000      0.00000      0.00000      0.00000      0.00000      0.24983      1.74881     51.37167    183.65290
       2531.05920   2433.67485     46.64202      3.40349      4.00236      6.29761    194.83002     33.09299     22.42000    140.00000    179.00000    291.00000   3640.04546   1164.35754   3264.00000     37.00000   4260.99988      1.23219      0.00000      0.00000      0.00000      0.00000      0.00000      -999.25      -999.25     51.37167    183.65290
       2531.21160   2433.77070     46.25597      3.36564      3.82456      6.16999    196.14999     34.72126     10.32000    140.00000     75.00000    321.00000   3660.84242   1164.35754   3254.00000     36.00000   4262.00064      1.23242      0.00000      0.00000      0.00000      0.00000      0.00000      0.24983      1.49898     51.37167    183.65290
       2531.36400   2433.86656     47.59560      4.12102      3.88833      6.03976    195.91000     35.49299     21.51000    139.00000     95.00000    276.00000   3643.49446   1164.35754   3247.00000     36.00000   4260.00057      1.23180      0.00000      0.00000      0.00000      0.00000      0.00000      -999.25      -999.25     51.32763    183.95950
       2531.51640   2433.96242     50.90760      3.99077      3.78119      5.77169    195.37000     40.03299     20.75000    139.00000    124.00000    292.50000   3684.80556   1159.35121   3258.00000     36.00000   4263.99926      1.23290      0.00000      0.00000      0.00000      0.00000      0.00000      0.12492      1.24915     51.32763    183.95950
       2531.66880   2434.05827     53.22816      3.40991      3.63396      5.65453    196.92000     35.88987     30.50000    139.00000    186.00000    309.00000   3718.13958   1164.35754   3247.00000     36.00000   4260.99988      1.23199      0.00000      0.00000      0.00000      0.00000      0.00000      -999.25      -999.25     51.32763    183.95950
       2531.82120   2434.15412     51.86022      3.08283      3.54990      5.49738    197.39999     35.31298     24.63000    139.00000    161.50000    309.00000   3689.28722   1164.35754   3258.50000     36.00000   4262.00064      1.23223      0.00000      0.00000      0.00000      0.00000      0.00000      0.24983      1.49898     51.28356    184.24320
       2531.97360   2434.24997     48.81380      2.33181      3.37488      5.33176    198.42000     34.29299      7.44000    140.00000    114.50000    297.00000   3615.98805   1164.35754   3258.00000     36.00000   4267.00009      1.23363      0.00000      0.00000      0.00000      0.00000      0.00000      0.12492      1.49898     51.28356    184.24320
       2532.12600   2434.34582     47.56275      1.82454      2.95587      5.22707    196.08998     33.27298     29.54001    139.00000     90.50000    309.75000   3642.06294   1164.35754   3245.75000     36.00000   4262.99995      1.23242      0.00000      0.00000      0.00000      0.00000      0.00000      0.12492      1.24915     51.28356    182.32060
       2532.27840   2434.44167     45.38007      1.75593      2.73510     33.65230    200.33000     25.40671     23.66000    139.00000     99.00000      -999.25   3735.57312   1154.33221      -999.25     36.00000   4258.00050      1.23093      0.00000      0.00000      -999.25      0.00000      -999.25      0.24983      1.74881      -999.25      -999.25
       2532.43080   2434.53751     42.20318      3.69736      2.95749     33.46830    206.86001     27.67670      4.09000    162.00000      -999.25      -999.25   3679.16939   1159.35121   3259.00000     36.00000   4263.99926      1.23262      0.00000      0.00000      0.00000      -999.25      0.00000      -999.25      -999.25     51.23947    182.77880
       2532.58320   2434.63335     42.36115    178.85190      3.24704     33.20353    208.28999     27.67670      4.74000    162.00000      -999.25      -999.25   3728.07177   1159.35121      -999.25     37.00000   4267.99940      1.23375      0.00000      0.00000      -999.25      -999.25      -999.25      -999.25      -999.25     51.23947    182.77880
       2532.73560   2434.72919     41.04054     97.07576      3.56175     33.08584    207.75001     26.78672      2.84000    162.00000      -999.25      -999.25   3692.88126   1159.35121      -999.25     37.00000   4265.00002      1.23282      0.00000      0.00000      -999.25      -999.25      -999.25      -999.25      -999.25     51.28356    182.32060
       2532.88800   2434.82503     40.41233     50.93317      3.79697     32.91661    203.33001     31.20670      5.36000    162.00000    199.00000    360.00000   3638.83875   1159.35121   3243.00000     37.00000   4267.00009      1.23333      0.00000      0.00000      0.00000      0.00000      0.00000      -999.25      -999.25     51.28356    182.32060
       2533.04040   2434.92087     41.51067      6.38653      3.81736     32.77953    203.86000     33.30671     32.53000    160.00000      -999.25    339.00000   3694.17500   1159.35121      -999.25     37.00000   4266.00078      1.23300      0.00000      0.00000      -999.25      0.00000      -999.25      0.24983      1.49898     51.23947    182.77880
       2533.19280   2435.01670     41.67866      4.17970      3.95937     32.65123    202.25001     32.28672      5.79000    162.00000    162.00000    348.00000   3676.69795   1159.35121   3243.00000     37.00000   4266.00078      1.23295      0.00000      0.00000      0.00000      0.00000      0.00000      -999.25      -999.25     51.23947    182.77880
       2533.34520   2435.11254     44.21911      5.75288      4.31312     32.57769    196.21000     36.38946     25.07000    161.00000    203.00000      -999.25   3697.99819   1159.35121   3260.00000     37.00000   4267.00009      1.23320      0.00000      0.00000      0.00000      0.00000      0.00000      -999.25      -999.25      -999.25      -999.25
       2533.49760   2435.20837     45.54482      7.98255      5.21241     32.29584    197.27999     37.30742     36.29000    160.00000      -999.25      -999.25   3713.94364   1159.35121      -999.25     37.00000   4269.00016      1.23372      0.00000      0.00000      -999.25      0.00000      -999.25      -999.25      -999.25     51.23947    182.77880
       2533.65000   2435.30420     42.72253      9.79655      7.01019     32.31492    197.70000     37.49671     10.57000    161.00000    174.00000    339.00000   3736.24319   1159.35121   3256.00000     37.00000   4265.00002      1.23252      0.00000      0.00000      0.00000      0.00000      0.00000      0.24983      1.99864     51.23947    182.77880
       2533.80240   2435.40003     41.19205      8.05534      9.72969     31.97907    201.88999     36.77672     25.95000    161.00000      -999.25      -999.25   3660.65387   1159.35121      -999.25     37.00000   4265.00002      1.23248      0.00000      0.00000      -999.25      0.00000      -999.25      -999.25      -999.25     51.19535    181.71460
       2533.95480   2435.49585     43.28765      8.95954      9.01882     31.81369    199.08000     38.62671     12.73000    161.00000    130.00000    336.00000   3641.20721   1159.35121   3244.00000     37.00000   4265.00002      1.23241      0.00000      0.00000      0.00000      0.00000      0.00000      -999.25      -999.25     51.23947    182.77880
       2534.10720   2435.59168     45.96080     12.21764      8.47245     31.72130    196.55999     37.97672     28.10000    161.00000      -999.25      -999.25   3625.04131   1159.35121      -999.25     37.00000   4266.00078      1.23266      0.00000      0.00000      -999.25      0.00000      -999.25      -999.25      -999.25     51.23947    182.77880
       2534.25960   2435.68750     49.34135     15.16768      8.19639     31.58046    196.68001     37.85672     30.28000    160.00000      -999.25      -999.25   3752.26696   1159.35121      -999.25     37.00000   4265.00002      1.23232      0.00000      0.00000      -999.25      -999.25      -999.25      -999.25      -999.25     51.23947    182.77880
