~VERSION INFORMATION 
VERS  .    2.0                                     :CWLS Log ASCII Standard - VERSION 2.0
WRAP  .    NO                                      :One Line per Depth step
PROD  .    Schlumberger Technology Corp.           :LAS Producer
PROG  .    Horizon LASWriter 8.2.104493.3100       :LAS Program name and version
SOURCE.    Run03-Drilling                          :Run&Pass Information
CREA  .    11/08/2019                              :LAS Creation date {MM/DD/YYYY}
#--------------------------------------------------
~WELL INFORMATION 
#MNEM           .UNIT                      DATA            :DESCRIPTION
#----            ------          --------------            -----------------------------
STRT            .m                   1489.86240            :START DEPTH
STOP            .m                   2794.86360            :STOP DEPTH
STEP            .m                       0.1524            :STEP
NULL            .                       -999.25            :NULL VALUE
COMP            .                      Woodside            :COMPANY
WELL            .                         PLA07            :WELL NAME
FLD             .                 Pluto/WA-34-L            :FIELD NAME
RIGN            .                    Ocean Apex            :Rig Name
RIGTYP          .                Semi-Submersible          :Rig Type
SON             .                     19AWA0002            :Service Order Number
SRVC            .                  Schlumberger            :SERVICE COMPANY
DATE            .                    06/13/2019            :LOG DATE(Composite Date for Composite LAP) (MM/DD/YYYY)
CLAB            .                       County:            :County Label
CNTY            .                                          :COUNTY
SLAB            .                        State:            :State/Province Label
STAT            .                Western Australia         :STATE or PROVINCE
PROV            .                Western Australia         :STATE or PROVINCE
CTRY            .                     Australia            :COUNTRY
CONT_REGION     .                   Australasia            :Continent Region
SECT            .                                          :Section
TOWN            .                                          :Township
RANG            .                                          :Range
API             .                                          :API NUMBER
UWI             .                     19AWA0002            :UNIQUE WELL ID
LUL             .                        Zone 1            :Logging Unit Location
LUN             .                       1010979            :Logging Unit Number
LOC             .                       WA-34-L            :FIELD LOCATION
FL1             .                N 7 797 035.31m           :Field Location Line 1
FL2             .                 E 304 456.39m            :Field Location Line 2
LATI            .deg                 -19.913224            :LATITUDE
LONG            .deg                  115.13193            :LONGITUDE
PDAT            .                         OTHER            :Local Permanent Datum
LMF             .                            DF            :Logging Measured From
APD             .m                        23.85            :Elevation of Depth Reference (LMF) Above Permanent Datum
EPD             .m                        -1.35            :Elevation of Permanent Datum (PDAT) above Mean Sea Level
EKB             .m                      -999.25            :Elevation of Kelly Bushing Above Permanent Datum
EDF             .m                        23.85            :Elevation of Drill Floor Above Permanent Datum
EGL             .m                      -830.05            :Elevation of Ground Level Above Permanent Datum
ECF             .m                      -999.25            :Elevation of Casing Flange above Permanent Datum
#--------------------------------------------------
~CURVE INFORMATION
#MNEM           .UNIT                  API CODE            :DESCRIPTION
#----            ------          --------------            -----------------------------
DEPT            .m                                         :                                                        Depth Index
TVD             .m                                         :(RT)    (DnMWorkflow)           (6in)                   True Vertical Depth
GR              .gAPI                                      :(RM)    (ARC9)                  (6in)                   Gamma Ray
ROP             .m/h                                       :(RT)    (DRILLING_SURFACE)      (6in)                   Rate of Penetration
ROP5            .m/h                                       :(RT)    (DRILLING_SURFACE)      (6in)                   Rate of penetration averaged over the last 5 ft (1.5 m)
BLKP            .m                                         :(RT)    (DRILLING_SURFACE)      (6in)                   Height of block above rig floor
HKLA            .1000 lbf                                  :(RT)    (DRILLING_SURFACE)      (6in)                   Average Hookload
SWOB            .1000 lbf                                  :(RT)    (DRILLING_SURFACE)      (6in)                   Surface Weight On Bit
STOR            .1000 ft.lbf                               :(RT)    (DRILLING_SURFACE)      (6in)                   Surface Torque
RPM             .c/min                                     :(RT)    (DRILLING_SURFACE)      (6in)                   Rotational Speed
CRPM            .c/min                                     :(RM)    (TELE900)               (6in)                   Collar Rotational Speed
STICKNSLIP      .c/min                                     :(RM)    (TELE900)               (6in)                   Stick Slip Indicator
SPPA            .psi                                       :(RT)    (DRILLING_SURFACE)      (6in)                   Standpipe Pressure
TFLO            .gal/min                                   :(RT)    (DRILLING_SURFACE)      (6in)                   Total flow rate of all active pumps
TRPM            .c/min                                     :(RM)    (TELE900)               (6in)                   MWD Turbine Rotation Speed
DHAT            .degC                                      :(RM)    (ARC9)                  (6in)                   Downhole Annulus Temperature
DHAP            .psi                                       :(RM)    (ARC9)                  (6in)                   Downhole Annulus Pressure
ECD             .g/cm3                                     :(RM)    (ARC9)                  (6in)                   Equivalent Circulating Density
COBTM           .                                          :(RT)    (DRILLING_SURFACE)      (6in)                   Composite On Bottom Status
SHKL            .                                          :(RM)    (ARC9)                  (6in)                   Tool Shock Level
SHKRSK          .                                          :(RM)    (TELE900)               (6in)                   Shock Risk
SHKPK           .gn                                        :(RM)    (TELE900)               (6in)                   Shock Peak
SHOCKS_ACC      .                                          :(RM)    (TELE900)               (6in)                   Total Shocks accumulated over tool lifetime
VIB_X           .gn                                        :(RM)    (TELE900)               (6in)                   RMS Vibration, X-Axis
VIB_LAT         .gn                                        :(RM)    (TELE900)               (6in)                   Transverse RMS Vibration
INCL_CONT       .deg                                       :(RT)    (PDXCEED_900)           (6in)                   Continuous Inclination (Hole Deviation)
AZIM_CONT       .deg                                       :(RT)    (PDXCEED_900)           (6in)                   Continuous Hole Azimuth
#-------------------------------------------------------------
#            DEPT          TVD           GR          ROP         ROP5         BLKP         HKLA         SWOB         STOR          RPM         CRPM   STICKNSLIP         SPPA         TFLO         TRPM         DHAT         DHAP          ECD        COBTM         SHKL       SHKRSK        SHKPK   SHOCKS_ACC        VIB_X      VIB_LAT    INCL_CONT    AZIM_CONT 
#                  (DnMWorkfl)       (ARC9)  (DRILLING_)  (DRILLING_)  (DRILLING_)  (DRILLING_)  (DRILLING_)  (DRILLING_)  (DRILLING_)    (TELE900)    (TELE900)  (DRILLING_)  (DRILLING_)    (TELE900)       (ARC9)       (ARC9)       (ARC9)  (DRILLING_)       (ARC9)    (TELE900)    (TELE900)    (TELE900)    (TELE900)    (TELE900)  (PDXCEED_9)  (PDXCEED_9) 
#                         (RT)         (RM)         (RT)         (RT)         (RT)         (RT)         (RT)         (RT)         (RT)         (RM)         (RM)         (RT)         (RT)         (RM)         (RM)         (RM)         (RM)         (RT)         (RM)         (RM)         (RM)         (RM)         (RM)         (RM)         (RT)         (RT) 
#                        (6in)        (6in)        (6in)        (6in)        (6in)        (6in)        (6in)        (6in)        (6in)        (6in)        (6in)        (6in)        (6in)        (6in)        (6in)        (6in)        (6in)        (6in)        (6in)        (6in)        (6in)        (6in)        (6in)        (6in)        (6in)        (6in) 
~ASCII
# ...
       2271.52200   2249.04972     12.57015      7.45928     10.92214     12.60206    198.72001     34.98608     11.11000    120.00000     76.00000    327.00000   3114.01534   1154.86135   3047.00000     33.00000   3804.99978      1.19074      0.00000      0.00000      0.00000     15.90757      0.00000      -999.25      -999.25     32.43644    196.87750
       2271.67440   2249.17768     14.92394      7.66568     10.01719     12.41917    200.33000     31.27608     16.73000    120.00000      -999.25      -999.25   3125.31958   1159.86794      -999.25     33.00000   3804.00047      1.19036      0.00000      0.00000      -999.25      -999.25      -999.25      -999.25      -999.25      -999.25      -999.25
       2271.82680   2249.30562     15.14548      7.04715      9.34364     12.31756    198.72001     31.84106     26.10000    119.00000    126.00000    306.00000   3111.67153   1159.86794   3035.00000     33.00000   3806.00054      1.19091      0.00000      0.00000      0.00000      0.00000      0.00000      -999.25      -999.25     32.50060    196.92970
       2271.97920   2249.43353     14.52753      7.21661      8.59610     12.09670    198.24000     27.20608     28.95000    119.00000      -999.25    267.00000   3095.65502   1159.86794      -999.25     33.00000   3804.00047      1.19022      0.00000      0.00000      -999.25      0.00000      -999.25      0.87441      1.24915     32.56464    196.98070
       2272.13160   2249.56142     11.55591      6.08267      7.92907     12.11549    199.86000     30.67424     20.28000    120.00000    131.00000      -999.25   3083.30940   1159.86794   3046.00000     33.00000   3806.99985      1.19110      0.00000      0.00000      0.00000      0.00000      0.00000      -999.25      -999.25     32.56464    196.98070
       2272.28400   2249.68929     10.04142      5.95950      7.59968     11.86111    200.63001     30.88429     22.51000    120.00000    136.00000    258.00000   3137.03428   1159.86794   3053.00000     33.00000   3804.00047      1.19008      0.00000      0.00000      0.00000     15.90757      0.00000      -999.25      -999.25      -999.25    196.98070
       2272.43640   2249.81713     11.06725      7.73992      7.57741     11.76326    203.98000     29.84609     23.06000    119.00000      -999.25    297.00000   3065.89617   1154.86135      -999.25     33.00000   3804.99978      1.19035      0.00000      0.00000      -999.25      0.00000      -999.25      -999.25      -999.25     32.56464    196.98070
       2272.58880   2249.94495      9.78410      7.68858      7.08999     11.52269    202.01001     28.58608     28.71000    119.00000    132.00000      -999.25   3076.02561   1159.86794   3055.00000     33.00000   3804.00047      1.18996      0.00000      0.00000      0.00000      0.00000      0.00000      0.62458      1.74881      -999.25      -999.25
       2272.74120   2250.07274      9.41699      7.74117      7.15570     11.29662    201.41000     28.46609     28.18000    119.00000      -999.25    273.00000   3097.47959   1154.86135      -999.25     33.00000   3804.99978      1.19019      0.00000      0.00000      -999.25      -999.25      -999.25      -999.25      -999.25     32.62857    197.03050
       2272.89360   2250.20052     13.73278     10.77297      7.57911     11.46633    203.21001     30.14610     31.40000    120.00000    155.00000      -999.25   3137.03718   1159.86794   3048.00000     33.00000   3804.00047      1.18981      0.00000      0.00000      0.00000     23.96333      0.00000      -999.25      -999.25     32.62857    197.03050
       2273.04600   2250.32827     16.11211     11.52779      7.67543     10.98972    200.16000     33.49609     30.30000    119.00000      -999.25      -999.25   3136.65864   1154.86135      -999.25     33.00000   3806.00054      1.19039      0.00000      0.00000      -999.25      0.00000      -999.25      -999.25      -999.25     32.69239    197.07930
       2273.19840   2250.45599     13.09655     10.00661      7.94672     10.83634    201.28998     32.23608      4.77000    121.00000    108.00000    270.00000   3128.69751   1159.86794   3033.00000     33.00000   3808.00061      1.19092      0.00000      0.00000      0.00000     23.96333      0.00000      -999.25      -999.25     32.75611    196.58480
       2273.35080   2250.58370     11.06028      8.47916      7.96858     10.78588    201.11000     31.33609     21.77000    120.00000      -999.25      -999.25   3137.06909   1159.86794      -999.25     33.00000   3810.00068      1.19149      0.00000      0.00000      -999.25      0.00000      -999.25      0.87441      1.49898      -999.25      -999.25
       2273.50320   2250.71137      9.46775      8.91066      8.29399     10.69447    203.08999     27.50608      8.88000    120.00000    109.00000    249.00000   3149.16814   1159.86794   3037.00000     33.00000   3811.99930      1.19204      0.00000      0.00000      0.00000     15.90757      0.00000      -999.25      -999.25     32.75611    197.12690
       2273.65560   2250.83903      7.86047     10.64511      8.97662     10.43512    200.75000     29.84609      6.79000     81.00000      -999.25      -999.25   3161.99963   1159.86794      -999.25     33.00000   3808.00061      1.19074      0.00000      0.00000      -999.25     15.90757      -999.25      -999.25      -999.25     32.81971    197.17350
       2273.80800   2250.96666      9.56413     14.84052      9.95163     10.35751    192.90999     37.61282     37.24000     80.00000      -999.25      -999.25   3159.95605   1154.86135      -999.25     33.00000   3811.99930      1.19192      0.00000      0.00000      -999.25      -999.25      -999.25      -999.25      -999.25      -999.25      -999.25
       2273.96040   2251.09427     15.32031     25.82984     10.71772     10.03496    194.71000     38.36471     25.78000     80.00000      -999.25    228.00000   3165.68504   1159.86794      -999.25     33.00000   3810.00068      1.19122      0.00000      0.00000      -999.25      -999.25      -999.25      -999.25      -999.25      -999.25      -999.25
       2274.11280   2251.22186     15.94522     23.38803     12.04459     10.06610    187.53001     43.06609     13.72000     81.00000     80.00000      -999.25   3185.51895   1159.86794   3079.00000     33.00000   3810.00068      1.19114      0.00000      0.00000      0.00000      0.00000      0.00000      -999.25      -999.25      -999.25      -999.25
       2274.26520   2251.34942      8.12347     15.27290     12.41270      9.85667    187.77000     42.82607     30.16000     80.00000      -999.25      -999.25   3157.20613   1159.86794      -999.25     33.00000   3813.99937      1.19234      0.00000      0.00000      -999.25     15.90757      -999.25      -999.25      -999.25      -999.25      -999.25
       2274.41760   2251.47696      5.10649     13.31570     12.58183      9.91418    194.05000     36.54607      9.04000     81.00000      -999.25      -999.25   3193.20015   1159.86794      -999.25     33.00000   3813.00006      1.19196      0.00000      0.00000      -999.25      -999.25      -999.25      -999.25      -999.25      -999.25      -999.25
       2274.57000   2251.60447      8.55265     15.23406     13.09899      9.56357    193.03001     42.04608     28.03000     80.00000     91.00000    294.00000   3178.35263   1159.86794   3067.00000     33.00000   3811.99930      1.19157      0.00000      0.00000      0.00000      0.00000      0.00000      0.62458      1.49898      -999.25      -999.25
       2274.72240   2251.73196     12.86983     15.92786     13.87935      9.34071    192.07999     41.39609     25.44000     80.00000      -999.25      -999.25   3157.06254   1159.86794      -999.25     33.00000   3810.99999      1.19120      0.00000      0.00000      -999.25      0.00000      -999.25      -999.25      -999.25     32.89998    199.96450
       2274.87480   2251.85943     17.10739     12.10156     14.43391      9.25552    194.77001     36.42608     23.19000     80.00000      -999.25    249.00000   3164.13894   1159.86794      -999.25     33.00000   3811.99930      1.19143      0.00000      0.00000      -999.25      -999.25      -999.25      -999.25      -999.25      -999.25      -999.25
