~VERSION INFORMATION 
VERS  .    2.0                                     :CWLS Log ASCII Standard - VERSION 2.0
WRAP  .    NO                                      :One Line per Depth step
PROD  .    Schlumberger Technology Corp.           :LAS Producer
PROG  .    Horizon LASWriter 8.2.104493.3100       :LAS Program name and version
SOURCE.    Run03-Drilling                          :Run&Pass Information
CREA  .    11/08/2019                              :LAS Creation date {MM/DD/YYYY}
#--------------------------------------------------
~WELL INFORMATION 
#MNEM           .UNIT                      DATA            :DESCRIPTION
#----            ------          --------------            -----------------------------
STRT            .m                   1489.86240            :START DEPTH
STOP            .m                   2794.86360            :STOP DEPTH
STEP            .m                       0.1524            :STEP
NULL            .                       -999.25            :NULL VALUE
COMP            .                      Woodside            :COMPANY
WELL            .                         PLA07            :WELL NAME
FLD             .                 Pluto/WA-34-L            :FIELD NAME
RIGN            .                    Ocean Apex            :Rig Name
RIGTYP          .                Semi-Submersible          :Rig Type
SON             .                     19AWA0002            :Service Order Number
SRVC            .                  Schlumberger            :SERVICE COMPANY
DATE            .                    06/13/2019            :LOG DATE(Composite Date for Composite LAP) (MM/DD/YYYY)
CLAB            .                       County:            :County Label
CNTY            .                                          :COUNTY
SLAB            .                        State:            :State/Province Label
STAT            .                Western Australia         :STATE or PROVINCE
PROV            .                Western Australia         :STATE or PROVINCE
CTRY            .                     Australia            :COUNTRY
CONT_REGION     .                   Australasia            :Continent Region
SECT            .                                          :Section
TOWN            .                                          :Township
RANG            .                                          :Range
API             .                                          :API NUMBER
UWI             .                     19AWA0002            :UNIQUE WELL ID
LUL             .                        Zone 1            :Logging Unit Location
LUN             .                       1010979            :Logging Unit Number
LOC             .                       WA-34-L            :FIELD LOCATION
FL1             .                N 7 797 035.31m           :Field Location Line 1
FL2             .                 E 304 456.39m            :Field Location Line 2
LATI            .deg                 -19.913224            :LATITUDE
LONG            .deg                  115.13193            :LONGITUDE
PDAT            .                         OTHER            :Local Permanent Datum
LMF             .                            DF            :Logging Measured From
APD             .m                        23.85            :Elevation of Depth Reference (LMF) Above Permanent Datum
EPD             .m                        -1.35            :Elevation of Permanent Datum (PDAT) above Mean Sea Level
EKB             .m                      -999.25            :Elevation of Kelly Bushing Above Permanent Datum
EDF             .m                        23.85            :Elevation of Drill Floor Above Permanent Datum
EGL             .m                      -830.05            :Elevation of Ground Level Above Permanent Datum
ECF             .m                      -999.25            :Elevation of Casing Flange above Permanent Datum
#--------------------------------------------------
~CURVE INFORMATION
#MNEM           .UNIT                  API CODE            :DESCRIPTION
#----            ------          --------------            -----------------------------
DEPT            .m                                         :                                                        Depth Index
TVD             .m                                         :(RT)    (DnMWorkflow)           (6in)                   True Vertical Depth
ROP             .m/h                                       :(RT)    (DRILLING_SURFACE)      (6in)                   Rate of Penetration
ROP5            .m/h                                       :(RT)    (DRILLING_SURFACE)      (6in)                   Rate of penetration averaged over the last 5 ft (1.5 m)
GR_ARC          .gAPI                                      :(RM)    (ARC9)                  (6in)                   Gamma Ray
GR_CAL          .gAPI                                      :(RM)    (ARC9)                  (6in)                   Calibrated Gamma Ray
A16H            .ohm.m                                     :(RM)    (ARC9)                  (6in)                   Attenuation Resistivity 16 inch Spacing at 2 MHz, Environmentally Corrected
A16L            .ohm.m                                     :(RM)    (ARC9)                  (6in)                   Attenuation Resistivity 16 inch Spacing at 400 KHz, Environmentally Corrected
A22H            .ohm.m                                     :(RM)    (ARC9)                  (6in)                   Attenuation Resistivity 22 inch Spacing at 2 MHz, Environmentally Corrected
A22L            .ohm.m                                     :(RM)    (ARC9)                  (6in)                   Attenuation Resistivity 22 inch Spacing at 400 KHz, Environmentally Corrected
A28H            .ohm.m                                     :(RM)    (ARC9)                  (6in)                   Attenuation Resistivity 28 inch Spacing at 2 MHz, Environmentally Corrected
A28L            .ohm.m                                     :(RM)    (ARC9)                  (6in)                   Attenuation Resistivity 28 inch Spacing at 400 KHz, Environmentally Corrected
A34H            .ohm.m                                     :(RM)    (ARC9)                  (6in)                   Attenuation Resistivity 34 inch Spacing at 2 MHz, Environmentally Corrected
A34L            .ohm.m                                     :(RM)    (ARC9)                  (6in)                   Attenuation Resistivity 34 inch Spacing at 400 KHz, Environmentally Corrected
A40H            .ohm.m                                     :(RM)    (ARC9)                  (6in)                   Attenuation Resistivity 40 inch Spacing at 2 MHz, Environmentally Corrected.
A40L            .ohm.m                                     :(RM)    (ARC9)                  (6in)                   Attenuation Resistivity 40 inch Spacing at 400 KHz, Environmentally Corrected
P16H            .ohm.m                                     :(RM)    (ARC9)                  (6in)                   Phase Shift Resistivity 16 inch Spacing at 2 MHz, Environmentally Corrected.
P16L            .ohm.m                                     :(RM)    (ARC9)                  (6in)                   Phase Shift Resistivity 16 inch Spacing at 400 KHz, Environmentally Corrected.
P22H            .ohm.m                                     :(RM)    (ARC9)                  (6in)                   Phase Shift Resistivity 22 inch Spacing at 2 MHz, Environmentally Corrected.
P22L            .ohm.m                                     :(RM)    (ARC9)                  (6in)                   Phase Shift Resistivity 22 inch Spacing at 400 KHz, Environmentally Corrected.
P28H            .ohm.m                                     :(RM)    (ARC9)                  (6in)                   Phase Shift Resistivity 28 inch Spacing at 2 MHz, Environmentally Corrected.
P28L            .ohm.m                                     :(RM)    (ARC9)                  (6in)                   Phase Shift Resistivity 28 inch Spacing at 400 KHz, Environmentally Corrected.
P34H            .ohm.m                                     :(RM)    (ARC9)                  (6in)                   Phase Shift Resistivity 34 inch Spacing at 2 MHz, Environmentally Corrected.
P34L            .ohm.m                                     :(RM)    (ARC9)                  (6in)                   Phase Shift Resistivity 34 inch Spacing at 400 KHz, Environmentally Corrected.
P40H            .ohm.m                                     :(RM)    (ARC9)                  (6in)                   Phase Shift Resistivity 40 inch Spacing at 2 MHz, Environmentally Corrected.
P40L            .ohm.m                                     :(RM)    (ARC9)                  (6in)                   Phase Shift Resistivity 40 inch Spacing at 400 KHz, Environmentally Corrected.
TAB_RES         .h                                         :        (ARC9)                  (6in)                   Resistivity Time After Bit
DHAT            .degC                                      :(RM)    (ARC9)                  (6in)                   Downhole Annulus Temperature
DHAP            .psi                                       :(RM)    (ARC9)                  (6in)                   Downhole Annulus Pressure
ECD             .g/cm3                                     :(RM)    (ARC9)                  (6in)                   Equivalent Circulating Density
TICKS_GR        .                                          :(RM)    (ARC9)                  (1.2in)                 Gamma Ray Tick Marks
TICKS_RES       .                                          :(RM)    (ARC9)                  (1.2in)                 Resistivity Tick Marks
#-------------------------------------------------------------
#            DEPT          TVD          ROP         ROP5       GR_ARC       GR_CAL         A16H         A16L         A22H         A22L         A28H         A28L         A34H         A34L         A40H         A40L         P16H         P16L         P22H         P22L         P28H         P28L         P34H         P34L         P40H         P40L      TAB_RES         DHAT         DHAP          ECD     TICKS_GR    TICKS_RES 
#                  (DnMWorkfl)  (DRILLING_)  (DRILLING_)       (ARC9)       (ARC9)       (ARC9)       (ARC9)       (ARC9)       (ARC9)       (ARC9)       (ARC9)       (ARC9)       (ARC9)       (ARC9)       (ARC9)       (ARC9)       (ARC9)       (ARC9)       (ARC9)       (ARC9)       (ARC9)       (ARC9)       (ARC9)       (ARC9)       (ARC9)       (ARC9)       (ARC9)       (ARC9)       (ARC9)       (ARC9)       (ARC9) 
#                         (RT)         (RT)         (RT)         (RM)         (RM)         (RM)         (RM)         (RM)         (RM)         (RM)         (RM)         (RM)         (RM)         (RM)         (RM)         (RM)         (RM)         (RM)         (RM)         (RM)         (RM)         (RM)         (RM)         (RM)         (RM)                      (RM)         (RM)         (RM)         (RM)         (RM) 
#                        (6in)        (6in)        (6in)        (6in)        (6in)        (6in)        (6in)        (6in)        (6in)        (6in)        (6in)        (6in)        (6in)        (6in)        (6in)        (6in)        (6in)        (6in)        (6in)        (6in)        (6in)        (6in)        (6in)        (6in)        (6in)        (6in)        (6in)        (6in)        (6in)      (1.2in)      (1.2in) 
~ASCII
# ...
       2004.97440   2003.53163     34.48236     29.36352     31.71190     82.59635      0.81852      0.79357      0.84005      0.82707      0.86030      0.86130      0.86845      0.87903      0.86295      0.87621      0.83400      0.81935      0.82520      0.83172      0.81922      0.84830      0.82462      0.85389      0.83942      0.84386      0.62137     32.00000   3428.00029      1.20439      -999.25      -999.25
       2005.12680   2003.68158     32.65561     27.42561     31.63440     82.54816      0.81372      0.78359      0.81871      0.81657      0.83295      0.84717      0.84233      0.86657      0.83763      0.87264      0.84644      0.82116      0.82184      0.82107      0.80683      0.83041      0.80998      0.83690      0.82305      0.83116      0.62013     32.00000   3426.99953      1.20393      -999.25      1.00000
       2005.27920   2003.83153     27.73726     28.51581     35.98586     85.25409      0.76831      0.77296      0.77840      0.81552      0.79718      0.85039      0.81001      0.87317      0.80733      0.88507      0.78665      0.77301      0.74585      0.76955      0.72345      0.77514      0.72116      0.78204      0.72312      0.78150      0.61804     32.00000   3428.99960      1.20455      -999.25      1.00000
       2005.43160   2003.98147     24.81551     27.76597     38.70966     86.94788      0.76174      0.77942      0.77984      0.82303      0.80154      0.85424      0.80858      0.87429      0.79572      0.88830      0.73231      0.76067      0.69602      0.76037      0.67009      0.76538      0.66028      0.77003      0.65748      0.76909      0.61263     32.00000   3430.00036      1.20480      -999.25      -999.25
       2005.58400   2004.13141     26.88662     27.68204     39.99406     87.74657      0.82001      0.81292      0.84285      0.85385      0.84909      0.87321      0.84919      0.88730      0.85502      0.90870      0.82511      0.82345      0.79919      0.83921      0.77442      0.84540      0.76707      0.84370      0.77740      0.84291      0.61040     32.00000   3430.00036      1.20476      -999.25      -999.25
       2005.73640   2004.28134     30.31457     27.31832     42.05352     89.02724      0.91487      0.84119      0.91802      0.87774      0.90937      0.89318      0.90106      0.90761      0.90271      0.93324      0.92088      0.91574      0.89932      0.92638      0.87815      0.92087      0.87437      0.91464      0.88877      0.92253      0.60693     32.00000   3430.99967      1.20499      1.00000      -999.25
       2005.88880   2004.43126     18.54723     24.86995     43.66271     90.02791      0.96623      0.87198      0.98064      0.90771      0.98280      0.92215      0.98662      0.92802      1.00130      0.93875      1.03565      0.97931      0.97570      0.98447      0.93348      0.97936      0.93505      0.97899      0.96765      0.99296      0.60055     32.00000   3428.99960      1.20424      1.00000      1.00000
       2006.04120   2004.58118     16.31204     24.26096     45.09032     90.91566      1.02241      0.89129      1.01368      0.91309      1.00522      0.92264      0.99944      0.92768      0.99747      0.93543      1.13168      1.06431      1.08252      1.05458      1.05419      1.04661      1.05923      1.04296      1.08054      1.04258      0.59833     32.00000   3430.00036      1.20450      1.00000      1.00000
       2006.19360   2004.73109     10.93927     20.19579     43.28182     89.79105      1.00366      0.89631      0.99616      0.91063      0.99451      0.92081      0.98925      0.92426      0.97706      0.92299      1.14725      1.06900      1.08871      1.04991      1.05722      1.04203      1.05266      1.03462      1.05116      1.01914      0.44722     32.00000   3430.99967      1.20471      -999.25      1.00000
       2006.34600   2004.88100     11.09867     19.58383     34.70587     84.45814      0.96756      0.88265      0.96723      0.89402      0.96737      0.90452      0.95690      0.90773      0.93640      0.90353      1.07327      1.01821      1.01430      0.99857      0.98091      0.99023      0.97116      0.97967      0.96235      0.95820      0.44568     32.00000   3432.00043      1.20495      1.00000      1.00000
       2006.49840   2005.03090     17.80190     18.19838     26.54774     79.38504      0.90639      0.85461      0.91965      0.87203      0.92931      0.89107      0.92214      0.89638      0.90078      0.88581      1.00093      0.95394      0.93704      0.93940      0.89953      0.93507      0.88937      0.92451      0.88363      0.89976      0.44208     32.00000   3432.00043      1.20488      1.00000      1.00000
       2006.65080   2005.18080     21.21335     18.39383     29.26931     81.07744      0.86894      0.81597      0.87418      0.84053      0.88142      0.86761      0.87846      0.87922      0.86335      0.87130      0.88893      0.87291      0.85523      0.87084      0.83035      0.87244      0.82030      0.86636      0.81736      0.84972      0.44207     32.00000   3432.99974      1.20514      1.00000      -999.25
       2006.80320   2005.33069     23.59959     17.78911     38.87351     87.04977      0.81612      0.78512      0.82710      0.81180      0.84083      0.84238      0.84579      0.85752      0.83817      0.85144      0.84091      0.82114      0.81317      0.82253      0.79503      0.83053      0.79079      0.83164      0.79181      0.81957      0.44151     32.00000   3432.99974      1.20504      -999.25      -999.25
       2006.95560   2005.48058     23.08698     18.19192     43.74317     90.07794      0.78490      0.76097      0.79191      0.79010      0.80664      0.82046      0.81272      0.83962      0.80245      0.84292      0.78913      0.77832      0.76124      0.78088      0.74728      0.79225      0.74951      0.79641      0.75529      0.78465      0.44082     32.00000   3432.99974      1.20498      1.00000      1.00000
       2007.10800   2005.63046     33.87651     18.28845     44.09527     90.29689      0.75520      0.74737      0.76447      0.78214      0.78242      0.81568      0.79260      0.83740      0.78587      0.84395      0.77373      0.75877      0.74147      0.75797      0.72757      0.76790      0.73275      0.77580      0.74040      0.77098      0.44500     32.00000   3432.00043      1.20450      1.00000      1.00000
       2007.26040   2005.78033     54.58831     19.21755     43.01018     89.62213      0.75434      0.74436      0.75526      0.78539      0.76665      0.81900      0.77576      0.84164      0.77291      0.85436      0.72924      0.73666      0.70318      0.73862      0.69041      0.74693      0.69214      0.75203      0.69582      0.74751      0.44944     32.00000   3434.99981      1.20551      1.00000      1.00000
       2007.41280   2005.93020     74.92713     21.47522     40.01621     87.76035      0.76276      0.75785      0.76072      0.79762      0.77042      0.82828      0.78211      0.85350      0.78513      0.87531      0.70119      0.73514      0.68153      0.74049      0.66731      0.74624      0.65945      0.74835      0.65293      0.74618      0.45180     32.00000   3434.99981      1.20539      1.00000      -999.25
       2007.56520   2006.08006     39.26826     22.28757     39.01969     87.14066      0.79569      0.78693      0.79972      0.83411      0.80350      0.86288      0.81019      0.88631      0.81909      0.91367      0.73463      0.76861      0.71802      0.77904      0.70093      0.78524      0.69287      0.78876      0.69549      0.79330      0.44958     32.00000   3434.99981      1.20530      1.00000      1.00000
       2007.71760   2006.22992     21.71723     26.67249     42.49643     89.30266      0.89662      0.83931      0.90777      0.88490      0.90635      0.90338      0.90554      0.91690      0.91477      0.94215      0.83423      0.86461      0.83142      0.88522      0.82205      0.89199      0.82297      0.89699      0.84207      0.91335      0.44443     32.00000   3434.00050      1.20486      -999.25      -999.25
       2007.87000   2006.37977     20.39352     27.28148     42.85073     89.52298      1.00627      0.88562      0.99332      0.91920      0.97192      0.92939      0.95839      0.93927      0.96208      0.96320      1.01111      0.99843      1.01133      1.01898      1.00226      1.01682      1.01217      1.01133      1.05433      1.02259      0.44263     32.00000   3432.99974      1.20442      -999.25      1.00000
