~VERSION INFORMATION 
VERS  .    2.0                                     :CWLS Log ASCII Standard - VERSION 2.0
WRAP  .    NO                                      :One Line per Depth step
PROD  .    Schlumberger Technology Corp.           :LAS Producer
PROG  .    Horizon LASWriter 8.2.104493.3100       :LAS Program name and version
SOURCE.    Run03-Drilling                          :Run&Pass Information
CREA  .    11/08/2019                              :LAS Creation date {MM/DD/YYYY}
#--------------------------------------------------
~WELL INFORMATION 
#MNEM           .UNIT                      DATA            :DESCRIPTION
#----            ------          --------------            -----------------------------
STRT            .m                   1489.86240            :START DEPTH
STOP            .m                   2794.86360            :STOP DEPTH
STEP            .m                       0.1524            :STEP
NULL            .                       -999.25            :NULL VALUE
COMP            .                      Woodside            :COMPANY
WELL            .                         PLA07            :WELL NAME
FLD             .                 Pluto/WA-34-L            :FIELD NAME
RIGN            .                    Ocean Apex            :Rig Name
RIGTYP          .                Semi-Submersible          :Rig Type
SON             .                     19AWA0002            :Service Order Number
SRVC            .                  Schlumberger            :SERVICE COMPANY
DATE            .                    06/13/2019            :LOG DATE(Composite Date for Composite LAP) (MM/DD/YYYY)
CLAB            .                       County:            :County Label
CNTY            .                                          :COUNTY
SLAB            .                        State:            :State/Province Label
STAT            .                Western Australia         :STATE or PROVINCE
PROV            .                Western Australia         :STATE or PROVINCE
CTRY            .                     Australia            :COUNTRY
CONT_REGION     .                   Australasia            :Continent Region
SECT            .                                          :Section
TOWN            .                                          :Township
RANG            .                                          :Range
API             .                                          :API NUMBER
UWI             .                     19AWA0002            :UNIQUE WELL ID
LUL             .                        Zone 1            :Logging Unit Location
LUN             .                       1010979            :Logging Unit Number
LOC             .                       WA-34-L            :FIELD LOCATION
FL1             .                N 7 797 035.31m           :Field Location Line 1
FL2             .                 E 304 456.39m            :Field Location Line 2
LATI            .deg                 -19.913224            :LATITUDE
LONG            .deg                  115.13193            :LONGITUDE
PDAT            .                         OTHER            :Local Permanent Datum
LMF             .                            DF            :Logging Measured From
APD             .m                        23.85            :Elevation of Depth Reference (LMF) Above Permanent Datum
EPD             .m                        -1.35            :Elevation of Permanent Datum (PDAT) above Mean Sea Level
EKB             .m                      -999.25            :Elevation of Kelly Bushing Above Permanent Datum
EDF             .m                        23.85            :Elevation of Drill Floor Above Permanent Datum
EGL             .m                      -830.05            :Elevation of Ground Level Above Permanent Datum
ECF             .m                      -999.25            :Elevation of Casing Flange above Permanent Datum
#--------------------------------------------------
~CURVE INFORMATION
#MNEM           .UNIT                  API CODE            :DESCRIPTION
#----            ------          --------------            -----------------------------
DEPT            .m                                         :                                                        Depth Index
TVD             .m                                         :(RT)    (DnMWorkflow)           (6in)                   True Vertical Depth
ROP             .m/h                                       :(RT)    (DRILLING_SURFACE)      (6in)                   Rate of Penetration
ROP5            .m/h                                       :(RT)    (DRILLING_SURFACE)      (6in)                   Rate of penetration averaged over the last 5 ft (1.5 m)
GR_ARC          .gAPI                                      :(RM)    (ARC9)                  (6in)                   Gamma Ray
GR_CAL          .gAPI                                      :(RM)    (ARC9)                  (6in)                   Calibrated Gamma Ray
A16H            .ohm.m                                     :(RM)    (ARC9)                  (6in)                   Attenuation Resistivity 16 inch Spacing at 2 MHz, Environmentally Corrected
A16L            .ohm.m                                     :(RM)    (ARC9)                  (6in)                   Attenuation Resistivity 16 inch Spacing at 400 KHz, Environmentally Corrected
A22H            .ohm.m                                     :(RM)    (ARC9)                  (6in)                   Attenuation Resistivity 22 inch Spacing at 2 MHz, Environmentally Corrected
A22L            .ohm.m                                     :(RM)    (ARC9)                  (6in)                   Attenuation Resistivity 22 inch Spacing at 400 KHz, Environmentally Corrected
A28H            .ohm.m                                     :(RM)    (ARC9)                  (6in)                   Attenuation Resistivity 28 inch Spacing at 2 MHz, Environmentally Corrected
A28L            .ohm.m                                     :(RM)    (ARC9)                  (6in)                   Attenuation Resistivity 28 inch Spacing at 400 KHz, Environmentally Corrected
A34H            .ohm.m                                     :(RM)    (ARC9)                  (6in)                   Attenuation Resistivity 34 inch Spacing at 2 MHz, Environmentally Corrected
A34L            .ohm.m                                     :(RM)    (ARC9)                  (6in)                   Attenuation Resistivity 34 inch Spacing at 400 KHz, Environmentally Corrected
A40H            .ohm.m                                     :(RM)    (ARC9)                  (6in)                   Attenuation Resistivity 40 inch Spacing at 2 MHz, Environmentally Corrected.
A40L            .ohm.m                                     :(RM)    (ARC9)                  (6in)                   Attenuation Resistivity 40 inch Spacing at 400 KHz, Environmentally Corrected
P16H            .ohm.m                                     :(RM)    (ARC9)                  (6in)                   Phase Shift Resistivity 16 inch Spacing at 2 MHz, Environmentally Corrected.
P16L            .ohm.m                                     :(RM)    (ARC9)                  (6in)                   Phase Shift Resistivity 16 inch Spacing at 400 KHz, Environmentally Corrected.
P22H            .ohm.m                                     :(RM)    (ARC9)                  (6in)                   Phase Shift Resistivity 22 inch Spacing at 2 MHz, Environmentally Corrected.
P22L            .ohm.m                                     :(RM)    (ARC9)                  (6in)                   Phase Shift Resistivity 22 inch Spacing at 400 KHz, Environmentally Corrected.
P28H            .ohm.m                                     :(RM)    (ARC9)                  (6in)                   Phase Shift Resistivity 28 inch Spacing at 2 MHz, Environmentally Corrected.
P28L            .ohm.m                                     :(RM)    (ARC9)                  (6in)                   Phase Shift Resistivity 28 inch Spacing at 400 KHz, Environmentally Corrected.
P34H            .ohm.m                                     :(RM)    (ARC9)                  (6in)                   Phase Shift Resistivity 34 inch Spacing at 2 MHz, Environmentally Corrected.
P34L            .ohm.m                                     :(RM)    (ARC9)                  (6in)                   Phase Shift Resistivity 34 inch Spacing at 400 KHz, Environmentally Corrected.
P40H            .ohm.m                                     :(RM)    (ARC9)                  (6in)                   Phase Shift Resistivity 40 inch Spacing at 2 MHz, Environmentally Corrected.
P40L            .ohm.m                                     :(RM)    (ARC9)                  (6in)                   Phase Shift Resistivity 40 inch Spacing at 400 KHz, Environmentally Corrected.
TAB_RES         .h                                         :        (ARC9)                  (6in)                   Resistivity Time After Bit
DHAT            .degC                                      :(RM)    (ARC9)                  (6in)                   Downhole Annulus Temperature
DHAP            .psi                                       :(RM)    (ARC9)                  (6in)                   Downhole Annulus Pressure
ECD             .g/cm3                                     :(RM)    (ARC9)                  (6in)                   Equivalent Circulating Density
TICKS_GR        .                                          :(RM)    (ARC9)                  (1.2in)                 Gamma Ray Tick Marks
TICKS_RES       .                                          :(RM)    (ARC9)                  (1.2in)                 Resistivity Tick Marks
#-------------------------------------------------------------
#            DEPT          TVD          ROP         ROP5       GR_ARC       GR_CAL         A16H         A16L         A22H         A22L         A28H         A28L         A34H         A34L         A40H         A40L         P16H         P16L         P22H         P22L         P28H         P28L         P34H         P34L         P40H         P40L      TAB_RES         DHAT         DHAP          ECD     TICKS_GR    TICKS_RES 
#                  (DnMWorkfl)  (DRILLING_)  (DRILLING_)       (ARC9)       (ARC9)       (ARC9)       (ARC9)       (ARC9)       (ARC9)       (ARC9)       (ARC9)       (ARC9)       (ARC9)       (ARC9)       (ARC9)       (ARC9)       (ARC9)       (ARC9)       (ARC9)       (ARC9)       (ARC9)       (ARC9)       (ARC9)       (ARC9)       (ARC9)       (ARC9)       (ARC9)       (ARC9)       (ARC9)       (ARC9)       (ARC9) 
#                         (RT)         (RT)         (RT)         (RM)         (RM)         (RM)         (RM)         (RM)         (RM)         (RM)         (RM)         (RM)         (RM)         (RM)         (RM)         (RM)         (RM)         (RM)         (RM)         (RM)         (RM)         (RM)         (RM)         (RM)         (RM)                      (RM)         (RM)         (RM)         (RM)         (RM) 
#                        (6in)        (6in)        (6in)        (6in)        (6in)        (6in)        (6in)        (6in)        (6in)        (6in)        (6in)        (6in)        (6in)        (6in)        (6in)        (6in)        (6in)        (6in)        (6in)        (6in)        (6in)        (6in)        (6in)        (6in)        (6in)        (6in)        (6in)        (6in)        (6in)      (1.2in)      (1.2in) 
~ASCII
# ...
       2090.31840   2086.38521     51.74857     54.40485     35.05208     84.67342      0.93374      0.88177      0.96555      0.91680      0.97763      0.93807      0.97817      0.94592      0.98150      0.94832      1.07379      0.99204      1.02836      1.00541      0.99409      1.01259      0.99413      1.01184      1.02162      1.00846      0.44944     33.00000   3573.99963      1.20575      1.00000      1.00000
       2090.47080   2086.53074     45.37853     53.73336     27.58558     80.03042      0.92053      0.88421      0.96683      0.92073      0.98579      0.93972      0.98303      0.94293      0.97896      0.94176      1.13951      1.02376      1.08394      1.03241      1.04544      1.03612      1.04341      1.03401      1.06532      1.03028      0.45221     33.00000   3575.99970      1.20633      -999.25      1.00000
       2090.62320   2086.67627     52.25637     53.88857     25.81769     78.93106      0.97460      0.89466      0.99457      0.92423      1.00506      0.94147      1.00278      0.94408      0.99587      0.93992      1.15882      1.05061      1.09027      1.04627      1.05473      1.04514      1.05522      1.03980      1.06351      1.02785      0.45541     33.00000   3575.00039      1.20592      -999.25      -999.25
       2090.77560   2086.82178     50.12704     51.94604     27.51915     79.98911      0.98820      0.90311      1.00481      0.92598      1.02073      0.93803      1.01292      0.93971      0.98541      0.93792      1.08624      1.01359      0.98723      0.99318      0.93823      0.98786      0.93769      0.98153      0.94351      0.96171      0.45555     33.00000   3574.47100      1.20568      -999.25      1.00000
       2090.92800   2086.96729     37.97388     48.81910     29.87388     81.45338      0.93538      0.87339      0.94966      0.90298      0.96177      0.91869      0.95932      0.91878      0.94316      0.91262      0.95714      0.94173      0.89318      0.93241      0.85345      0.92929      0.84059      0.92580      0.83425      0.91664      0.45291     33.00000   3573.99963      1.20543      -999.25      -999.25
       2091.08040   2087.11279     31.93575     46.38116     33.26205     83.56030      0.91743      0.84323      0.91772      0.87682      0.91068      0.89312      0.89692      0.88964      0.88327      0.87888      0.92485      0.91572      0.87596      0.90896      0.84421      0.89944      0.83522      0.89180      0.83426      0.88890      0.44958     33.00000   3573.99963      1.20534      -999.25      -999.25
       2091.23280   2087.25828     31.59603     43.27790     36.59853     85.63508      0.88701      0.81624      0.89604      0.85005      0.89513      0.87151      0.88785      0.87496      0.88195      0.86825      0.89948      0.88007      0.86870      0.88494      0.84554      0.88474      0.83861      0.87641      0.84138      0.86493      0.44750     33.00000   3573.99963      1.20524      1.00000      -999.25
       2091.38520   2087.40377     39.24979     42.97838     37.85340     86.41541      0.86169      0.80234      0.87566      0.82783      0.88068      0.84666      0.87557      0.85611      0.86683      0.85883      0.88635      0.86788      0.85365      0.86795      0.82561      0.86759      0.81423      0.86137      0.81604      0.84997      0.44693     33.00000   3575.99970      1.20588      -999.25      -999.25
       2091.53760   2087.54924     51.33174     43.13126     37.46217     86.17213      0.80063      0.75762      0.82581      0.79677      0.84684      0.82107      0.85072      0.82770      0.83853      0.82572      0.85050      0.82056      0.80401      0.81411      0.77802      0.81286      0.77422      0.81155      0.77474      0.80560      0.44666     33.00000   3575.99970      1.20581      -999.25      -999.25
       2091.69000   2087.69471     38.69031     40.12096     42.20855     89.12364      0.78641      0.73817      0.79643      0.76867      0.80870      0.79437      0.81260      0.81264      0.80494      0.82333      0.81089      0.77448      0.77105      0.77584      0.74090      0.78299      0.73112      0.78477      0.73436      0.77553      0.44361     33.00000   3577.99977      1.20636      -999.25      -999.25
       2091.84240   2087.84017     37.16493     40.48318     52.19584     95.33420      0.75229      0.70824      0.75530      0.74095      0.76827      0.77344      0.77425      0.79731      0.76410      0.80817      0.77396      0.74384      0.73395      0.74112      0.70662      0.74619      0.69625      0.74878      0.69271      0.74147      0.44319     33.00000   3577.99977      1.20625      -999.25      -999.25
       2091.99480   2087.98562     49.72871     40.75132     57.91658     98.89162      0.69080      0.69690      0.71558      0.73169      0.74008      0.76726      0.74697      0.78947      0.73534      0.79416      0.73137      0.71254      0.69686      0.70983      0.67635      0.71479      0.67083      0.71700      0.66738      0.70921      0.44360     33.00000   3579.06144      1.20656      -999.25      1.00000
       2092.14720   2088.13106     58.39800     41.15378     56.88316     98.24899      0.66321      0.69012      0.68951      0.72601      0.72225      0.76842      0.73998      0.79739      0.73467      0.80475      0.70106      0.68529      0.67276      0.68648      0.65427      0.69942      0.64664      0.70808      0.64107      0.70127      0.44471     33.00000   3577.99977      1.20608      -999.25      -999.25
       2092.29960   2088.27649     66.97297     42.48901     56.56820     98.05313      0.65907      0.69620      0.68554      0.73214      0.71922      0.77265      0.74067      0.80237      0.73993      0.81312      0.67849      0.67057      0.65566      0.67834      0.64333      0.69561      0.64216      0.70763      0.64238      0.70484      0.44638     33.00000   3578.38122      1.20616      -999.25      1.00000
       2092.45200   2088.42191     60.66664     44.78474     53.35783     96.05678      0.65585      0.71066      0.69048      0.75607      0.73361      0.80090      0.76039      0.83284      0.76068      0.84622      0.69240      0.68184      0.67749      0.69637      0.67228      0.71957      0.67764      0.73391      0.68420      0.72966      0.44832     33.00000   3579.00053      1.20629      1.00000      1.00000
       2092.60440   2088.56733     62.11693     48.79797     44.10097     90.30044      0.68347      0.75376      0.72605      0.80391      0.77340      0.84840      0.80125      0.87997      0.80168      0.89693      0.73363      0.71936      0.72123      0.73811      0.71799      0.76485      0.72241      0.78294      0.72547      0.78290      0.45792     33.00000   3577.00046      1.20554      1.00000      1.00000
       2092.75680   2088.71274     66.35131     52.59454     41.03358     88.39300      0.74857      0.82180      0.79578      0.87526      0.83957      0.91666      0.86641      0.94822      0.87331      0.97335      0.77611      0.77888      0.77458      0.80487      0.76737      0.83193      0.76369      0.84909      0.76967      0.85421      0.46972     33.00000   3579.99984      1.20648      1.00000      1.00000
       2092.90920   2088.85814     59.68618     53.33917     42.23465     89.13988      0.84555      0.90089      0.90186      0.95469      0.94116      0.99211      0.96531      1.02665      0.98395      1.06035      0.88011      0.87474      0.89944      0.91783      0.88792      0.94691      0.86724      0.96267      0.86877      0.97910      0.48166     33.00000   3579.99984      1.20635      1.00000      1.00000
       2093.06160   2089.00353     50.67788     52.45585     41.03854     88.39608      1.07310      1.02019      1.12347      1.08158      1.15245      1.10844      1.16704      1.12763      1.17888      1.15703      1.16125      1.19555      1.26788      1.24287      1.28661      1.25408      1.25998      1.25575      1.28988      1.28111      0.48318     33.00000   3579.00053      1.20596      -999.25      1.00000
       2093.21400   2089.14891     49.75206     56.82261     37.82018     86.39475      1.26671      1.17218      1.36033      1.21446      1.37698      1.22486      1.36975      1.22397      1.39533      1.23113      1.80833      1.54794      1.92774      1.63964      1.89469      1.64061      1.87854      1.61739      2.05731      1.64920      0.48457     33.00000   3581.99991      1.20685      -999.25      -999.25
