~VERSION INFORMATION 
VERS  .    2.0                                     :CWLS Log ASCII Standard - VERSION 2.0
WRAP  .    NO                                      :One Line per Depth step
PROD  .    Schlumberger Technology Corp.           :LAS Producer
PROG  .    Horizon LASWriter 8.2.104493.3100       :LAS Program name and version
SOURCE.    Run03-Drilling                          :Run&Pass Information
CREA  .    11/08/2019                              :LAS Creation date {MM/DD/YYYY}
#--------------------------------------------------
~WELL INFORMATION 
#MNEM           .UNIT                      DATA            :DESCRIPTION
#----            ------          --------------            -----------------------------
STRT            .m                   1489.86240            :START DEPTH
STOP            .m                   2794.86360            :STOP DEPTH
STEP            .m                       0.1524            :STEP
NULL            .                       -999.25            :NULL VALUE
COMP            .                      Woodside            :COMPANY
WELL            .                         PLA07            :WELL NAME
FLD             .                 Pluto/WA-34-L            :FIELD NAME
RIGN            .                    Ocean Apex            :Rig Name
RIGTYP          .                Semi-Submersible          :Rig Type
SON             .                     19AWA0002            :Service Order Number
SRVC            .                  Schlumberger            :SERVICE COMPANY
DATE            .                    06/13/2019            :LOG DATE(Composite Date for Composite LAP) (MM/DD/YYYY)
CLAB            .                       County:            :County Label
CNTY            .                                          :COUNTY
SLAB            .                        State:            :State/Province Label
STAT            .                Western Australia         :STATE or PROVINCE
PROV            .                Western Australia         :STATE or PROVINCE
CTRY            .                     Australia            :COUNTRY
CONT_REGION     .                   Australasia            :Continent Region
SECT            .                                          :Section
TOWN            .                                          :Township
RANG            .                                          :Range
API             .                                          :API NUMBER
UWI             .                     19AWA0002            :UNIQUE WELL ID
LUL             .                        Zone 1            :Logging Unit Location
LUN             .                       1010979            :Logging Unit Number
LOC             .                       WA-34-L            :FIELD LOCATION
FL1             .                N 7 797 035.31m           :Field Location Line 1
FL2             .                 E 304 456.39m            :Field Location Line 2
LATI            .deg                 -19.913224            :LATITUDE
LONG            .deg                  115.13193            :LONGITUDE
PDAT            .                         OTHER            :Local Permanent Datum
LMF             .                            DF            :Logging Measured From
APD             .m                        23.85            :Elevation of Depth Reference (LMF) Above Permanent Datum
EPD             .m                        -1.35            :Elevation of Permanent Datum (PDAT) above Mean Sea Level
EKB             .m                      -999.25            :Elevation of Kelly Bushing Above Permanent Datum
EDF             .m                        23.85            :Elevation of Drill Floor Above Permanent Datum
EGL             .m                      -830.05            :Elevation of Ground Level Above Permanent Datum
ECF             .m                      -999.25            :Elevation of Casing Flange above Permanent Datum
#--------------------------------------------------
~CURVE INFORMATION
#MNEM           .UNIT                  API CODE            :DESCRIPTION
#----            ------          --------------            -----------------------------
DEPT            .m                                         :                                                        Depth Index
TVD             .m                                         :(RT)    (DnMWorkflow)           (6in)                   True Vertical Depth
GR              .gAPI                                      :(RM)    (ARC9)                  (6in)                   Gamma Ray
ROP             .m/h                                       :(RT)    (DRILLING_SURFACE)      (6in)                   Rate of Penetration
ROP5            .m/h                                       :(RT)    (DRILLING_SURFACE)      (6in)                   Rate of penetration averaged over the last 5 ft (1.5 m)
BLKP            .m                                         :(RT)    (DRILLING_SURFACE)      (6in)                   Height of block above rig floor
HKLA            .1000 lbf                                  :(RT)    (DRILLING_SURFACE)      (6in)                   Average Hookload
SWOB            .1000 lbf                                  :(RT)    (DRILLING_SURFACE)      (6in)                   Surface Weight On Bit
STOR            .1000 ft.lbf                               :(RT)    (DRILLING_SURFACE)      (6in)                   Surface Torque
RPM             .c/min                                     :(RT)    (DRILLING_SURFACE)      (6in)                   Rotational Speed
CRPM            .c/min                                     :(RM)    (TELE900)               (6in)                   Collar Rotational Speed
STICKNSLIP      .c/min                                     :(RM)    (TELE900)               (6in)                   Stick Slip Indicator
SPPA            .psi                                       :(RT)    (DRILLING_SURFACE)      (6in)                   Standpipe Pressure
TFLO            .gal/min                                   :(RT)    (DRILLING_SURFACE)      (6in)                   Total flow rate of all active pumps
TRPM            .c/min                                     :(RM)    (TELE900)               (6in)                   MWD Turbine Rotation Speed
DHAT            .degC                                      :(RM)    (ARC9)                  (6in)                   Downhole Annulus Temperature
DHAP            .psi                                       :(RM)    (ARC9)                  (6in)                   Downhole Annulus Pressure
ECD             .g/cm3                                     :(RM)    (ARC9)                  (6in)                   Equivalent Circulating Density
COBTM           .                                          :(RT)    (DRILLING_SURFACE)      (6in)                   Composite On Bottom Status
SHKL            .                                          :(RM)    (ARC9)                  (6in)                   Tool Shock Level
SHKRSK          .                                          :(RM)    (TELE900)               (6in)                   Shock Risk
SHKPK           .gn                                        :(RM)    (TELE900)               (6in)                   Shock Peak
SHOCKS_ACC      .                                          :(RM)    (TELE900)               (6in)                   Total Shocks accumulated over tool lifetime
VIB_X           .gn                                        :(RM)    (TELE900)               (6in)                   RMS Vibration, X-Axis
VIB_LAT         .gn                                        :(RM)    (TELE900)               (6in)                   Transverse RMS Vibration
INCL_CONT       .deg                                       :(RT)    (PDXCEED_900)           (6in)                   Continuous Inclination (Hole Deviation)
AZIM_CONT       .deg                                       :(RT)    (PDXCEED_900)           (6in)                   Continuous Hole Azimuth
#-------------------------------------------------------------
#            DEPT          TVD           GR          ROP         ROP5         BLKP         HKLA         SWOB         STOR          RPM         CRPM   STICKNSLIP         SPPA         TFLO         TRPM         DHAT         DHAP          ECD        COBTM         SHKL       SHKRSK        SHKPK   SHOCKS_ACC        VIB_X      VIB_LAT    INCL_CONT    AZIM_CONT 
#                  (DnMWorkfl)       (ARC9)  (DRILLING_)  (DRILLING_)  (DRILLING_)  (DRILLING_)  (DRILLING_)  (DRILLING_)  (DRILLING_)    (TELE900)    (TELE900)  (DRILLING_)  (DRILLING_)    (TELE900)       (ARC9)       (ARC9)       (ARC9)  (DRILLING_)       (ARC9)    (TELE900)    (TELE900)    (TELE900)    (TELE900)    (TELE900)  (PDXCEED_9)  (PDXCEED_9) 
#                         (RT)         (RM)         (RT)         (RT)         (RT)         (RT)         (RT)         (RT)         (RT)         (RM)         (RM)         (RT)         (RT)         (RM)         (RM)         (RM)         (RM)         (RT)         (RM)         (RM)         (RM)         (RM)         (RM)         (RM)         (RT)         (RT) 
#                        (6in)        (6in)        (6in)        (6in)        (6in)        (6in)        (6in)        (6in)        (6in)        (6in)        (6in)        (6in)        (6in)        (6in)        (6in)        (6in)        (6in)        (6in)        (6in)        (6in)        (6in)        (6in)        (6in)        (6in)        (6in)        (6in) 
~ASCII
# ...
       1496.87280   1496.86546     57.92802      7.11071     17.37260     27.96951    195.13000    -21.89894      8.02000     45.00000     27.00000     91.00000   1208.31273    695.88964   1506.50000     23.00000   2242.00060      1.05474      0.00000      0.00000      0.00000      0.00000      0.00000      0.00000      0.24983      -999.25      -999.25
       1497.02520   1497.01786     58.32334      2.41619      8.68175     27.88155    198.72001    -25.48892      5.82000     45.00000     32.00000      -999.25   1208.06457    695.88964   1508.00000     24.00000   2246.00074      1.05652      0.00000      0.00000      0.00000      0.00000      0.00000      0.00000      0.24983      1.07939      -999.25
       1497.17760   1497.17026     64.97207      2.80102      8.76274     27.62172    195.42998    -22.79869     10.21000     45.00000      -999.25     69.00000   1216.41251    695.88964      -999.25     24.00000   2249.99943      1.05830      0.00000      0.00000      -999.25      -999.25      -999.25      -999.25      -999.25      1.07939      -999.25
       1497.33000   1497.32266     66.28615     10.33981      7.99558     27.66920    199.20000    -25.96893      1.98000     45.00000     22.00000      -999.25   1229.24109    695.88964   1513.00000     24.00000   2257.99971      1.06193      0.00000      0.00000      0.00000      0.00000      0.00000      -999.25      -999.25      -999.25      -999.25
       1497.48240   1497.47506     58.19084      9.41997      7.42526     27.37545    198.78000    -25.54893      7.25000     45.00000      -999.25      -999.25   1212.94523    755.71431      -999.25     24.00000   2265.00069      1.06513      0.00000      0.00000      -999.25      0.00000      -999.25      -999.25      -999.25      1.07939      -999.25
       1497.63480   1497.62745     49.07235     12.33291      7.12117     27.14245    194.22999    -10.99893     10.09000     45.00000      -999.25     54.00000   1212.21613    755.71431      -999.25     24.00000   2268.99938      1.06688      0.00000      0.00000      -999.25      -999.25      -999.25      -999.25      -999.25      -999.25      -999.25
       1497.78720   1497.77985     53.20306     14.16266      6.78424     27.10739    196.33000     -0.21893      3.98000     45.00000     20.00000      -999.25   1214.98011    790.61222   1517.00000     24.00000   2270.99945      1.06775      0.00000      0.00000      0.00000      0.00000      0.00000      0.00000      0.24983      0.00000      -999.25
       1497.93960   1497.93225     57.86583     11.40358      6.42075     26.91592    198.96000     -5.72894      7.49000     45.00000      -999.25      -999.25   1218.53281    935.18882      -999.25     24.00000   2274.99959      1.06949      0.00000      0.00000      -999.25      0.00000      -999.25      -999.25      -999.25      -999.25      -999.25
       1498.09200   1498.08465     46.92316     11.99412      6.59818     26.70670    194.83002     -1.59893      9.49000     45.00000     33.00000     81.00000   1217.04516    920.23246   1515.00000     24.00000   2276.99966      1.07035      0.00000      0.00000      0.00000      0.00000      0.00000      -999.25      -999.25      0.00000      -999.25
       1498.24440   1498.23705     28.06109     14.16756      6.66713     26.51814    196.14999     -1.14090      1.50000     45.00000      -999.25      -999.25   1222.28160    920.23246      -999.25     24.00000   2280.00049      1.07164      0.00000      0.00000      -999.25      -999.25      -999.25      -999.25      -999.25      -999.25      -999.25
       1498.39680   1498.38945     11.15298     13.49825      7.23342     26.56341    192.90999     -3.32893      9.87000     45.00000      -999.25    135.00000   1227.30237    925.21792      -999.25     24.00000   2280.99980      1.07202      0.00000      0.00000      -999.25      0.00000      -999.25      -999.25      -999.25      0.00000      -999.25
       1498.54920   1498.54185      0.00000     10.37426     11.56162     26.26364    199.02001     -3.94721      1.31000     45.00000     36.00000      -999.25   1221.88347    970.08648   1515.00000     24.00000   2282.00056      1.07240      0.00000      0.00000      0.00000      0.00000      0.00000      -999.25      -999.25      0.00000      -999.25
       1498.70160   1498.69425      0.00000      9.86659     11.47906     26.04801    195.72999     -3.62893      1.62000     45.00000      -999.25      -999.25   1219.90850    970.08648      -999.25     24.00000   2286.00070      1.07411      0.00000      0.00000      -999.25      0.00000      -999.25      0.00000      0.24983      -999.25      -999.25
       1498.85400   1498.84665      0.00000     11.04062     11.72810     25.94725    198.47999     -5.13931      0.70000     45.00000     45.00000    126.00000   1211.67789    970.08648   1521.00000     25.00000   2288.00077      1.07495      0.00000      0.00000      0.00000      0.00000      0.00000      -999.25      -999.25      0.00000      -999.25
       1499.00640   1498.99905      5.05074     10.58811     11.79624     25.64915    197.04000     -3.80892      0.89000     52.00000      -999.25      -999.25   1216.11851    705.86029      -999.25     25.00000   2289.99939      1.07580      0.00000      0.00000      -999.25      0.00000      -999.25      -999.25      -999.25      -999.25      -999.25
       1499.15880   1499.15145      4.00347     10.89665     11.44128     25.67195    198.24000     -5.00894     12.72000     51.00000      -999.25    114.00000   1214.24695    695.88964      -999.25     25.00000   2291.99946      1.07666      0.00000      0.00000      -999.25      -999.25      -999.25      -999.25      -999.25      -999.25      -999.25
       1499.31120   1499.30385      8.19187     11.77356     11.41053     25.41730    199.43999     -4.04875      8.78000     52.00000     35.00000      -999.25   1209.68435    695.88964   1506.00000     25.00000   2295.00029      1.07792      0.00000      0.00000      0.00000      0.00000      0.00000      -999.25      -999.25      -999.25      -999.25
       1499.46360   1499.45625     17.47470     11.05912     11.37022     25.54535    197.52001     -4.28893     11.47000     51.00000     46.00000    153.00000   1209.13277    695.88964   1521.00000     25.00000   2297.00036      1.07875      0.00000      0.00000      0.00000      0.00000      0.00000      0.00000      0.24983      -999.25      -999.25
       1499.61600   1499.60865     15.39548      8.72082     10.64995     25.21379    197.46000     -4.22894      5.17000     52.00000      -999.25      -999.25   1219.16851    965.10129      -999.25     25.00000   2301.00050      1.08049      0.00000      0.00000      -999.25      -999.25      -999.25      -999.25      -999.25      0.00000      -999.25
       1499.76840   1499.76104      6.03549     10.08874     10.67733     24.95281    197.39999     -3.03894      1.03000     52.00000      -999.25      -999.25   1220.92274    965.10129      -999.25     25.00000   2305.99995      1.08273      0.00000      0.00000      -999.25      0.00000      -999.25      -999.25      -999.25      -999.25      -999.25
       1499.92080   1499.91344      9.81593     13.04532     10.59192     24.66813    196.45000     -0.61291      6.64000     52.00000     30.00000     84.00000   1216.44877    965.10129   1516.00000     25.00000   2310.99940      1.08498      0.00000      0.00000      0.00000      0.00000      0.00000      -999.25      -999.25      -999.25      -999.25
       1500.07320   1500.06584     14.53731     12.78763     11.10889     24.78475    196.14999     -7.15893      3.31000     52.00000      -999.25      -999.25   1231.16749    970.08648      -999.25     25.00000   2312.99948      1.08581      0.00000      0.00000      -999.25      -999.25      -999.25      -999.25      -999.25      -999.25      -999.25
       1500.22560   1500.21824      7.88950     12.42617     11.08203     24.69634    194.52999     -5.60893     10.68000     52.00000      -999.25    153.00000   1229.89521    970.08648      -999.25     25.00000   2318.99969      1.08850      0.00000      0.00000      -999.25      0.00000      -999.25      -999.25      -999.25      0.00000      -999.25
