~VERSION INFORMATION 
VERS  .    2.0                                     :CWLS Log ASCII Standard - VERSION 2.0
WRAP  .    NO                                      :One Line per Depth step
PROD  .    Schlumberger Technology Corp.           :LAS Producer
PROG  .    Horizon LASWriter 8.2.104493.3100       :LAS Program name and version
SOURCE.    Run03-Drilling                          :Run&Pass Information
CREA  .    11/08/2019                              :LAS Creation date {MM/DD/YYYY}
#--------------------------------------------------
~WELL INFORMATION 
#MNEM           .UNIT                      DATA            :DESCRIPTION
#----            ------          --------------            -----------------------------
STRT            .m                   1489.86240            :START DEPTH
STOP            .m                   2794.86360            :STOP DEPTH
STEP            .m                       0.1524            :STEP
NULL            .                       -999.25            :NULL VALUE
COMP            .                      Woodside            :COMPANY
WELL            .                         PLA07            :WELL NAME
FLD             .                 Pluto/WA-34-L            :FIELD NAME
RIGN            .                    Ocean Apex            :Rig Name
RIGTYP          .                Semi-Submersible          :Rig Type
SON             .                     19AWA0002            :Service Order Number
SRVC            .                  Schlumberger            :SERVICE COMPANY
DATE            .                    06/13/2019            :LOG DATE(Composite Date for Composite LAP) (MM/DD/YYYY)
CLAB            .                       County:            :County Label
CNTY            .                                          :COUNTY
SLAB            .                        State:            :State/Province Label
STAT            .                Western Australia         :STATE or PROVINCE
PROV            .                Western Australia         :STATE or PROVINCE
CTRY            .                     Australia            :COUNTRY
CONT_REGION     .                   Australasia            :Continent Region
SECT            .                                          :Section
TOWN            .                                          :Township
RANG            .                                          :Range
API             .                                          :API NUMBER
UWI             .                     19AWA0002            :UNIQUE WELL ID
LUL             .                        Zone 1            :Logging Unit Location
LUN             .                       1010979            :Logging Unit Number
LOC             .                       WA-34-L            :FIELD LOCATION
FL1             .                N 7 797 035.31m           :Field Location Line 1
FL2             .                 E 304 456.39m            :Field Location Line 2
LATI            .deg                 -19.913224            :LATITUDE
LONG            .deg                  115.13193            :LONGITUDE
PDAT            .                         OTHER            :Local Permanent Datum
LMF             .                            DF            :Logging Measured From
APD             .m                        23.85            :Elevation of Depth Reference (LMF) Above Permanent Datum
EPD             .m                        -1.35            :Elevation of Permanent Datum (PDAT) above Mean Sea Level
EKB             .m                      -999.25            :Elevation of Kelly Bushing Above Permanent Datum
EDF             .m                        23.85            :Elevation of Drill Floor Above Permanent Datum
EGL             .m                      -830.05            :Elevation of Ground Level Above Permanent Datum
ECF             .m                      -999.25            :Elevation of Casing Flange above Permanent Datum
#--------------------------------------------------
~CURVE INFORMATION
#MNEM           .UNIT                  API CODE            :DESCRIPTION
#----            ------          --------------            -----------------------------
DEPT            .m                                         :                                                        Depth Index
TVD             .m                                         :(RT)    (DnMWorkflow)           (6in)                   True Vertical Depth
GR              .gAPI                                      :(RM)    (ARC9)                  (6in)                   Gamma Ray
ROP             .m/h                                       :(RT)    (DRILLING_SURFACE)      (6in)                   Rate of Penetration
ROP5            .m/h                                       :(RT)    (DRILLING_SURFACE)      (6in)                   Rate of penetration averaged over the last 5 ft (1.5 m)
BLKP            .m                                         :(RT)    (DRILLING_SURFACE)      (6in)                   Height of block above rig floor
HKLA            .1000 lbf                                  :(RT)    (DRILLING_SURFACE)      (6in)                   Average Hookload
SWOB            .1000 lbf                                  :(RT)    (DRILLING_SURFACE)      (6in)                   Surface Weight On Bit
STOR            .1000 ft.lbf                               :(RT)    (DRILLING_SURFACE)      (6in)                   Surface Torque
RPM             .c/min                                     :(RT)    (DRILLING_SURFACE)      (6in)                   Rotational Speed
CRPM            .c/min                                     :(RM)    (TELE900)               (6in)                   Collar Rotational Speed
STICKNSLIP      .c/min                                     :(RM)    (TELE900)               (6in)                   Stick Slip Indicator
SPPA            .psi                                       :(RT)    (DRILLING_SURFACE)      (6in)                   Standpipe Pressure
TFLO            .gal/min                                   :(RT)    (DRILLING_SURFACE)      (6in)                   Total flow rate of all active pumps
TRPM            .c/min                                     :(RM)    (TELE900)               (6in)                   MWD Turbine Rotation Speed
DHAT            .degC                                      :(RM)    (ARC9)                  (6in)                   Downhole Annulus Temperature
DHAP            .psi                                       :(RM)    (ARC9)                  (6in)                   Downhole Annulus Pressure
ECD             .g/cm3                                     :(RM)    (ARC9)                  (6in)                   Equivalent Circulating Density
COBTM           .                                          :(RT)    (DRILLING_SURFACE)      (6in)                   Composite On Bottom Status
SHKL            .                                          :(RM)    (ARC9)                  (6in)                   Tool Shock Level
SHKRSK          .                                          :(RM)    (TELE900)               (6in)                   Shock Risk
SHKPK           .gn                                        :(RM)    (TELE900)               (6in)                   Shock Peak
SHOCKS_ACC      .                                          :(RM)    (TELE900)               (6in)                   Total Shocks accumulated over tool lifetime
VIB_X           .gn                                        :(RM)    (TELE900)               (6in)                   RMS Vibration, X-Axis
VIB_LAT         .gn                                        :(RM)    (TELE900)               (6in)                   Transverse RMS Vibration
INCL_CONT       .deg                                       :(RT)    (PDXCEED_900)           (6in)                   Continuous Inclination (Hole Deviation)
AZIM_CONT       .deg                                       :(RT)    (PDXCEED_900)           (6in)                   Continuous Hole Azimuth
#-------------------------------------------------------------
#            DEPT          TVD           GR          ROP         ROP5         BLKP         HKLA         SWOB         STOR          RPM         CRPM   STICKNSLIP         SPPA         TFLO         TRPM         DHAT         DHAP          ECD        COBTM         SHKL       SHKRSK        SHKPK   SHOCKS_ACC        VIB_X      VIB_LAT    INCL_CONT    AZIM_CONT 
#                  (DnMWorkfl)       (ARC9)  (DRILLING_)  (DRILLING_)  (DRILLING_)  (DRILLING_)  (DRILLING_)  (DRILLING_)  (DRILLING_)    (TELE900)    (TELE900)  (DRILLING_)  (DRILLING_)    (TELE900)       (ARC9)       (ARC9)       (ARC9)  (DRILLING_)       (ARC9)    (TELE900)    (TELE900)    (TELE900)    (TELE900)    (TELE900)  (PDXCEED_9)  (PDXCEED_9) 
#                         (RT)         (RM)         (RT)         (RT)         (RT)         (RT)         (RT)         (RT)         (RT)         (RM)         (RM)         (RT)         (RT)         (RM)         (RM)         (RM)         (RM)         (RT)         (RM)         (RM)         (RM)         (RM)         (RM)         (RM)         (RT)         (RT) 
#                        (6in)        (6in)        (6in)        (6in)        (6in)        (6in)        (6in)        (6in)        (6in)        (6in)        (6in)        (6in)        (6in)        (6in)        (6in)        (6in)        (6in)        (6in)        (6in)        (6in)        (6in)        (6in)        (6in)        (6in)        (6in)        (6in) 
~ASCII
# ...
       2702.66160   2538.88920     54.35700      7.44418     14.62688     33.29097    205.24000     32.43622     20.31000    131.00000      -999.25      -999.25   3768.56050   1169.36386      -999.25     42.00000   4498.00025      1.24678      0.00000      0.00000      -999.25      0.00000      -999.25      -999.25      -999.25      -999.25      -999.25
       2702.81400   2538.97979     58.42042     12.35273     15.10445     33.16498    201.22999     37.70621      9.07000    132.00000      -999.25    285.00000   3771.97904   1174.39555      -999.25     42.00000   4498.99956      1.24700      0.00000      0.00000      -999.25      -999.25      -999.25      -999.25      -999.25      -999.25      -999.25
       2702.96640   2539.07037     61.00682     23.62542     14.83737     33.01804    198.96000     39.99373     18.76000    132.00000     63.00000      -999.25   3789.65044   1174.39555   3318.00000     42.00000   4498.99956      1.24695      0.00000      0.00000      0.00000      0.00000      0.00000      -999.25      -999.25     53.71429    186.84730
       2703.11880   2539.16094     61.23665     27.29961     15.81041     32.86008    196.21000     42.68507     28.99000    131.00000      -999.25      -999.25   3812.18205   1174.39555      -999.25     42.00000   4500.99963      1.24747      0.00000      0.00000      -999.25      -999.25      -999.25      -999.25      -999.25      -999.25      -999.25
       2703.27120   2539.25151     60.84790     39.68919     16.62334     32.70687    192.43999     47.09623     20.57000    131.00000      -999.25      -999.25   3784.67419   1169.36386      -999.25     42.00000   4500.00032      1.24715      0.00000      0.00000      -999.25      -999.25      -999.25      -999.25      -999.25      -999.25      -999.25
       2703.42360   2539.34206     59.39803     28.57355     16.80469     32.49281    193.63000     50.08620     11.17000    133.00000      -999.25      -999.25   3819.28455   1174.39555      -999.25     42.00000   4496.99949      1.24627      0.00000      0.00000      -999.25      0.00000      -999.25      -999.25      -999.25      -999.25      -999.25
       2703.57600   2539.43261     57.90445     17.57920     15.92022     32.38203    194.52999     44.40621     20.67000    131.00000      -999.25    291.00000   3783.86778   1169.36386      -999.25     42.00000   4496.99949      1.24623      0.00000      0.00000      -999.25      -999.25      -999.25      -999.25      -999.25     53.71429    186.84730
       2703.72840   2539.52316     57.94975     18.23836     17.05081     32.24105    196.62000     43.62622     12.33000    132.00000    175.00000      -999.25   3811.40755   1174.39555   3317.00000     42.00000   4498.00025      1.24646      0.00000      0.00000      0.00000      0.00000      0.00000      -999.25      -999.25      -999.25      -999.25
       2703.88080   2539.61370     57.90168     28.97270     17.04990     32.08982    201.46999     39.55622     26.74000    132.00000      -999.25      -999.25   3826.56109   1174.39555      -999.25     42.00000   4498.00025      1.24642      0.00000      0.00000      -999.25      -999.25      -999.25      -999.25      -999.25      -999.25      -999.25
       2704.03320   2539.70422     59.38557     33.89969     21.10506     31.96895    196.98001     41.95622     34.29000    131.00000      -999.25      -999.25   3778.19826   1174.39555      -999.25     42.00000   4498.00025      1.24637      0.00000      0.00000      -999.25      -999.25      -999.25      -999.25      -999.25      -999.25      -999.25
       2704.18560   2539.79475     59.23207     43.45098     27.48186     31.79518    196.92000     42.90621     34.60000    131.00000      -999.25      -999.25   3777.26857   1174.39555      -999.25     42.00000   4500.99963      1.24715      0.00000      0.00000      -999.25      -999.25      -999.25      -999.25      -999.25      -999.25      -999.25
       2704.33800   2539.88526     54.39065     43.91755     27.97576     31.65106    197.10001     41.83622     23.25000    131.00000      -999.25      -999.25   3848.09630   1174.39555      -999.25     42.00000   4496.99949      1.24600      0.00000      0.00000      -999.25      -999.25      -999.25      -999.25      -999.25      -999.25      -999.25
       2704.49040   2539.97577     55.01400     46.16549     31.00350     31.48210    197.10001     41.83622     15.83000    132.00000      -999.25      -999.25   3847.88309   1174.39555      -999.25     42.00000   4494.99942      1.24540      0.00000      0.00000      -999.25      0.00000      -999.25      0.12492      0.74949     53.67161    187.03650
       2704.64280   2540.06627     59.14573     42.08798     30.14675     31.34105    198.00000     40.93623     17.91000    133.00000      -999.25      -999.25   3833.50550   1174.39555      -999.25     42.00000   4496.99949      1.24591      0.00000      0.00000      -999.25      -999.25      -999.25      -999.25      -999.25      -999.25      -999.25
       2704.79520   2540.15677     57.32451     39.41201     30.96947     31.20993    194.77001     44.16622     39.26000    131.00000      -999.25    306.00000   3826.24201   1174.39555      -999.25     42.00000   4498.00025      1.24614      0.00000      0.00000      -999.25      -999.25      -999.25      -999.25      -999.25      -999.25      -999.25
       2704.94760   2540.24726     59.23469     47.22042     32.88711     31.10420    193.27001     45.66622     32.82000    131.00000      -999.25      -999.25   3844.52112   1174.39555      -999.25     42.00000   4502.99970      1.24748      0.00000      0.00000      -999.25      -999.25      -999.25      -999.25      -999.25      -999.25      -999.25
       2705.10000   2540.33774     64.15675     41.53201     38.86765     30.93424    193.09000     45.84623     12.99000    132.00000    201.00000      -999.25   3937.65420   1174.39555   3236.00000     42.00000   4496.99949      1.24578      0.00000      0.00000      0.00000      0.00000      0.00000      -999.25      -999.25      -999.25      -999.25
       2705.25240   2540.42821     57.05792     28.76631     37.88779     30.69258    194.29000     46.97621     30.16000    132.00000      -999.25      -999.25   3897.06829   1174.39555      -999.25     42.00000   4496.00018      1.24546      0.00000      0.00000      -999.25      -999.25      -999.25      -999.25      -999.25      -999.25      -999.25
       2705.40480   2540.51868     50.47216     31.12865     39.60359     30.61314    191.53999     47.39623     35.68000    131.00000      -999.25      -999.25   3866.98456   1174.39555      -999.25     42.00000   4498.00025      1.24598      0.00000      0.00000      -999.25      -999.25      -999.25      -999.25      -999.25      -999.25      -999.25
       2705.55720   2540.60914     55.36717     23.20344     34.34846     30.45611    192.61999     46.31623     12.91000    132.00000      -999.25      -999.25   3806.97665   1174.39555      -999.25     42.00000   4500.00032      1.24647      0.00000      0.00000      -999.25      0.00000      -999.25      -999.25      -999.25      -999.25      -999.25
       2705.70960   2540.69959     60.93645     20.31782     32.79664     30.33692    194.05000     44.88620     37.47000    131.00000      -999.25      -999.25   3836.17274   1174.39555      -999.25     42.00000   4498.99956      1.24616      0.00000      0.00000      -999.25      -999.25      -999.25      -999.25      -999.25     53.67161    187.03650
       2705.86200   2540.79003     54.24009     37.73307     33.48986     30.04954    191.84000     47.10897     32.81000    131.00000      -999.25    291.00000   3839.77258   1174.39555      -999.25     42.00000   4498.99956      1.24612      0.00000      0.00000      -999.25      -999.25      -999.25      -999.25      -999.25     53.75694    186.65260
       2706.01440   2540.88047     38.32627     41.99275     32.34005     29.96903    192.61999     46.31623     10.57000    133.00000    199.00000      -999.25   3793.50989   1174.39555      -999.25     42.00000   4496.99949      1.24552      0.00000      0.00000      -999.25      0.00000      -999.25      -999.25      -999.25     53.71429    186.84730
