~VERSION INFORMATION 
VERS  .    2.0                                     :CWLS Log ASCII Standard - VERSION 2.0
WRAP  .    NO                                      :One Line per Depth step
PROD  .    Schlumberger Technology Corp.           :LAS Producer
PROG  .    Horizon LASWriter 8.2.104493.3100       :LAS Program name and version
SOURCE.    Run03-Drilling                          :Run&Pass Information
CREA  .    11/08/2019                              :LAS Creation date {MM/DD/YYYY}
#--------------------------------------------------
~WELL INFORMATION 
#MNEM           .UNIT                      DATA            :DESCRIPTION
#----            ------          --------------            -----------------------------
STRT            .m                   1489.86240            :START DEPTH
STOP            .m                   2794.86360            :STOP DEPTH
STEP            .m                       0.1524            :STEP
NULL            .                       -999.25            :NULL VALUE
COMP            .                      Woodside            :COMPANY
WELL            .                         PLA07            :WELL NAME
FLD             .                 Pluto/WA-34-L            :FIELD NAME
RIGN            .                    Ocean Apex            :Rig Name
RIGTYP          .                Semi-Submersible          :Rig Type
SON             .                     19AWA0002            :Service Order Number
SRVC            .                  Schlumberger            :SERVICE COMPANY
DATE            .                    06/13/2019            :LOG DATE(Composite Date for Composite LAP) (MM/DD/YYYY)
CLAB            .                       County:            :County Label
CNTY            .                                          :COUNTY
SLAB            .                        State:            :State/Province Label
STAT            .                Western Australia         :STATE or PROVINCE
PROV            .                Western Australia         :STATE or PROVINCE
CTRY            .                     Australia            :COUNTRY
CONT_REGION     .                   Australasia            :Continent Region
SECT            .                                          :Section
TOWN            .                                          :Township
RANG            .                                          :Range
API             .                                          :API NUMBER
UWI             .                     19AWA0002            :UNIQUE WELL ID
LUL             .                        Zone 1            :Logging Unit Location
LUN             .                       1010979            :Logging Unit Number
LOC             .                       WA-34-L            :FIELD LOCATION
FL1             .                N 7 797 035.31m           :Field Location Line 1
FL2             .                 E 304 456.39m            :Field Location Line 2
LATI            .deg                 -19.913224            :LATITUDE
LONG            .deg                  115.13193            :LONGITUDE
PDAT            .                         OTHER            :Local Permanent Datum
LMF             .                            DF            :Logging Measured From
APD             .m                        23.85            :Elevation of Depth Reference (LMF) Above Permanent Datum
EPD             .m                        -1.35            :Elevation of Permanent Datum (PDAT) above Mean Sea Level
EKB             .m                      -999.25            :Elevation of Kelly Bushing Above Permanent Datum
EDF             .m                        23.85            :Elevation of Drill Floor Above Permanent Datum
EGL             .m                      -830.05            :Elevation of Ground Level Above Permanent Datum
ECF             .m                      -999.25            :Elevation of Casing Flange above Permanent Datum
#--------------------------------------------------
~CURVE INFORMATION
#MNEM           .UNIT                  API CODE            :DESCRIPTION
#----            ------          --------------            -----------------------------
DEPT            .m                                         :                                                        Depth Index
TVD             .m                                         :(RT)    (DnMWorkflow)           (6in)                   True Vertical Depth
ROP             .m/h                                       :(RT)    (DRILLING_SURFACE)      (6in)                   Rate of Penetration
ROP5            .m/h                                       :(RT)    (DRILLING_SURFACE)      (6in)                   Rate of penetration averaged over the last 5 ft (1.5 m)
GR_ARC          .gAPI                                      :(RM)    (ARC9)                  (6in)                   Gamma Ray
GR_CAL          .gAPI                                      :(RM)    (ARC9)                  (6in)                   Calibrated Gamma Ray
A16H            .ohm.m                                     :(RM)    (ARC9)                  (6in)                   Attenuation Resistivity 16 inch Spacing at 2 MHz, Environmentally Corrected
A16L            .ohm.m                                     :(RM)    (ARC9)                  (6in)                   Attenuation Resistivity 16 inch Spacing at 400 KHz, Environmentally Corrected
A22H            .ohm.m                                     :(RM)    (ARC9)                  (6in)                   Attenuation Resistivity 22 inch Spacing at 2 MHz, Environmentally Corrected
A22L            .ohm.m                                     :(RM)    (ARC9)                  (6in)                   Attenuation Resistivity 22 inch Spacing at 400 KHz, Environmentally Corrected
A28H            .ohm.m                                     :(RM)    (ARC9)                  (6in)                   Attenuation Resistivity 28 inch Spacing at 2 MHz, Environmentally Corrected
A28L            .ohm.m                                     :(RM)    (ARC9)                  (6in)                   Attenuation Resistivity 28 inch Spacing at 400 KHz, Environmentally Corrected
A34H            .ohm.m                                     :(RM)    (ARC9)                  (6in)                   Attenuation Resistivity 34 inch Spacing at 2 MHz, Environmentally Corrected
A34L            .ohm.m                                     :(RM)    (ARC9)                  (6in)                   Attenuation Resistivity 34 inch Spacing at 400 KHz, Environmentally Corrected
A40H            .ohm.m                                     :(RM)    (ARC9)                  (6in)                   Attenuation Resistivity 40 inch Spacing at 2 MHz, Environmentally Corrected.
A40L            .ohm.m                                     :(RM)    (ARC9)                  (6in)                   Attenuation Resistivity 40 inch Spacing at 400 KHz, Environmentally Corrected
P16H            .ohm.m                                     :(RM)    (ARC9)                  (6in)                   Phase Shift Resistivity 16 inch Spacing at 2 MHz, Environmentally Corrected.
P16L            .ohm.m                                     :(RM)    (ARC9)                  (6in)                   Phase Shift Resistivity 16 inch Spacing at 400 KHz, Environmentally Corrected.
P22H            .ohm.m                                     :(RM)    (ARC9)                  (6in)                   Phase Shift Resistivity 22 inch Spacing at 2 MHz, Environmentally Corrected.
P22L            .ohm.m                                     :(RM)    (ARC9)                  (6in)                   Phase Shift Resistivity 22 inch Spacing at 400 KHz, Environmentally Corrected.
P28H            .ohm.m                                     :(RM)    (ARC9)                  (6in)                   Phase Shift Resistivity 28 inch Spacing at 2 MHz, Environmentally Corrected.
P28L            .ohm.m                                     :(RM)    (ARC9)                  (6in)                   Phase Shift Resistivity 28 inch Spacing at 400 KHz, Environmentally Corrected.
P34H            .ohm.m                                     :(RM)    (ARC9)                  (6in)                   Phase Shift Resistivity 34 inch Spacing at 2 MHz, Environmentally Corrected.
P34L            .ohm.m                                     :(RM)    (ARC9)                  (6in)                   Phase Shift Resistivity 34 inch Spacing at 400 KHz, Environmentally Corrected.
P40H            .ohm.m                                     :(RM)    (ARC9)                  (6in)                   Phase Shift Resistivity 40 inch Spacing at 2 MHz, Environmentally Corrected.
P40L            .ohm.m                                     :(RM)    (ARC9)                  (6in)                   Phase Shift Resistivity 40 inch Spacing at 400 KHz, Environmentally Corrected.
TAB_RES         .h                                         :        (ARC9)                  (6in)                   Resistivity Time After Bit
DHAT            .degC                                      :(RM)    (ARC9)                  (6in)                   Downhole Annulus Temperature
DHAP            .psi                                       :(RM)    (ARC9)                  (6in)                   Downhole Annulus Pressure
ECD             .g/cm3                                     :(RM)    (ARC9)                  (6in)                   Equivalent Circulating Density
TICKS_GR        .                                          :(RM)    (ARC9)                  (1.2in)                 Gamma Ray Tick Marks
TICKS_RES       .                                          :(RM)    (ARC9)                  (1.2in)                 Resistivity Tick Marks
#-------------------------------------------------------------
#            DEPT          TVD          ROP         ROP5       GR_ARC       GR_CAL         A16H         A16L         A22H         A22L         A28H         A28L         A34H         A34L         A40H         A40L         P16H         P16L         P22H         P22L         P28H         P28L         P34H         P34L         P40H         P40L      TAB_RES         DHAT         DHAP          ECD     TICKS_GR    TICKS_RES 
#                  (DnMWorkfl)  (DRILLING_)  (DRILLING_)       (ARC9)       (ARC9)       (ARC9)       (ARC9)       (ARC9)       (ARC9)       (ARC9)       (ARC9)       (ARC9)       (ARC9)       (ARC9)       (ARC9)       (ARC9)       (ARC9)       (ARC9)       (ARC9)       (ARC9)       (ARC9)       (ARC9)       (ARC9)       (ARC9)       (ARC9)       (ARC9)       (ARC9)       (ARC9)       (ARC9)       (ARC9)       (ARC9) 
#                         (RT)         (RT)         (RT)         (RM)         (RM)         (RM)         (RM)         (RM)         (RM)         (RM)         (RM)         (RM)         (RM)         (RM)         (RM)         (RM)         (RM)         (RM)         (RM)         (RM)         (RM)         (RM)         (RM)         (RM)         (RM)                      (RM)         (RM)         (RM)         (RM)         (RM) 
#                        (6in)        (6in)        (6in)        (6in)        (6in)        (6in)        (6in)        (6in)        (6in)        (6in)        (6in)        (6in)        (6in)        (6in)        (6in)        (6in)        (6in)        (6in)        (6in)        (6in)        (6in)        (6in)        (6in)        (6in)        (6in)        (6in)        (6in)        (6in)        (6in)      (1.2in)      (1.2in) 
~ASCII
# ...
       2264.05440   2242.75139     12.65581     11.53915     14.35480     71.80292      1.03661      1.00418      1.09134      1.05986      1.12300      1.09684      1.12840      1.11859      1.12179      1.13258      1.20774      1.13578      1.18974      1.15225      1.16772      1.16362      1.15933      1.16180      1.16933      1.15110      1.47637     33.00000   3792.00005      1.19000      1.00000      1.00000
       2264.20680   2242.88048     12.02791     12.02966     13.89861     71.51923      1.05693      1.02108      1.10705      1.06916      1.13815      1.10285      1.14322      1.12143      1.13344      1.13015      1.25849      1.16198      1.22635      1.17470      1.20328      1.18667      1.19866      1.18579      1.20452      1.17245      1.47317     33.00000   3792.99936      1.19025      1.00000      1.00000
       2264.35920   2243.00954     12.72049     15.05230     18.45749     74.35416      1.07446      1.02560      1.12103      1.07407      1.15252      1.10902      1.15830      1.12876      1.14647      1.13772      1.25312      1.16937      1.21347      1.17332      1.18912      1.18345      1.18656      1.18451      1.19201      1.17063      1.46721     33.00000   3796.00019      1.19112      1.00000      1.00000
       2264.51160   2243.13859     11.53267     13.96870     14.39399     71.82729      1.07503      1.03558      1.11837      1.07988      1.14619      1.11632      1.14824      1.13718      1.13360      1.14300      1.22623      1.16334      1.17942      1.16027      1.15156      1.16658      1.14531      1.16685      1.14369      1.15263      1.46109     33.00000   3792.99936      1.19011      1.00000      1.00000
       2264.66400   2243.26761      8.86437     12.52927     10.31424     69.29031      1.05220      1.03263      1.10377      1.08398      1.13387      1.11953      1.13742      1.13789      1.12767      1.14531      1.15661      1.12177      1.11753      1.13023      1.09054      1.14054      1.08053      1.13869      1.07708      1.12291      1.45192     33.00000   3792.00005      1.18974      1.00000      1.00000
       2264.81640   2243.39660      6.44152     10.77270     15.53666     72.53785      1.04074      1.02726      1.09852      1.08144      1.13184      1.12153      1.13997      1.14260      1.13785      1.14930      1.11417      1.09732      1.09924      1.12013      1.07995      1.13792      1.06776      1.13960      1.06744      1.12913      1.43803     33.00000   3794.00012      1.19030      1.00000      1.00000
       2264.96880   2243.52558      6.06864      9.98607     16.28125     73.00087      1.05182      1.02963      1.10804      1.08423      1.13967      1.12320      1.14426      1.14084      1.13713      1.14353      1.13983      1.11386      1.12991      1.13737      1.11472      1.15239      1.11007      1.15173      1.12205      1.14265      1.42859     33.00000   3789.99998      1.18897      1.00000      1.00000
       2265.12120   2243.65453      6.52107      9.22537     12.23800     70.48660      1.06157      1.02422      1.11134      1.08203      1.13868      1.11515      1.14053      1.12697      1.13101      1.13086      1.18627      1.13604      1.17247      1.15727      1.16029      1.17312      1.16164      1.17466      1.17576      1.16622      1.41360     33.00000   3794.00012      1.19017      1.00000      1.00000
       2265.27360   2243.78346      7.06864      8.67016     12.82328     70.85055      1.06504      1.02136      1.11233      1.07539      1.13384      1.10653      1.13289      1.12029      1.12660      1.12834      1.20275      1.14630      1.17643      1.15986      1.16200      1.17130      1.16552      1.17198      1.17604      1.16340      1.41234     33.00000   3796.00019      1.19071      1.00000      1.00000
       2265.42600   2243.91236      7.95482      8.27606     16.77501     73.30791      1.06992      1.01905      1.11284      1.07382      1.13128      1.10392      1.13208      1.11792      1.13126      1.12853      1.19873      1.14357      1.16104      1.15357      1.13503      1.15872      1.12960      1.15459      1.13467      1.14544      1.41457     33.00000   3796.99950      1.19095      1.00000      1.00000
       2265.57840   2244.04124      8.43703      8.11424     17.04465     73.47559      1.07079      1.01081      1.11669      1.06903      1.13512      1.10204      1.13434      1.11821      1.13274      1.13027      1.18463      1.13659      1.14421      1.14467      1.11149      1.14714      1.09889      1.14303      1.10047      1.13727      1.41581     33.00000   3796.00019      1.19058      1.00000      1.00000
       2265.73080   2244.17010      6.20669      7.33000     12.94575     70.92670      1.07159      1.00756      1.11740      1.06365      1.13665      1.09758      1.13854      1.11383      1.14048      1.12317      1.16780      1.13024      1.13770      1.13959      1.10771      1.14132      1.09371      1.13422      1.09669      1.12519      1.38568     33.00000   3796.99950      1.19082      1.00000      1.00000
       2265.88320   2244.29894      3.81807      6.25391     11.40827     69.97063      1.05752      0.99619      1.10319      1.04619      1.12844      1.08111      1.13113      1.09836      1.12387      1.10497      1.17764      1.12649      1.16198      1.14371      1.13761      1.15124      1.12198      1.14587      1.12410      1.13621      1.35152     33.00000   3794.99943      1.19012      -999.25      1.00000
       2266.03560   2244.42775      4.04302      5.93290     15.02963     72.22256      1.02923      0.98098      1.06794      1.01883      1.09735      1.05785      1.10306      1.08014      1.08901      1.08507      1.24339      1.14270      1.22408      1.15119      1.20952      1.16229      1.21019      1.16220      1.22206      1.14827      1.33666     33.00000   3796.99950      1.19068      1.00000      1.00000
       2266.18800   2244.55655      6.10393      5.87877     18.40188     74.31957      0.99411      0.97113      1.02952      1.00231      1.06609      1.04253      1.07701      1.06542      1.05859      1.06759      1.18438      1.09581      1.14543      1.09527      1.12748      1.10916      1.12845      1.11205      1.12859      1.09062      1.33749     33.00000   3796.99950      1.19061      1.00000      1.00000
       2266.34040   2244.68531      6.66809      5.97027     17.12197     73.52367      0.95107      0.95143      0.98534      0.98924      1.02255      1.03394      1.03723      1.06222      1.02451      1.06753      1.02858      0.99999      0.98034      0.99953      0.95577      1.01363      0.95132      1.01901      0.94505      1.00194      1.33068     33.00000   3796.99950      1.19057      1.00000      1.00000
       2266.49280   2244.81406      7.63089      6.12158     13.08714     71.01463      0.90883      0.93986      0.95030      0.98076      0.98611      1.02219      1.00069      1.05272      0.99484      1.06593      0.92969      0.93600      0.89876      0.94777      0.87499      0.96413      0.86169      0.96807      0.85259      0.95489      1.32720     33.00000   3796.00019      1.19016      1.00000      1.00000
       2266.64520   2244.94278     12.25733      6.52982      9.70817     68.91343      0.88006      0.92387      0.93077      0.97769      0.96312      1.01986      0.97510      1.04585      0.97878      1.06005      0.91024      0.91511      0.90145      0.94062      0.88656      0.95893      0.87461      0.96286      0.87169      0.95905      1.33068     33.00000   3796.99950      1.19042      1.00000      1.00000
       2266.79760   2245.07148      9.38347      6.39481     13.12898     71.04064      0.88171      0.92089      0.94219      0.97856      0.97282      1.02039      0.98080      1.04800      0.98834      1.06975      0.97310      0.94472      0.97435      0.98171      0.96375      1.00135      0.95840      1.00362      0.97088      1.00542      1.32553     33.00000   3796.99950      1.19034      1.00000      1.00000
       2266.95000   2245.20016      7.14345      6.41029     19.88394     75.24119      0.92964      0.93593      0.99013      0.99212      1.02417      1.03344      1.03741      1.05845      1.05388      1.08198      1.08842      1.01711      1.07623      1.04894      1.05808      1.06457      1.05456      1.06905      1.07308      1.07659      1.32943     33.00000   3800.00033      1.19120      1.00000      1.00000
