~VERSION INFORMATION 
VERS  .    2.0                                     :CWLS Log ASCII Standard - VERSION 2.0
WRAP  .    NO                                      :One Line per Depth step
PROD  .    Schlumberger Technology Corp.           :LAS Producer
PROG  .    Horizon LASWriter 8.2.104493.3100       :LAS Program name and version
SOURCE.    Run03-Drilling                          :Run&Pass Information
CREA  .    11/08/2019                              :LAS Creation date {MM/DD/YYYY}
#--------------------------------------------------
~WELL INFORMATION 
#MNEM           .UNIT                      DATA            :DESCRIPTION
#----            ------          --------------            -----------------------------
STRT            .m                   1489.86240            :START DEPTH
STOP            .m                   2794.86360            :STOP DEPTH
STEP            .m                       0.1524            :STEP
NULL            .                       -999.25            :NULL VALUE
COMP            .                      Woodside            :COMPANY
WELL            .                         PLA07            :WELL NAME
FLD             .                 Pluto/WA-34-L            :FIELD NAME
RIGN            .                    Ocean Apex            :Rig Name
RIGTYP          .                Semi-Submersible          :Rig Type
SON             .                     19AWA0002            :Service Order Number
SRVC            .                  Schlumberger            :SERVICE COMPANY
DATE            .                    06/13/2019            :LOG DATE(Composite Date for Composite LAP) (MM/DD/YYYY)
CLAB            .                       County:            :County Label
CNTY            .                                          :COUNTY
SLAB            .                        State:            :State/Province Label
STAT            .                Western Australia         :STATE or PROVINCE
PROV            .                Western Australia         :STATE or PROVINCE
CTRY            .                     Australia            :COUNTRY
CONT_REGION     .                   Australasia            :Continent Region
SECT            .                                          :Section
TOWN            .                                          :Township
RANG            .                                          :Range
API             .                                          :API NUMBER
UWI             .                     19AWA0002            :UNIQUE WELL ID
LUL             .                        Zone 1            :Logging Unit Location
LUN             .                       1010979            :Logging Unit Number
LOC             .                       WA-34-L            :FIELD LOCATION
FL1             .                N 7 797 035.31m           :Field Location Line 1
FL2             .                 E 304 456.39m            :Field Location Line 2
LATI            .deg                 -19.913224            :LATITUDE
LONG            .deg                  115.13193            :LONGITUDE
PDAT            .                         OTHER            :Local Permanent Datum
LMF             .                            DF            :Logging Measured From
APD             .m                        23.85            :Elevation of Depth Reference (LMF) Above Permanent Datum
EPD             .m                        -1.35            :Elevation of Permanent Datum (PDAT) above Mean Sea Level
EKB             .m                      -999.25            :Elevation of Kelly Bushing Above Permanent Datum
EDF             .m                        23.85            :Elevation of Drill Floor Above Permanent Datum
EGL             .m                      -830.05            :Elevation of Ground Level Above Permanent Datum
ECF             .m                      -999.25            :Elevation of Casing Flange above Permanent Datum
#--------------------------------------------------
~CURVE INFORMATION
#MNEM           .UNIT                  API CODE            :DESCRIPTION
#----            ------          --------------            -----------------------------
DEPT            .m                                         :                                                        Depth Index
TVD             .m                                         :(RT)    (DnMWorkflow)           (6in)                   True Vertical Depth
ROP             .m/h                                       :(RT)    (DRILLING_SURFACE)      (6in)                   Rate of Penetration
ROP5            .m/h                                       :(RT)    (DRILLING_SURFACE)      (6in)                   Rate of penetration averaged over the last 5 ft (1.5 m)
GR_ARC          .gAPI                                      :(RM)    (ARC9)                  (6in)                   Gamma Ray
GR_CAL          .gAPI                                      :(RM)    (ARC9)                  (6in)                   Calibrated Gamma Ray
A16H            .ohm.m                                     :(RM)    (ARC9)                  (6in)                   Attenuation Resistivity 16 inch Spacing at 2 MHz, Environmentally Corrected
A16L            .ohm.m                                     :(RM)    (ARC9)                  (6in)                   Attenuation Resistivity 16 inch Spacing at 400 KHz, Environmentally Corrected
A22H            .ohm.m                                     :(RM)    (ARC9)                  (6in)                   Attenuation Resistivity 22 inch Spacing at 2 MHz, Environmentally Corrected
A22L            .ohm.m                                     :(RM)    (ARC9)                  (6in)                   Attenuation Resistivity 22 inch Spacing at 400 KHz, Environmentally Corrected
A28H            .ohm.m                                     :(RM)    (ARC9)                  (6in)                   Attenuation Resistivity 28 inch Spacing at 2 MHz, Environmentally Corrected
A28L            .ohm.m                                     :(RM)    (ARC9)                  (6in)                   Attenuation Resistivity 28 inch Spacing at 400 KHz, Environmentally Corrected
A34H            .ohm.m                                     :(RM)    (ARC9)                  (6in)                   Attenuation Resistivity 34 inch Spacing at 2 MHz, Environmentally Corrected
A34L            .ohm.m                                     :(RM)    (ARC9)                  (6in)                   Attenuation Resistivity 34 inch Spacing at 400 KHz, Environmentally Corrected
A40H            .ohm.m                                     :(RM)    (ARC9)                  (6in)                   Attenuation Resistivity 40 inch Spacing at 2 MHz, Environmentally Corrected.
A40L            .ohm.m                                     :(RM)    (ARC9)                  (6in)                   Attenuation Resistivity 40 inch Spacing at 400 KHz, Environmentally Corrected
P16H            .ohm.m                                     :(RM)    (ARC9)                  (6in)                   Phase Shift Resistivity 16 inch Spacing at 2 MHz, Environmentally Corrected.
P16L            .ohm.m                                     :(RM)    (ARC9)                  (6in)                   Phase Shift Resistivity 16 inch Spacing at 400 KHz, Environmentally Corrected.
P22H            .ohm.m                                     :(RM)    (ARC9)                  (6in)                   Phase Shift Resistivity 22 inch Spacing at 2 MHz, Environmentally Corrected.
P22L            .ohm.m                                     :(RM)    (ARC9)                  (6in)                   Phase Shift Resistivity 22 inch Spacing at 400 KHz, Environmentally Corrected.
P28H            .ohm.m                                     :(RM)    (ARC9)                  (6in)                   Phase Shift Resistivity 28 inch Spacing at 2 MHz, Environmentally Corrected.
P28L            .ohm.m                                     :(RM)    (ARC9)                  (6in)                   Phase Shift Resistivity 28 inch Spacing at 400 KHz, Environmentally Corrected.
P34H            .ohm.m                                     :(RM)    (ARC9)                  (6in)                   Phase Shift Resistivity 34 inch Spacing at 2 MHz, Environmentally Corrected.
P34L            .ohm.m                                     :(RM)    (ARC9)                  (6in)                   Phase Shift Resistivity 34 inch Spacing at 400 KHz, Environmentally Corrected.
P40H            .ohm.m                                     :(RM)    (ARC9)                  (6in)                   Phase Shift Resistivity 40 inch Spacing at 2 MHz, Environmentally Corrected.
P40L            .ohm.m                                     :(RM)    (ARC9)                  (6in)                   Phase Shift Resistivity 40 inch Spacing at 400 KHz, Environmentally Corrected.
TAB_RES         .h                                         :        (ARC9)                  (6in)                   Resistivity Time After Bit
DHAT            .degC                                      :(RM)    (ARC9)                  (6in)                   Downhole Annulus Temperature
DHAP            .psi                                       :(RM)    (ARC9)                  (6in)                   Downhole Annulus Pressure
ECD             .g/cm3                                     :(RM)    (ARC9)                  (6in)                   Equivalent Circulating Density
TICKS_GR        .                                          :(RM)    (ARC9)                  (1.2in)                 Gamma Ray Tick Marks
TICKS_RES       .                                          :(RM)    (ARC9)                  (1.2in)                 Resistivity Tick Marks
#-------------------------------------------------------------
#            DEPT          TVD          ROP         ROP5       GR_ARC       GR_CAL         A16H         A16L         A22H         A22L         A28H         A28L         A34H         A34L         A40H         A40L         P16H         P16L         P22H         P22L         P28H         P28L         P34H         P34L         P40H         P40L      TAB_RES         DHAT         DHAP          ECD     TICKS_GR    TICKS_RES 
#                  (DnMWorkfl)  (DRILLING_)  (DRILLING_)       (ARC9)       (ARC9)       (ARC9)       (ARC9)       (ARC9)       (ARC9)       (ARC9)       (ARC9)       (ARC9)       (ARC9)       (ARC9)       (ARC9)       (ARC9)       (ARC9)       (ARC9)       (ARC9)       (ARC9)       (ARC9)       (ARC9)       (ARC9)       (ARC9)       (ARC9)       (ARC9)       (ARC9)       (ARC9)       (ARC9)       (ARC9)       (ARC9) 
#                         (RT)         (RT)         (RT)         (RM)         (RM)         (RM)         (RM)         (RM)         (RM)         (RM)         (RM)         (RM)         (RM)         (RM)         (RM)         (RM)         (RM)         (RM)         (RM)         (RM)         (RM)         (RM)         (RM)         (RM)         (RM)                      (RM)         (RM)         (RM)         (RM)         (RM) 
#                        (6in)        (6in)        (6in)        (6in)        (6in)        (6in)        (6in)        (6in)        (6in)        (6in)        (6in)        (6in)        (6in)        (6in)        (6in)        (6in)        (6in)        (6in)        (6in)        (6in)        (6in)        (6in)        (6in)        (6in)        (6in)        (6in)        (6in)        (6in)        (6in)      (1.2in)      (1.2in) 
~ASCII
# ...
       1834.28640   1834.25982    187.01940    103.03680     22.82318     76.70251      0.30832      0.29999      0.31820      0.31299      0.32404      0.31891      0.32610      0.32170      0.32736      0.32659      0.32559      0.31472      0.31816      0.31932      0.31357      0.32056      0.31140      0.32034      0.30921      0.32193      0.18041     30.00000   3153.39309      1.21030      1.00000      1.00000
       1834.43880   1834.41209    150.91610    115.57380     20.63839     75.33577      0.33496      0.31185      0.34035      0.32009      0.34802      0.32439      0.35317      0.32637      0.35312      0.32877      0.36454      0.34499      0.35959      0.34756      0.35988      0.34935      0.36118      0.35006      0.35822      0.35038      0.18304     30.00000   3153.00004      1.21009      1.00000      -999.25
       1834.59120   1834.56435    108.42360    113.24690     21.62348     75.95201      0.34475      0.32169      0.34349      0.32396      0.34889      0.32741      0.35257      0.33054      0.34851      0.33197      0.37458      0.35310      0.36127      0.34900      0.35556      0.34926      0.35416      0.35042      0.35023      0.34832      0.18695     30.00000   3155.00011      1.21070      1.00000      1.00000
       1834.74360   1834.71662     99.16333    112.05230     24.75924     77.91364      0.32295      0.32283      0.32466      0.32319      0.33046      0.32632      0.33348      0.32971      0.32991      0.33068      0.33541      0.32957      0.32578      0.32546      0.32199      0.32463      0.31805      0.32412      0.30877      0.32089      0.19263     30.00000   3155.99942      1.21103      1.00000      -999.25
       1834.89600   1834.86889    120.53620    121.22190     28.55539     80.28839      0.32617      0.32209      0.32749      0.32319      0.33304      0.32457      0.33451      0.32588      0.32819      0.32667      0.33307      0.32798      0.33229      0.32878      0.33017      0.32955      0.32432      0.32737      0.31608      0.32232      0.19361     30.00000   3157.00018      1.21125      1.00000      1.00000
       1835.04840   1835.02115    148.04770    137.79280     26.28364     78.86726      0.32276      0.31922      0.32769      0.32398      0.33596      0.32658      0.33846      0.32638      0.33195      0.32498      0.33303      0.32601      0.33244      0.32915      0.33155      0.33158      0.32973      0.33007      0.32723      0.32533      0.20028     30.00000   3159.00025      1.21190      1.00000      -999.25
       1835.20080   1835.17341    163.06570    143.51680     20.84201     75.46315      0.32204      0.31785      0.32828      0.32629      0.33766      0.33087      0.34130      0.33130      0.33596      0.33045      0.33072      0.32492      0.32512      0.32753      0.32245      0.32921      0.32293      0.32883      0.32392      0.32724      0.20430     30.00000   3158.48101      1.21165      -999.25      1.00000
       1835.35320   1835.32568    161.67630    143.46110     23.06093     76.85123      0.31986      0.31983      0.32746      0.32604      0.33427      0.32945      0.33510      0.33104      0.33040      0.33265      0.33857      0.33131      0.33741      0.33501      0.33784      0.33836      0.33800      0.34006      0.33623      0.34036      0.20542     30.00000   3157.00018      1.21099      1.00000      -999.25
       1835.50560   1835.47794    142.97020    138.91460     28.90466     80.50688      0.33054      0.32152      0.33558      0.32525      0.34286      0.32826      0.34686      0.33063      0.34508      0.33253      0.36085      0.34293      0.35570      0.34372      0.35492      0.34606      0.35408      0.34767      0.34890      0.34694      0.22041     30.00000   3157.99949      1.21126      1.00000      1.00000
       1835.65800   1835.63020    106.70800    128.13380     28.12025     80.01618      0.31700      0.31678      0.32399      0.32133      0.33149      0.32474      0.33448      0.32623      0.33203      0.32642      0.33083      0.32527      0.32565      0.32663      0.32499      0.32806      0.32545      0.32766      0.32267      0.32535      0.22193     30.00000   3157.00018      1.21077      1.00000      -999.25
       1835.81040   1835.78246     83.41003    117.27380     24.92909     78.01990      0.31165      0.31292      0.31692      0.31690      0.32379      0.32103      0.32753      0.32435      0.32624      0.32621      0.32553      0.31908      0.31846      0.31855      0.31549      0.31882      0.31483      0.31845      0.31271      0.31667      0.22541     30.00000   3157.99949      1.21105      -999.25      1.00000
       1835.96280   1835.93472     88.24062    114.34280     28.68967     80.37239      0.30766      0.30808      0.31562      0.31444      0.32421      0.31998      0.33021      0.32352      0.33232      0.32518      0.30964      0.31083      0.30797      0.31455      0.30706      0.31643      0.30586      0.31627      0.30365      0.31581      0.22888     30.00000   3159.00025      1.21138      1.00000      1.00000
       1836.11520   1836.08698    112.33710    118.16430     32.39750     82.69189      0.31601      0.30751      0.32288      0.31394      0.33214      0.31933      0.33697      0.32243      0.33462      0.32357      0.33381      0.32253      0.33158      0.32547      0.33174      0.32823      0.33156      0.32843      0.32862      0.32617      0.23264     30.00000   3157.00018      1.21043      1.00000      -999.25
       1836.26760   1836.23924    135.83850    121.93490     28.94007     80.52903      0.30763      0.30651      0.31405      0.31224      0.32315      0.31790      0.32747      0.32155      0.32414      0.32269      0.31839      0.31401      0.31596      0.31591      0.31528      0.31877      0.31497      0.31998      0.31333      0.31851      0.24194     30.00000   3159.99956      1.21154      1.00000      1.00000
       1836.42000   1836.39150    154.39430    123.47320     26.79601     79.18778      0.30339      0.30664      0.30840      0.31132      0.31746      0.31673      0.32282      0.32107      0.32031      0.32313      0.31470      0.31074      0.31196      0.31117      0.31197      0.31347      0.31154      0.31448      0.30797      0.31229      0.28513     30.00000   3157.00018      1.21024      1.00000      1.00000
       1836.57240   1836.54375    165.62230    124.10420     28.26840     80.10886      0.30348      0.30888      0.31055      0.31505      0.31907      0.32050      0.32385      0.32488      0.32298      0.32811      0.30421      0.30619      0.30320      0.30860      0.30410      0.31116      0.30311      0.31147      0.29828      0.30932      0.30069     30.00000   3163.00039      1.21244      1.00000      1.00000
       1836.72480   1836.69601    172.76890    124.53230     27.71251     79.76111      0.30945      0.31113      0.31757      0.31768      0.32549      0.32337      0.32910      0.32793      0.32801      0.33136      0.31063      0.31048      0.31162      0.31477      0.31201      0.31787      0.30886      0.31794      0.30273      0.31611      0.31416     30.00000   3161.00032      1.21156      1.00000      1.00000
       1836.87720   1836.84826    174.95050    125.56680     22.79645     76.68578      0.31089      0.31302      0.31917      0.31913      0.32875      0.32456      0.33379      0.32885      0.33243      0.33188      0.31524      0.31290      0.31607      0.31720      0.31685      0.32085      0.31551      0.32196      0.31199      0.32106      0.32222     30.00000   3157.00018      1.20994      1.00000      -999.25
       1837.02960   1837.00051    173.15510    128.43260     18.79480     74.18248      0.31560      0.31679      0.32365      0.32354      0.33331      0.32981      0.34006      0.33446      0.34166      0.33718      0.32714      0.32079      0.32566      0.32424      0.32530      0.32793      0.32317      0.32896      0.31815      0.32703      0.33234     30.00000   3159.00025      1.21060      1.00000      1.00000
       1837.18200   1837.15277    172.09700    137.89780     19.16535     74.41428      0.32609      0.33646      0.33613      0.34348      0.34750      0.35073      0.35457      0.35672      0.35521      0.36036      0.32577      0.32978      0.32498      0.33439      0.32253      0.33879      0.31906      0.34132      0.31618      0.34208      0.33569     30.00000   3155.99942      1.20934      -999.25      -999.25
