~VERSION INFORMATION 
VERS  .    2.0                                     :CWLS Log ASCII Standard - VERSION 2.0
WRAP  .    NO                                      :One Line per Depth step
PROD  .    Schlumberger Technology Corp.           :LAS Producer
PROG  .    Horizon LASWriter 8.2.104493.3100       :LAS Program name and version
SOURCE.    Run03-Drilling                          :Run&Pass Information
CREA  .    11/08/2019                              :LAS Creation date {MM/DD/YYYY}
#--------------------------------------------------
~WELL INFORMATION 
#MNEM           .UNIT                      DATA            :DESCRIPTION
#----            ------          --------------            -----------------------------
STRT            .m                   1489.86240            :START DEPTH
STOP            .m                   2794.86360            :STOP DEPTH
STEP            .m                       0.1524            :STEP
NULL            .                       -999.25            :NULL VALUE
COMP            .                      Woodside            :COMPANY
WELL            .                         PLA07            :WELL NAME
FLD             .                 Pluto/WA-34-L            :FIELD NAME
RIGN            .                    Ocean Apex            :Rig Name
RIGTYP          .                Semi-Submersible          :Rig Type
SON             .                     19AWA0002            :Service Order Number
SRVC            .                  Schlumberger            :SERVICE COMPANY
DATE            .                    06/13/2019            :LOG DATE(Composite Date for Composite LAP) (MM/DD/YYYY)
CLAB            .                       County:            :County Label
CNTY            .                                          :COUNTY
SLAB            .                        State:            :State/Province Label
STAT            .                Western Australia         :STATE or PROVINCE
PROV            .                Western Australia         :STATE or PROVINCE
CTRY            .                     Australia            :COUNTRY
CONT_REGION     .                   Australasia            :Continent Region
SECT            .                                          :Section
TOWN            .                                          :Township
RANG            .                                          :Range
API             .                                          :API NUMBER
UWI             .                     19AWA0002            :UNIQUE WELL ID
LUL             .                        Zone 1            :Logging Unit Location
LUN             .                       1010979            :Logging Unit Number
LOC             .                       WA-34-L            :FIELD LOCATION
FL1             .                N 7 797 035.31m           :Field Location Line 1
FL2             .                 E 304 456.39m            :Field Location Line 2
LATI            .deg                 -19.913224            :LATITUDE
LONG            .deg                  115.13193            :LONGITUDE
PDAT            .                         OTHER            :Local Permanent Datum
LMF             .                            DF            :Logging Measured From
APD             .m                        23.85            :Elevation of Depth Reference (LMF) Above Permanent Datum
EPD             .m                        -1.35            :Elevation of Permanent Datum (PDAT) above Mean Sea Level
EKB             .m                      -999.25            :Elevation of Kelly Bushing Above Permanent Datum
EDF             .m                        23.85            :Elevation of Drill Floor Above Permanent Datum
EGL             .m                      -830.05            :Elevation of Ground Level Above Permanent Datum
ECF             .m                      -999.25            :Elevation of Casing Flange above Permanent Datum
#--------------------------------------------------
~CURVE INFORMATION
#MNEM           .UNIT                  API CODE            :DESCRIPTION
#----            ------          --------------            -----------------------------
DEPT            .m                                         :                                                        Depth Index
TVD             .m                                         :(RT)    (DnMWorkflow)           (6in)                   True Vertical Depth
GR              .gAPI                                      :(RM)    (ARC9)                  (6in)                   Gamma Ray
ROP             .m/h                                       :(RT)    (DRILLING_SURFACE)      (6in)                   Rate of Penetration
ROP5            .m/h                                       :(RT)    (DRILLING_SURFACE)      (6in)                   Rate of penetration averaged over the last 5 ft (1.5 m)
BLKP            .m                                         :(RT)    (DRILLING_SURFACE)      (6in)                   Height of block above rig floor
HKLA            .1000 lbf                                  :(RT)    (DRILLING_SURFACE)      (6in)                   Average Hookload
SWOB            .1000 lbf                                  :(RT)    (DRILLING_SURFACE)      (6in)                   Surface Weight On Bit
STOR            .1000 ft.lbf                               :(RT)    (DRILLING_SURFACE)      (6in)                   Surface Torque
RPM             .c/min                                     :(RT)    (DRILLING_SURFACE)      (6in)                   Rotational Speed
CRPM            .c/min                                     :(RM)    (TELE900)               (6in)                   Collar Rotational Speed
STICKNSLIP      .c/min                                     :(RM)    (TELE900)               (6in)                   Stick Slip Indicator
SPPA            .psi                                       :(RT)    (DRILLING_SURFACE)      (6in)                   Standpipe Pressure
TFLO            .gal/min                                   :(RT)    (DRILLING_SURFACE)      (6in)                   Total flow rate of all active pumps
TRPM            .c/min                                     :(RM)    (TELE900)               (6in)                   MWD Turbine Rotation Speed
DHAT            .degC                                      :(RM)    (ARC9)                  (6in)                   Downhole Annulus Temperature
DHAP            .psi                                       :(RM)    (ARC9)                  (6in)                   Downhole Annulus Pressure
ECD             .g/cm3                                     :(RM)    (ARC9)                  (6in)                   Equivalent Circulating Density
COBTM           .                                          :(RT)    (DRILLING_SURFACE)      (6in)                   Composite On Bottom Status
SHKL            .                                          :(RM)    (ARC9)                  (6in)                   Tool Shock Level
SHKRSK          .                                          :(RM)    (TELE900)               (6in)                   Shock Risk
SHKPK           .gn                                        :(RM)    (TELE900)               (6in)                   Shock Peak
SHOCKS_ACC      .                                          :(RM)    (TELE900)               (6in)                   Total Shocks accumulated over tool lifetime
VIB_X           .gn                                        :(RM)    (TELE900)               (6in)                   RMS Vibration, X-Axis
VIB_LAT         .gn                                        :(RM)    (TELE900)               (6in)                   Transverse RMS Vibration
INCL_CONT       .deg                                       :(RT)    (PDXCEED_900)           (6in)                   Continuous Inclination (Hole Deviation)
AZIM_CONT       .deg                                       :(RT)    (PDXCEED_900)           (6in)                   Continuous Hole Azimuth
#-------------------------------------------------------------
#            DEPT          TVD           GR          ROP         ROP5         BLKP         HKLA         SWOB         STOR          RPM         CRPM   STICKNSLIP         SPPA         TFLO         TRPM         DHAT         DHAP          ECD        COBTM         SHKL       SHKRSK        SHKPK   SHOCKS_ACC        VIB_X      VIB_LAT    INCL_CONT    AZIM_CONT 
#                  (DnMWorkfl)       (ARC9)  (DRILLING_)  (DRILLING_)  (DRILLING_)  (DRILLING_)  (DRILLING_)  (DRILLING_)  (DRILLING_)    (TELE900)    (TELE900)  (DRILLING_)  (DRILLING_)    (TELE900)       (ARC9)       (ARC9)       (ARC9)  (DRILLING_)       (ARC9)    (TELE900)    (TELE900)    (TELE900)    (TELE900)    (TELE900)  (PDXCEED_9)  (PDXCEED_9) 
#                         (RT)         (RM)         (RT)         (RT)         (RT)         (RT)         (RT)         (RT)         (RT)         (RM)         (RM)         (RT)         (RT)         (RM)         (RM)         (RM)         (RM)         (RT)         (RM)         (RM)         (RM)         (RM)         (RM)         (RM)         (RT)         (RT) 
#                        (6in)        (6in)        (6in)        (6in)        (6in)        (6in)        (6in)        (6in)        (6in)        (6in)        (6in)        (6in)        (6in)        (6in)        (6in)        (6in)        (6in)        (6in)        (6in)        (6in)        (6in)        (6in)        (6in)        (6in)        (6in)        (6in) 
~ASCII
# ...
       1668.62760   1668.61868     53.40735     90.59251     51.28400     26.31280    188.66999     28.19155     24.48000    148.00000      -999.25      -999.25   3030.99864   1149.87589      -999.25     29.00000   2829.99954      1.19415      0.00000      0.00000      -999.25      -999.25      -999.25      -999.25      -999.25      -999.25      -999.25
       1668.78000   1668.77108     50.94197     72.71727     51.39289     26.22050    186.74999     30.02423      2.42000    150.00000      -999.25      -999.25   3058.00177   1154.88248      -999.25     29.00000   2829.99954      1.19400      0.00000      0.00000      -999.25      -999.25      -999.25      -999.25      -999.25      -999.25      -999.25
       1668.93240   1668.92348     55.38403     57.47889     50.89976     26.09778    187.77000     29.09154     26.98000    149.00000    149.00000      -999.25   2995.21058   1154.86135   3202.00000     29.00000   2831.67328      1.19465      0.00000      0.00000      0.00000      0.00000      0.00000      -999.25      -999.25      -999.25      -999.25
       1669.08480   1669.07588     59.75461     53.28869     51.70906     25.93940    188.49001     28.37155     25.05000    148.00000      -999.25      -999.25   3006.45536   1149.87589      -999.25     29.00000   2833.99969      1.19555      0.00000      0.00000      -999.25      -999.25      -999.25      -999.25      -999.25      -999.25      -999.25
       1669.23720   1669.22828     55.48907     46.09933     52.32422     25.77156    186.99001     28.97154     22.90000    148.00000      -999.25      -999.25   3029.02323   1149.87589      -999.25     29.00000   2831.00031      1.19413      0.00000      0.00000      -999.25      -999.25      -999.25      -999.25      -999.25      2.90282    259.69890
       1669.38960   1669.38068     51.03826     43.02074     53.10347     25.65243    185.50001     31.36155      1.15000    150.00000      -999.25      -999.25   3015.17648   1149.87589      -999.25     29.00000   2833.00038      1.19484      0.00000      0.00000      -999.25      -999.25      -999.25      -999.25      -999.25      -999.25      -999.25
       1669.54200   1669.53308     54.53791     52.63483     57.91211     25.40609    189.74001     28.80403     12.46000    150.00000      -999.25      -999.25   3007.33139   1149.87589      -999.25     29.00000   2833.00038      1.19474      0.00000      0.00000      -999.25      -999.25      -999.25      -999.25      -999.25      -999.25      -999.25
       1669.69440   1669.68548     59.07479     63.03122     60.47825     25.34260    187.35000     30.47154     30.67000    148.00000      -999.25      -999.25   3041.93159   1149.87589      -999.25     29.00000   2831.00031      1.19382      0.00000      0.00000      -999.25      0.00000      -999.25      -999.25      -999.25      -999.25      -999.25
       1669.84680   1669.83788     59.36657     62.60546     58.75420     25.09192    186.63001     26.76154      1.53000    150.00000      -999.25      -999.25   3037.79366   1149.87589      -999.25     29.00000   2835.00045      1.19537      0.00000      0.00000      -999.25      -999.25      -999.25      -999.25      -999.25      -999.25      -999.25
       1669.99920   1669.99028     58.54235     56.51668     55.97772     24.95121    189.91999     31.25154     25.10000    149.00000      -999.25      -999.25   3029.79338   1154.86135      -999.25     29.00000   2835.00045      1.19528      0.00000      0.00000      -999.25      -999.25      -999.25      -999.25      -999.25      -999.25      -999.25
       1670.15160   1670.14268     56.78449     43.00884     51.38065     24.73506    189.26000     32.02155     11.88000    148.00000      -999.25      -999.25   3029.19147   1149.87589      -999.25     29.00000   2831.99962      1.19390      0.00000      0.00000      -999.25      -999.25      -999.25      -999.25      -999.25      2.90282    259.69890
       1670.30400   1670.29507     52.46643     35.15690     48.07079     24.67911    188.31000     30.45697     25.83000    148.00000      -999.25    318.00000   3044.77288   1149.87589      -999.25     29.00000   2833.00038      1.19419      0.00000      0.00000      -999.25      -999.25      -999.25      -999.25      -999.25      -999.25    261.43580
       1670.45640   1670.44747     46.03309     42.52258     48.34089     24.53993    187.83001     28.97154      3.58000    150.00000      -999.25      -999.25   3034.54482   1154.86135      -999.25     29.00000   2833.00038      1.19407      0.00000      0.00000      -999.25      -999.25      -999.25      -999.25      -999.25      -999.25      -999.25
       1670.60880   1670.59987     42.75079     67.46666     49.96517     24.34420    188.24999     28.61155     10.11000    148.00000    142.00000      -999.25   3025.92087   1154.86135   3168.00000     29.00000   2833.99969      1.19438      0.00000      0.00000      0.00000      0.00000      0.00000      -999.25      -999.25      -999.25      -999.25
       1670.76120   1670.75227     45.28912     86.73181     53.60802     24.25556    189.15001     27.71156     13.97000    150.00000      -999.25      -999.25   3068.85639   1154.86135      -999.25     29.00000   2835.99976      1.19516      0.00000      0.00000      -999.25      -999.25      -999.25      -999.25      -999.25      -999.25      -999.25
       1670.91360   1670.90467     50.74504     85.89379     56.51801     24.02659    188.85000     29.69155     22.69000    148.00000      -999.25      -999.25   3047.73455   1154.86135      -999.25     29.00000   2833.99969      1.19421      0.00000      0.00000      -999.25      -999.25      -999.25      -999.25      -999.25      -999.25      -999.25
       1671.06600   1671.05707     53.90334     70.74444     56.55713     23.92004    189.80002     27.06154     10.47000    150.00000      -999.25      -999.25   3059.37673   1154.86135      -999.25     29.00000   2833.99969      1.19408      0.00000      0.00000      -999.25      -999.25      -999.25      -999.25      -999.25      -999.25      -999.25
       1671.21840   1671.20947     51.86102     66.58858     57.06472     23.76570    186.99001     28.34827     29.28000    150.00000      -999.25      -999.25   3065.59885   1149.87589      -999.25     29.00000   2834.56533      1.19423      0.00000      0.00000      -999.25      -999.25      -999.25      -999.25      -999.25      -999.25      -999.25
       1671.37080   1671.36187     48.54953     61.88216     56.43794     23.64222    187.58999     27.68459      6.88000    150.00000      -999.25      -999.25   3035.18008   1154.86135      -999.25     29.00000   2835.00045      1.19435      0.00000      0.00000      -999.25      -999.25      -999.25      -999.25      -999.25      2.90282    264.88740
       1671.52320   1671.51427     46.88649     47.98498     55.08684     23.43688    190.10000     25.32155      4.04000    150.00000      -999.25      -999.25   3042.23762   1149.87589      -999.25     29.00000   2841.00066      1.19674      0.00000      0.00000      -999.25      0.00000      -999.25      -999.25      -999.25      -999.25      -999.25
       1671.67560   1671.66667     46.12062     42.78846     56.36176     23.27538    187.58999     29.27155     12.46000    150.00000      -999.25      -999.25   3005.66055   1154.86135      -999.25     29.00000   2835.99976      1.19452      0.00000      0.00000      -999.25      -999.25      -999.25      -999.25      -999.25      -999.25      -999.25
       1671.82800   1671.81907     42.83831     53.70718     61.77312     23.13414    188.61001     26.10156     24.15000    148.00000      -999.25      -999.25   3002.79315   1149.87589      -999.25     29.00000   2839.00059      1.19561      0.00000      0.00000      -999.25      -999.25      -999.25      -999.25      -999.25      -999.25      -999.25
       1671.98040   1671.97146     38.31601     73.48083     63.44799     22.99946    190.10000     26.76154     19.22000    149.00000      -999.25      -999.25   3001.35148   1154.86135      -999.25     29.00000   2837.99983      1.19511      0.00000      0.00000      -999.25      -999.25      -999.25      -999.25      -999.25      -999.25      -999.25
