~VERSION INFORMATION 
VERS  .    2.0                                     :CWLS Log ASCII Standard - VERSION 2.0
WRAP  .    NO                                      :One Line per Depth step
PROD  .    Schlumberger Technology Corp.           :LAS Producer
PROG  .    Horizon LASWriter 8.2.104493.3100       :LAS Program name and version
SOURCE.    Run03-Drilling                          :Run&Pass Information
CREA  .    11/08/2019                              :LAS Creation date {MM/DD/YYYY}
#--------------------------------------------------
~WELL INFORMATION 
#MNEM           .UNIT                      DATA            :DESCRIPTION
#----            ------          --------------            -----------------------------
STRT            .m                   1489.86240            :START DEPTH
STOP            .m                   2794.86360            :STOP DEPTH
STEP            .m                       0.1524            :STEP
NULL            .                       -999.25            :NULL VALUE
COMP            .                      Woodside            :COMPANY
WELL            .                         PLA07            :WELL NAME
FLD             .                 Pluto/WA-34-L            :FIELD NAME
RIGN            .                    Ocean Apex            :Rig Name
RIGTYP          .                Semi-Submersible          :Rig Type
SON             .                     19AWA0002            :Service Order Number
SRVC            .                  Schlumberger            :SERVICE COMPANY
DATE            .                    06/13/2019            :LOG DATE(Composite Date for Composite LAP) (MM/DD/YYYY)
CLAB            .                       County:            :County Label
CNTY            .                                          :COUNTY
SLAB            .                        State:            :State/Province Label
STAT            .                Western Australia         :STATE or PROVINCE
PROV            .                Western Australia         :STATE or PROVINCE
CTRY            .                     Australia            :COUNTRY
CONT_REGION     .                   Australasia            :Continent Region
SECT            .                                          :Section
TOWN            .                                          :Township
RANG            .                                          :Range
API             .                                          :API NUMBER
UWI             .                     19AWA0002            :UNIQUE WELL ID
LUL             .                        Zone 1            :Logging Unit Location
LUN             .                       1010979            :Logging Unit Number
LOC             .                       WA-34-L            :FIELD LOCATION
FL1             .                N 7 797 035.31m           :Field Location Line 1
FL2             .                 E 304 456.39m            :Field Location Line 2
LATI            .deg                 -19.913224            :LATITUDE
LONG            .deg                  115.13193            :LONGITUDE
PDAT            .                         OTHER            :Local Permanent Datum
LMF             .                            DF            :Logging Measured From
APD             .m                        23.85            :Elevation of Depth Reference (LMF) Above Permanent Datum
EPD             .m                        -1.35            :Elevation of Permanent Datum (PDAT) above Mean Sea Level
EKB             .m                      -999.25            :Elevation of Kelly Bushing Above Permanent Datum
EDF             .m                        23.85            :Elevation of Drill Floor Above Permanent Datum
EGL             .m                      -830.05            :Elevation of Ground Level Above Permanent Datum
ECF             .m                      -999.25            :Elevation of Casing Flange above Permanent Datum
#--------------------------------------------------
~CURVE INFORMATION
#MNEM           .UNIT                  API CODE            :DESCRIPTION
#----            ------          --------------            -----------------------------
DEPT            .m                                         :                                                        Depth Index
TVD             .m                                         :(RT)    (DnMWorkflow)           (6in)                   True Vertical Depth
GR              .gAPI                                      :(RM)    (ARC9)                  (6in)                   Gamma Ray
ROP             .m/h                                       :(RT)    (DRILLING_SURFACE)      (6in)                   Rate of Penetration
ROP5            .m/h                                       :(RT)    (DRILLING_SURFACE)      (6in)                   Rate of penetration averaged over the last 5 ft (1.5 m)
BLKP            .m                                         :(RT)    (DRILLING_SURFACE)      (6in)                   Height of block above rig floor
HKLA            .1000 lbf                                  :(RT)    (DRILLING_SURFACE)      (6in)                   Average Hookload
SWOB            .1000 lbf                                  :(RT)    (DRILLING_SURFACE)      (6in)                   Surface Weight On Bit
STOR            .1000 ft.lbf                               :(RT)    (DRILLING_SURFACE)      (6in)                   Surface Torque
RPM             .c/min                                     :(RT)    (DRILLING_SURFACE)      (6in)                   Rotational Speed
CRPM            .c/min                                     :(RM)    (TELE900)               (6in)                   Collar Rotational Speed
STICKNSLIP      .c/min                                     :(RM)    (TELE900)               (6in)                   Stick Slip Indicator
SPPA            .psi                                       :(RT)    (DRILLING_SURFACE)      (6in)                   Standpipe Pressure
TFLO            .gal/min                                   :(RT)    (DRILLING_SURFACE)      (6in)                   Total flow rate of all active pumps
TRPM            .c/min                                     :(RM)    (TELE900)               (6in)                   MWD Turbine Rotation Speed
DHAT            .degC                                      :(RM)    (ARC9)                  (6in)                   Downhole Annulus Temperature
DHAP            .psi                                       :(RM)    (ARC9)                  (6in)                   Downhole Annulus Pressure
ECD             .g/cm3                                     :(RM)    (ARC9)                  (6in)                   Equivalent Circulating Density
COBTM           .                                          :(RT)    (DRILLING_SURFACE)      (6in)                   Composite On Bottom Status
SHKL            .                                          :(RM)    (ARC9)                  (6in)                   Tool Shock Level
SHKRSK          .                                          :(RM)    (TELE900)               (6in)                   Shock Risk
SHKPK           .gn                                        :(RM)    (TELE900)               (6in)                   Shock Peak
SHOCKS_ACC      .                                          :(RM)    (TELE900)               (6in)                   Total Shocks accumulated over tool lifetime
VIB_X           .gn                                        :(RM)    (TELE900)               (6in)                   RMS Vibration, X-Axis
VIB_LAT         .gn                                        :(RM)    (TELE900)               (6in)                   Transverse RMS Vibration
INCL_CONT       .deg                                       :(RT)    (PDXCEED_900)           (6in)                   Continuous Inclination (Hole Deviation)
AZIM_CONT       .deg                                       :(RT)    (PDXCEED_900)           (6in)                   Continuous Hole Azimuth
#-------------------------------------------------------------
#            DEPT          TVD           GR          ROP         ROP5         BLKP         HKLA         SWOB         STOR          RPM         CRPM   STICKNSLIP         SPPA         TFLO         TRPM         DHAT         DHAP          ECD        COBTM         SHKL       SHKRSK        SHKPK   SHOCKS_ACC        VIB_X      VIB_LAT    INCL_CONT    AZIM_CONT 
#                  (DnMWorkfl)       (ARC9)  (DRILLING_)  (DRILLING_)  (DRILLING_)  (DRILLING_)  (DRILLING_)  (DRILLING_)  (DRILLING_)    (TELE900)    (TELE900)  (DRILLING_)  (DRILLING_)    (TELE900)       (ARC9)       (ARC9)       (ARC9)  (DRILLING_)       (ARC9)    (TELE900)    (TELE900)    (TELE900)    (TELE900)    (TELE900)  (PDXCEED_9)  (PDXCEED_9) 
#                         (RT)         (RM)         (RT)         (RT)         (RT)         (RT)         (RT)         (RT)         (RT)         (RM)         (RM)         (RT)         (RT)         (RM)         (RM)         (RM)         (RM)         (RT)         (RM)         (RM)         (RM)         (RM)         (RM)         (RM)         (RT)         (RT) 
#                        (6in)        (6in)        (6in)        (6in)        (6in)        (6in)        (6in)        (6in)        (6in)        (6in)        (6in)        (6in)        (6in)        (6in)        (6in)        (6in)        (6in)        (6in)        (6in)        (6in)        (6in)        (6in)        (6in)        (6in)        (6in)        (6in) 
~ASCII
# ...
       2618.53680   2488.12816     27.81408     20.19908     25.94573     32.92992    202.55001     25.98434     12.75000    155.00000      -999.25      -999.25   3669.21400   1158.77585      -999.25     40.00000   4384.00058      1.23998      0.00000      0.00000      -999.25      -999.25      -999.25      -999.25      -999.25     52.73496    186.35180
       2618.68920   2488.22160     31.92694     20.67901     24.73689     32.85753    201.88999     25.21661     17.16000    155.00000      -999.25      -999.25   3630.76740   1158.86804      -999.25     40.00000   4388.00072      1.24107      0.00000      0.00000      -999.25      0.00000      -999.25      0.24983      1.74881     52.73496    186.35180
       2618.84160   2488.31503     31.49193     18.05165     24.82780     32.64584    202.07002     26.46433     16.45000    155.00000      -999.25    231.00000   3660.77136   1158.77585      -999.25     40.00000   4389.00003      1.24130      0.00000      0.00000      -999.25      -999.25      -999.25      -999.25      -999.25     52.73496    186.35180
       2618.99400   2488.40845     26.68546     15.29102     23.30499     32.53361    207.93000     20.60435     16.95000    155.00000    154.00000      -999.25   3647.44964   1158.77585   3249.00000     40.00000   4384.00058      1.23984      0.00000      0.00000      0.00000      0.00000      0.00000      -999.25      -999.25     52.73496    186.35180
       2619.14640   2488.50186     25.75437     18.10742     24.12907     32.33192    206.20001     22.87435     22.51000    155.00000      -999.25      -999.25   3642.55316   1163.89973      -999.25     40.00000   4386.99996      1.24064      0.00000      0.00000      -999.25      -999.25      -999.25      -999.25      -999.25     52.73496    186.35180
       2619.29880   2488.59527     28.66542     29.72862     26.79679     32.15815    204.04001     25.98434     23.64000    155.00000      -999.25      -999.25   3635.17219   1163.89973      -999.25     40.00000   4382.99982      1.23947      0.00000      0.00000      -999.25      -999.25      -999.25      -999.25      -999.25     52.73496    186.35180
       2619.45120   2488.68866     29.23733     28.14920     24.35498     32.07815    202.61000     25.92433     24.39000    155.00000      -999.25      -999.25   3651.36856   1163.89973      -999.25     40.00000   4386.00065      1.24027      0.00000      0.00000      -999.25      0.00000      -999.25      -999.25      -999.25     52.73496    186.35180
       2619.60360   2488.78205     27.92971     21.87074     22.08745     31.90245    205.47998     22.03435     18.02000    155.00000      -999.25    105.00000   3660.00556   1163.89973      -999.25     40.00000   4382.99982      1.23937      0.00000      0.00000      -999.25      -999.25      -999.25      -999.25      -999.25     52.73496    186.35180
       2619.75600   2488.87543     29.36757     23.10823     20.92668     31.63738    207.62999     23.77434     20.00000    155.00000    150.00000      -999.25   3627.25023   1163.89973   3267.00000     40.00000   4388.00072      1.24075      0.00000      0.00000      0.00000      0.00000      0.00000      -999.25      -999.25     52.73496    186.35180
       2619.90840   2488.96879     32.80027     27.36589     21.77144     31.58700    206.80000     22.51433     20.39000    155.00000      -999.25      -999.25   3653.20329   1169.02387      -999.25     40.00000   4386.00065      1.24013      0.00000      0.00000      -999.25      -999.25      -999.25      -999.25      -999.25      -999.25      -999.25
       2620.06080   2489.06215     32.15150     28.44617     22.26414     31.41399    205.17999     23.35436     22.28000    155.00000      -999.25      -999.25   3669.61576   1163.89973      -999.25     40.00000   4386.99996      1.24036      0.00000      0.00000      -999.25      -999.25      -999.25      -999.25      -999.25     52.73496    186.35180
       2620.21320   2489.15550     30.74501     26.98151     22.89766     31.25576    204.04001     24.72436     26.40000    155.00000      -999.25      -999.25   3647.86155   1168.91873      -999.25     40.00000   4386.99996      1.24032      0.00000      0.00000      -999.25      0.00000      -999.25      -999.25      -999.25      -999.25    186.35180
       2620.36560   2489.24884     35.06015     30.50906     24.75776     31.12699    205.11998     23.23434     21.23000    155.00000      -999.25      -999.25   3658.34487   1163.89973      -999.25     40.00000   4386.99996      1.24027      0.00000      0.00000      -999.25      -999.25      -999.25      -999.25      -999.25     52.73496    186.35180
       2620.51800   2489.34217     40.09716     26.29495     26.17867     31.06038    207.10000     21.43434     19.38000    155.00000      -999.25    117.00000   3646.84483   1163.89973      -999.25     41.00000   4389.99934      1.24107      0.00000      0.00000      -999.25      -999.25      -999.25      -999.25      -999.25      -999.25      -999.25
       2620.67040   2489.43550     39.41208     20.15833     25.46627     30.87199    209.61001     18.92435     18.35000    155.00000    132.00000      -999.25   3663.73883   1163.89973   3271.00000     41.00000   4389.99934      1.24103      0.00000      0.00000      0.00000      0.00000      0.00000      0.24983      1.24915     52.69175    186.54740
       2620.82280   2489.52881     38.34182     20.24254     24.18281     30.68661    206.49999     21.94861     22.01000    155.00000      -999.25      -999.25   3668.71362   1168.91873      -999.25     41.00000   4386.00065      1.23985      0.00000      0.00000      -999.25      -999.25      -999.25      -999.25      -999.25     52.69175    186.54740
       2620.97520   2489.62211     37.36395     25.93228     25.07835     30.52669    206.74001     21.76912     23.98000    155.00000      -999.25      -999.25   3059.76688   1033.51075      -999.25     41.00000   4389.00003      1.24065      0.00000      0.00000      -999.25      -999.25      -999.25      -999.25      -999.25     52.69175    186.54740
       2621.12760   2489.71541     34.13101     45.21921     27.30006     30.34745    205.53999     20.24435     23.97000    155.00000      -999.25      -999.25   2799.33857    972.22020      -999.25     41.00000   4389.00003      1.24060      0.00000      0.00000      -999.25      0.00000      -999.25      -999.25      -999.25      -999.25      -999.25
       2621.28000   2489.80870     34.16365     27.71864     26.01763     30.22030    202.37000     26.13410     20.82000    155.00000    148.00000     48.00000   2817.12745    982.46822   2795.00000     41.00000   4388.00072      1.24027      0.00000      0.00000      0.00000      0.00000      0.00000      -999.25      -999.25     52.69175    186.54740
       2621.43240   2489.90197     36.29803      7.99278     18.40124     30.07215    202.13001     26.40435     18.03000    155.00000    149.50000     27.00000   3257.66797   1092.36115   3011.00000     41.00000   4386.99996      1.23995      0.00000      0.00000      0.00000      0.00000      0.00000      0.12492      1.49898     52.64851    186.73720
       2621.58480   2489.99524     37.68705      2.39298      8.69697     29.90353    203.86000     24.67433     25.26000    160.00000    122.50000    197.00000   3747.79255   1187.68446   3237.00000     41.00000   4388.00072      1.24018      0.00000      0.00000      0.00000      0.00000      0.00000      0.12492      1.74881      -999.25      -999.25
       2621.73720   2490.08850     38.92727      2.41573      7.70877     29.74738    205.06000     24.49435     15.67000    161.00000    159.00000    132.00000   3695.96911   1177.43643   3275.00000     40.00000   4386.99996      1.23985      0.00000      0.00000      0.00000      0.00000      0.00000      -999.25      -999.25     52.64851    186.73720
       2621.88960   2490.18175     38.67446      3.79793      6.20781     29.54676    203.98000     24.54799     19.66000    161.00000    154.00000     87.00000   3696.46224   1182.46785   3284.00000     40.00000   4388.00072      1.24009      0.00000      0.00000      0.00000      0.00000      0.00000      0.12492      1.49898     52.60524    185.97040
