~VERSION INFORMATION 
VERS  .    2.0                                     :CWLS Log ASCII Standard - VERSION 2.0
WRAP  .    NO                                      :One Line per Depth step
PROD  .    Schlumberger Technology Corp.           :LAS Producer
PROG  .    Horizon LASWriter 8.2.104493.3100       :LAS Program name and version
SOURCE.    Run03-Drilling                          :Run&Pass Information
CREA  .    11/08/2019                              :LAS Creation date {MM/DD/YYYY}
#--------------------------------------------------
~WELL INFORMATION 
#MNEM           .UNIT                      DATA            :DESCRIPTION
#----            ------          --------------            -----------------------------
STRT            .m                   1489.86240            :START DEPTH
STOP            .m                   2794.86360            :STOP DEPTH
STEP            .m                       0.1524            :STEP
NULL            .                       -999.25            :NULL VALUE
COMP            .                      Woodside            :COMPANY
WELL            .                         PLA07            :WELL NAME
FLD             .                 Pluto/WA-34-L            :FIELD NAME
RIGN            .                    Ocean Apex            :Rig Name
RIGTYP          .                Semi-Submersible          :Rig Type
SON             .                     19AWA0002            :Service Order Number
SRVC            .                  Schlumberger            :SERVICE COMPANY
DATE            .                    06/13/2019            :LOG DATE(Composite Date for Composite LAP) (MM/DD/YYYY)
CLAB            .                       County:            :County Label
CNTY            .                                          :COUNTY
SLAB            .                        State:            :State/Province Label
STAT            .                Western Australia         :STATE or PROVINCE
PROV            .                Western Australia         :STATE or PROVINCE
CTRY            .                     Australia            :COUNTRY
CONT_REGION     .                   Australasia            :Continent Region
SECT            .                                          :Section
TOWN            .                                          :Township
RANG            .                                          :Range
API             .                                          :API NUMBER
UWI             .                     19AWA0002            :UNIQUE WELL ID
LUL             .                        Zone 1            :Logging Unit Location
LUN             .                       1010979            :Logging Unit Number
LOC             .                       WA-34-L            :FIELD LOCATION
FL1             .                N 7 797 035.31m           :Field Location Line 1
FL2             .                 E 304 456.39m            :Field Location Line 2
LATI            .deg                 -19.913224            :LATITUDE
LONG            .deg                  115.13193            :LONGITUDE
PDAT            .                         OTHER            :Local Permanent Datum
LMF             .                            DF            :Logging Measured From
APD             .m                        23.85            :Elevation of Depth Reference (LMF) Above Permanent Datum
EPD             .m                        -1.35            :Elevation of Permanent Datum (PDAT) above Mean Sea Level
EKB             .m                      -999.25            :Elevation of Kelly Bushing Above Permanent Datum
EDF             .m                        23.85            :Elevation of Drill Floor Above Permanent Datum
EGL             .m                      -830.05            :Elevation of Ground Level Above Permanent Datum
ECF             .m                      -999.25            :Elevation of Casing Flange above Permanent Datum
#--------------------------------------------------
~CURVE INFORMATION
#MNEM           .UNIT                  API CODE            :DESCRIPTION
#----            ------          --------------            -----------------------------
DEPT            .m                                         :                                                        Depth Index
TVD             .m                                         :(RT)    (DnMWorkflow)           (6in)                   True Vertical Depth
ROP             .m/h                                       :(RT)    (DRILLING_SURFACE)      (6in)                   Rate of Penetration
ROP5            .m/h                                       :(RT)    (DRILLING_SURFACE)      (6in)                   Rate of penetration averaged over the last 5 ft (1.5 m)
GR_ARC          .gAPI                                      :(RM)    (ARC9)                  (6in)                   Gamma Ray
GR_CAL          .gAPI                                      :(RM)    (ARC9)                  (6in)                   Calibrated Gamma Ray
A16H            .ohm.m                                     :(RM)    (ARC9)                  (6in)                   Attenuation Resistivity 16 inch Spacing at 2 MHz, Environmentally Corrected
A16L            .ohm.m                                     :(RM)    (ARC9)                  (6in)                   Attenuation Resistivity 16 inch Spacing at 400 KHz, Environmentally Corrected
A22H            .ohm.m                                     :(RM)    (ARC9)                  (6in)                   Attenuation Resistivity 22 inch Spacing at 2 MHz, Environmentally Corrected
A22L            .ohm.m                                     :(RM)    (ARC9)                  (6in)                   Attenuation Resistivity 22 inch Spacing at 400 KHz, Environmentally Corrected
A28H            .ohm.m                                     :(RM)    (ARC9)                  (6in)                   Attenuation Resistivity 28 inch Spacing at 2 MHz, Environmentally Corrected
A28L            .ohm.m                                     :(RM)    (ARC9)                  (6in)                   Attenuation Resistivity 28 inch Spacing at 400 KHz, Environmentally Corrected
A34H            .ohm.m                                     :(RM)    (ARC9)                  (6in)                   Attenuation Resistivity 34 inch Spacing at 2 MHz, Environmentally Corrected
A34L            .ohm.m                                     :(RM)    (ARC9)                  (6in)                   Attenuation Resistivity 34 inch Spacing at 400 KHz, Environmentally Corrected
A40H            .ohm.m                                     :(RM)    (ARC9)                  (6in)                   Attenuation Resistivity 40 inch Spacing at 2 MHz, Environmentally Corrected.
A40L            .ohm.m                                     :(RM)    (ARC9)                  (6in)                   Attenuation Resistivity 40 inch Spacing at 400 KHz, Environmentally Corrected
P16H            .ohm.m                                     :(RM)    (ARC9)                  (6in)                   Phase Shift Resistivity 16 inch Spacing at 2 MHz, Environmentally Corrected.
P16L            .ohm.m                                     :(RM)    (ARC9)                  (6in)                   Phase Shift Resistivity 16 inch Spacing at 400 KHz, Environmentally Corrected.
P22H            .ohm.m                                     :(RM)    (ARC9)                  (6in)                   Phase Shift Resistivity 22 inch Spacing at 2 MHz, Environmentally Corrected.
P22L            .ohm.m                                     :(RM)    (ARC9)                  (6in)                   Phase Shift Resistivity 22 inch Spacing at 400 KHz, Environmentally Corrected.
P28H            .ohm.m                                     :(RM)    (ARC9)                  (6in)                   Phase Shift Resistivity 28 inch Spacing at 2 MHz, Environmentally Corrected.
P28L            .ohm.m                                     :(RM)    (ARC9)                  (6in)                   Phase Shift Resistivity 28 inch Spacing at 400 KHz, Environmentally Corrected.
P34H            .ohm.m                                     :(RM)    (ARC9)                  (6in)                   Phase Shift Resistivity 34 inch Spacing at 2 MHz, Environmentally Corrected.
P34L            .ohm.m                                     :(RM)    (ARC9)                  (6in)                   Phase Shift Resistivity 34 inch Spacing at 400 KHz, Environmentally Corrected.
P40H            .ohm.m                                     :(RM)    (ARC9)                  (6in)                   Phase Shift Resistivity 40 inch Spacing at 2 MHz, Environmentally Corrected.
P40L            .ohm.m                                     :(RM)    (ARC9)                  (6in)                   Phase Shift Resistivity 40 inch Spacing at 400 KHz, Environmentally Corrected.
TAB_RES         .h                                         :        (ARC9)                  (6in)                   Resistivity Time After Bit
DHAT            .degC                                      :(RM)    (ARC9)                  (6in)                   Downhole Annulus Temperature
DHAP            .psi                                       :(RM)    (ARC9)                  (6in)                   Downhole Annulus Pressure
ECD             .g/cm3                                     :(RM)    (ARC9)                  (6in)                   Equivalent Circulating Density
TICKS_GR        .                                          :(RM)    (ARC9)                  (1.2in)                 Gamma Ray Tick Marks
TICKS_RES       .                                          :(RM)    (ARC9)                  (1.2in)                 Resistivity Tick Marks
#-------------------------------------------------------------
#            DEPT          TVD          ROP         ROP5       GR_ARC       GR_CAL         A16H         A16L         A22H         A22L         A28H         A28L         A34H         A34L         A40H         A40L         P16H         P16L         P22H         P22L         P28H         P28L         P34H         P34L         P40H         P40L      TAB_RES         DHAT         DHAP          ECD     TICKS_GR    TICKS_RES 
#                  (DnMWorkfl)  (DRILLING_)  (DRILLING_)       (ARC9)       (ARC9)       (ARC9)       (ARC9)       (ARC9)       (ARC9)       (ARC9)       (ARC9)       (ARC9)       (ARC9)       (ARC9)       (ARC9)       (ARC9)       (ARC9)       (ARC9)       (ARC9)       (ARC9)       (ARC9)       (ARC9)       (ARC9)       (ARC9)       (ARC9)       (ARC9)       (ARC9)       (ARC9)       (ARC9)       (ARC9)       (ARC9) 
#                         (RT)         (RT)         (RT)         (RM)         (RM)         (RM)         (RM)         (RM)         (RM)         (RM)         (RM)         (RM)         (RM)         (RM)         (RM)         (RM)         (RM)         (RM)         (RM)         (RM)         (RM)         (RM)         (RM)         (RM)         (RM)                      (RM)         (RM)         (RM)         (RM)         (RM) 
#                        (6in)        (6in)        (6in)        (6in)        (6in)        (6in)        (6in)        (6in)        (6in)        (6in)        (6in)        (6in)        (6in)        (6in)        (6in)        (6in)        (6in)        (6in)        (6in)        (6in)        (6in)        (6in)        (6in)        (6in)        (6in)        (6in)        (6in)        (6in)        (6in)      (1.2in)      (1.2in) 
~ASCII
# ...
       2434.74240   2372.32314     26.24025     23.85406     26.84727     82.71513      0.84579      0.85959      0.89471      0.89089      0.92454      0.91331      0.93402      0.92774      0.93644      0.93769      0.99446      0.92479      0.99210      0.94639      0.98517      0.96197      0.98614      0.96687      1.00036      0.96649      0.92541     35.00000   4031.99980      1.19614      1.00000      1.00000
       2434.89480   2372.42393     21.16677     23.47567     27.61377     83.19177      0.84971      0.86049      0.89123      0.88946      0.92272      0.91345      0.93422      0.93005      0.93110      0.93961      0.98855      0.92171      0.97836      0.93634      0.97122      0.95235      0.97569      0.95989      0.98946      0.95705      0.94054     35.00000   4031.00049      1.19580      1.00000      1.00000
       2435.04720   2372.52469     14.22273     23.27106     31.94559     85.88550      0.84280      0.86333      0.88186      0.88990      0.91448      0.91313      0.92621      0.93033      0.91935      0.94062      0.96496      0.91672      0.95320      0.92691      0.94586      0.94320      0.94902      0.95162      0.95876      0.94568      0.94943     35.00000   4033.00056      1.19634      1.00000      1.00000
       2435.19960   2372.62542     12.69152     23.42152     36.74794     88.87182      0.82598      0.86304      0.86825      0.89129      0.90159      0.91548      0.91174      0.93322      0.90319      0.94405      0.94667      0.90394      0.93734      0.91725      0.92873      0.93399      0.92865      0.94089      0.93684      0.93408      0.97290     35.00000   4031.99980      1.19599      1.00000      1.00000
       2435.35200   2372.72613     21.16216     24.08120     37.46215     89.31594      0.80752      0.86059      0.85873      0.89242      0.89470      0.91750      0.90460      0.93423      0.89830      0.94423      0.92512      0.88669      0.92125      0.90641      0.91347      0.92525      0.91154      0.93263      0.91981      0.92882      0.98915     35.00000   4031.00049      1.19565      1.00000      1.00000
       2435.50440   2372.82681     34.01344     24.60942     32.41125     86.17506      0.80794      0.85930      0.86592      0.89667      0.90223      0.92300      0.91170      0.93893      0.90974      0.94930      0.92011      0.88415      0.91902      0.90956      0.91062      0.92911      0.90817      0.93566      0.91956      0.93446      1.01623     35.00000   4033.00056      1.19619      1.00000      1.00000
       2435.65680   2372.92746     41.77590     24.76472     27.25159     82.96655      0.82418      0.86303      0.87996      0.89990      0.91737      0.92481      0.93243      0.94002      0.93731      0.95115      0.94147      0.89602      0.93696      0.92183      0.92718      0.94205      0.92593      0.94923      0.93919      0.94833      1.04485     35.00000   4029.00042      1.19495      1.00000      1.00000
       2435.80920   2373.02808     51.55597     24.98750     26.01007     82.19452      0.83539      0.86887      0.88616      0.90278      0.92342      0.92738      0.94008      0.94343      0.94394      0.95454      0.95165      0.90592      0.94574      0.92861      0.93677      0.94788      0.93629      0.95580      0.94797      0.95518      1.07956     35.00000   4033.00056      1.19608      1.00000      1.00000
       2435.96160   2373.12868     43.03215     24.64885     29.20092     84.17873      0.83815      0.87127      0.88617      0.90456      0.92160      0.92856      0.93622      0.94430      0.93721      0.95542      0.94790      0.90849      0.94118      0.92963      0.93359      0.94907      0.93342      0.95712      0.94198      0.95484      1.11916     35.00000   4029.99973      1.19514      1.00000      1.00000
       2436.11400   2373.22925     33.83598     24.46334     32.89741     86.47738      0.84478      0.85995      0.89124      0.90011      0.91925      0.92999      0.92994      0.94740      0.93600      0.95641      0.96470      0.91684      0.95161      0.93496      0.93225      0.95162      0.92821      0.95959      0.94686      0.95975      1.53318     34.63963   4035.00063      1.19658      -999.25      -999.25
       2436.26640   2373.32979     24.83469     24.38952     30.73089     85.13014      0.84825      0.88218      0.89073      0.90825      0.92208      0.93440      0.93520      0.95507      0.93628      0.96638      0.96627      0.91985      0.95662      0.93579      0.94384      0.94930      0.93870      0.95164      0.94470      0.94484      1.52693     34.00000   4035.00063      1.19652      1.00000      -999.25
       2436.41880   2373.43030     21.30915     24.50118     23.65047     80.72721      0.84688      0.87254      0.89169      0.90505      0.92176      0.93554      0.93395      0.95545      0.93765      0.96243      0.96812      0.92582      0.95231      0.94226      0.93963      0.95865      0.94182      0.96747      0.95678      0.96820      1.52150     34.00000   4033.00056      1.19590      1.00000      -999.25
       2436.57120   2373.53079     26.38369     28.96900     23.20827     80.45223      0.85002      0.87960      0.89320      0.90839      0.92747      0.92987      0.93975      0.94354      0.93434      0.95193      0.96147      0.92015      0.94766      0.93766      0.93671      0.95205      0.93518      0.95384      0.94062      0.94577      1.51887     34.00000   4033.99987      1.19613      1.00000      1.00000
       2436.72360   2373.63124     33.80702     32.28749     30.56504     85.02701      0.84634      0.87626      0.89180      0.90743      0.92414      0.93105      0.93528      0.94673      0.93320      0.95683      0.95456      0.91700      0.94496      0.93438      0.93524      0.95130      0.93332      0.95849      0.93971      0.95585      1.53706     34.00000   4027.99966      1.19433      1.00000      1.00000
       2436.87600   2373.73168     36.32026     32.70603     34.90231     87.72412      0.84202      0.87781      0.89040      0.90751      0.92406      0.92994      0.93629      0.94520      0.93638      0.95553      0.95525      0.91700      0.94741      0.93590      0.93750      0.95288      0.93307      0.95830      0.93644      0.95353      1.55747     34.00000   4027.96775      1.19426      1.00000      1.00000
       2437.02840   2373.83208     34.74697     32.41742     37.01413     89.03735      0.84952      0.87712      0.89837      0.90911      0.92868      0.93170      0.93679      0.94510      0.93558      0.95339      0.96900      0.92442      0.96125      0.94476      0.95038      0.96039      0.94547      0.96369      0.94996      0.95887      1.57594     34.00000   4027.00035      1.19392      1.00000      1.00000
       2437.18080   2373.93246     34.78992     31.70905     39.42294     90.53526      0.85527      0.87821      0.90636      0.90947      0.93734      0.93202      0.94475      0.94649      0.94286      0.95625      0.99197      0.93580      0.98570      0.95825      0.97211      0.97198      0.96337      0.97152      0.96700      0.96509      1.59096     34.00000   4027.62981      1.19406      -999.25      1.00000
       2437.33320   2374.03281     33.66695     30.38693     36.79118     88.89870      0.86265      0.87495      0.91002      0.90837      0.93953      0.93178      0.94890      0.94520      0.95038      0.95312      1.01264      0.94460      1.00313      0.96487      0.98793      0.98071      0.98047      0.98520      0.98703      0.98225      1.59011     34.00000   4027.99966      1.19410      1.00000      -999.25
       2437.48560   2374.13313     26.38900     29.01244     29.93368     84.63440      0.87634      0.88088      0.91750      0.91038      0.94384      0.93256      0.95264      0.94693      0.95373      0.95590      1.02767      0.95398      1.01170      0.96950      0.99320      0.98158      0.98738      0.98367      0.99819      0.97878      1.59053     34.00000   4025.99958      1.19347      1.00000      -999.25
       2437.63800   2374.23342     20.61039     27.24658     29.34316     84.26719      0.88856      0.88312      0.92466      0.91314      0.94996      0.93421      0.95718      0.94585      0.95298      0.95207      1.03998      0.96746      1.01467      0.97821      0.99337      0.98843      0.99025      0.99080      1.00325      0.98559      1.59095     34.00000   4027.00035      1.19370      1.00000      1.00000
