~VERSION INFORMATION 
VERS  .    2.0                                     :CWLS Log ASCII Standard - VERSION 2.0
WRAP  .    NO                                      :One Line per Depth step
PROD  .    Schlumberger Technology Corp.           :LAS Producer
PROG  .    Horizon LASWriter 8.2.104493.3100       :LAS Program name and version
SOURCE.    Run03-Drilling                          :Run&Pass Information
CREA  .    11/08/2019                              :LAS Creation date {MM/DD/YYYY}
#--------------------------------------------------
~WELL INFORMATION 
#MNEM           .UNIT                      DATA            :DESCRIPTION
#----            ------          --------------            -----------------------------
STRT            .m                   1489.86240            :START DEPTH
STOP            .m                   2794.86360            :STOP DEPTH
STEP            .m                       0.1524            :STEP
NULL            .                       -999.25            :NULL VALUE
COMP            .                      Woodside            :COMPANY
WELL            .                         PLA07            :WELL NAME
FLD             .                 Pluto/WA-34-L            :FIELD NAME
RIGN            .                    Ocean Apex            :Rig Name
RIGTYP          .                Semi-Submersible          :Rig Type
SON             .                     19AWA0002            :Service Order Number
SRVC            .                  Schlumberger            :SERVICE COMPANY
DATE            .                    06/13/2019            :LOG DATE(Composite Date for Composite LAP) (MM/DD/YYYY)
CLAB            .                       County:            :County Label
CNTY            .                                          :COUNTY
SLAB            .                        State:            :State/Province Label
STAT            .                Western Australia         :STATE or PROVINCE
PROV            .                Western Australia         :STATE or PROVINCE
CTRY            .                     Australia            :COUNTRY
CONT_REGION     .                   Australasia            :Continent Region
SECT            .                                          :Section
TOWN            .                                          :Township
RANG            .                                          :Range
API             .                                          :API NUMBER
UWI             .                     19AWA0002            :UNIQUE WELL ID
LUL             .                        Zone 1            :Logging Unit Location
LUN             .                       1010979            :Logging Unit Number
LOC             .                       WA-34-L            :FIELD LOCATION
FL1             .                N 7 797 035.31m           :Field Location Line 1
FL2             .                 E 304 456.39m            :Field Location Line 2
LATI            .deg                 -19.913224            :LATITUDE
LONG            .deg                  115.13193            :LONGITUDE
PDAT            .                         OTHER            :Local Permanent Datum
LMF             .                            DF            :Logging Measured From
APD             .m                        23.85            :Elevation of Depth Reference (LMF) Above Permanent Datum
EPD             .m                        -1.35            :Elevation of Permanent Datum (PDAT) above Mean Sea Level
EKB             .m                      -999.25            :Elevation of Kelly Bushing Above Permanent Datum
EDF             .m                        23.85            :Elevation of Drill Floor Above Permanent Datum
EGL             .m                      -830.05            :Elevation of Ground Level Above Permanent Datum
ECF             .m                      -999.25            :Elevation of Casing Flange above Permanent Datum
#--------------------------------------------------
~CURVE INFORMATION
#MNEM           .UNIT                  API CODE            :DESCRIPTION
#----            ------          --------------            -----------------------------
DEPT            .m                                         :                                                        Depth Index
TVD             .m                                         :(RT)    (DnMWorkflow)           (6in)                   True Vertical Depth
ROP             .m/h                                       :(RT)    (DRILLING_SURFACE)      (6in)                   Rate of Penetration
ROP5            .m/h                                       :(RT)    (DRILLING_SURFACE)      (6in)                   Rate of penetration averaged over the last 5 ft (1.5 m)
GR_ARC          .gAPI                                      :(RM)    (ARC9)                  (6in)                   Gamma Ray
GR_CAL          .gAPI                                      :(RM)    (ARC9)                  (6in)                   Calibrated Gamma Ray
A16H            .ohm.m                                     :(RM)    (ARC9)                  (6in)                   Attenuation Resistivity 16 inch Spacing at 2 MHz, Environmentally Corrected
A16L            .ohm.m                                     :(RM)    (ARC9)                  (6in)                   Attenuation Resistivity 16 inch Spacing at 400 KHz, Environmentally Corrected
A22H            .ohm.m                                     :(RM)    (ARC9)                  (6in)                   Attenuation Resistivity 22 inch Spacing at 2 MHz, Environmentally Corrected
A22L            .ohm.m                                     :(RM)    (ARC9)                  (6in)                   Attenuation Resistivity 22 inch Spacing at 400 KHz, Environmentally Corrected
A28H            .ohm.m                                     :(RM)    (ARC9)                  (6in)                   Attenuation Resistivity 28 inch Spacing at 2 MHz, Environmentally Corrected
A28L            .ohm.m                                     :(RM)    (ARC9)                  (6in)                   Attenuation Resistivity 28 inch Spacing at 400 KHz, Environmentally Corrected
A34H            .ohm.m                                     :(RM)    (ARC9)                  (6in)                   Attenuation Resistivity 34 inch Spacing at 2 MHz, Environmentally Corrected
A34L            .ohm.m                                     :(RM)    (ARC9)                  (6in)                   Attenuation Resistivity 34 inch Spacing at 400 KHz, Environmentally Corrected
A40H            .ohm.m                                     :(RM)    (ARC9)                  (6in)                   Attenuation Resistivity 40 inch Spacing at 2 MHz, Environmentally Corrected.
A40L            .ohm.m                                     :(RM)    (ARC9)                  (6in)                   Attenuation Resistivity 40 inch Spacing at 400 KHz, Environmentally Corrected
P16H            .ohm.m                                     :(RM)    (ARC9)                  (6in)                   Phase Shift Resistivity 16 inch Spacing at 2 MHz, Environmentally Corrected.
P16L            .ohm.m                                     :(RM)    (ARC9)                  (6in)                   Phase Shift Resistivity 16 inch Spacing at 400 KHz, Environmentally Corrected.
P22H            .ohm.m                                     :(RM)    (ARC9)                  (6in)                   Phase Shift Resistivity 22 inch Spacing at 2 MHz, Environmentally Corrected.
P22L            .ohm.m                                     :(RM)    (ARC9)                  (6in)                   Phase Shift Resistivity 22 inch Spacing at 400 KHz, Environmentally Corrected.
P28H            .ohm.m                                     :(RM)    (ARC9)                  (6in)                   Phase Shift Resistivity 28 inch Spacing at 2 MHz, Environmentally Corrected.
P28L            .ohm.m                                     :(RM)    (ARC9)                  (6in)                   Phase Shift Resistivity 28 inch Spacing at 400 KHz, Environmentally Corrected.
P34H            .ohm.m                                     :(RM)    (ARC9)                  (6in)                   Phase Shift Resistivity 34 inch Spacing at 2 MHz, Environmentally Corrected.
P34L            .ohm.m                                     :(RM)    (ARC9)                  (6in)                   Phase Shift Resistivity 34 inch Spacing at 400 KHz, Environmentally Corrected.
P40H            .ohm.m                                     :(RM)    (ARC9)                  (6in)                   Phase Shift Resistivity 40 inch Spacing at 2 MHz, Environmentally Corrected.
P40L            .ohm.m                                     :(RM)    (ARC9)                  (6in)                   Phase Shift Resistivity 40 inch Spacing at 400 KHz, Environmentally Corrected.
TAB_RES         .h                                         :        (ARC9)                  (6in)                   Resistivity Time After Bit
DHAT            .degC                                      :(RM)    (ARC9)                  (6in)                   Downhole Annulus Temperature
DHAP            .psi                                       :(RM)    (ARC9)                  (6in)                   Downhole Annulus Pressure
ECD             .g/cm3                                     :(RM)    (ARC9)                  (6in)                   Equivalent Circulating Density
TICKS_GR        .                                          :(RM)    (ARC9)                  (1.2in)                 Gamma Ray Tick Marks
TICKS_RES       .                                          :(RM)    (ARC9)                  (1.2in)                 Resistivity Tick Marks
#-------------------------------------------------------------
#            DEPT          TVD          ROP         ROP5       GR_ARC       GR_CAL         A16H         A16L         A22H         A22L         A28H         A28L         A34H         A34L         A40H         A40L         P16H         P16L         P22H         P22L         P28H         P28L         P34H         P34L         P40H         P40L      TAB_RES         DHAT         DHAP          ECD     TICKS_GR    TICKS_RES 
#                  (DnMWorkfl)  (DRILLING_)  (DRILLING_)       (ARC9)       (ARC9)       (ARC9)       (ARC9)       (ARC9)       (ARC9)       (ARC9)       (ARC9)       (ARC9)       (ARC9)       (ARC9)       (ARC9)       (ARC9)       (ARC9)       (ARC9)       (ARC9)       (ARC9)       (ARC9)       (ARC9)       (ARC9)       (ARC9)       (ARC9)       (ARC9)       (ARC9)       (ARC9)       (ARC9)       (ARC9)       (ARC9) 
#                         (RT)         (RT)         (RT)         (RM)         (RM)         (RM)         (RM)         (RM)         (RM)         (RM)         (RM)         (RM)         (RM)         (RM)         (RM)         (RM)         (RM)         (RM)         (RM)         (RM)         (RM)         (RM)         (RM)         (RM)         (RM)                      (RM)         (RM)         (RM)         (RM)         (RM) 
#                        (6in)        (6in)        (6in)        (6in)        (6in)        (6in)        (6in)        (6in)        (6in)        (6in)        (6in)        (6in)        (6in)        (6in)        (6in)        (6in)        (6in)        (6in)        (6in)        (6in)        (6in)        (6in)        (6in)        (6in)        (6in)        (6in)        (6in)        (6in)        (6in)      (1.2in)      (1.2in) 
~ASCII
# ...
       1660.55040   1660.54153     56.49660     35.31519     45.04840     90.32169      0.30881      0.31452      0.31377      0.31653      0.32346      0.32320      0.32966      0.32716      0.32749      0.32411      0.31881      0.32186      0.31071      0.31689      0.30840      0.31727      0.31097      0.31806      0.31316      0.31416      0.47249     28.00000   2814.00043      1.19319      -999.25      -999.25
       1660.70280   1660.69392     56.65849     34.98538     39.59977     86.89279      0.28234      0.29368      0.28991      0.29837      0.29628      0.30446      0.29814      0.30794      0.29648      0.30764      0.29670      0.28754      0.28593      0.28498      0.27782      0.28206      0.27169      0.27807      0.26570      0.27352      0.47221     28.00000   2814.99974      1.19353      -999.25      -999.25
       1660.85520   1660.84632     43.37442     33.94952     36.07674     84.67571      0.27961      0.28750      0.28657      0.29520      0.29228      0.30114      0.29433      0.30468      0.29372      0.30657      0.27467      0.27364      0.27042      0.27437      0.26574      0.27521      0.26220      0.27417      0.26038      0.27119      0.47137     28.00000   2816.99981      1.19429      1.00000      1.00000
       1661.00760   1660.99872     26.12974     31.49217     37.79084     85.75442      0.29535      0.28791      0.30330      0.29815      0.30995      0.30431      0.31331      0.30719      0.31477      0.31147      0.29122      0.29043      0.28562      0.29179      0.28204      0.29262      0.28130      0.29194      0.28167      0.29024      0.46763     28.00000   2812.99967      1.19246      -999.25      -999.25
       1661.16000   1661.15112     22.02645     30.55657     47.20744     91.68039      0.30898      0.29318      0.31419      0.30475      0.31765      0.31029      0.31852      0.31340      0.31800      0.32026      0.32785      0.30897      0.31959      0.31105      0.31451      0.31119      0.31446      0.31129      0.31687      0.31321      0.46457     28.00000   2816.00050      1.19358      1.00000      1.00000
       1661.31240   1661.30352     22.07215     29.74036     56.39060     97.45947      0.34479      0.31422      0.34272      0.32531      0.34527      0.32981      0.34862      0.33364      0.34861      0.34155      0.31082      0.32332      0.30772      0.32408      0.30676      0.32427      0.30946      0.32574      0.31401      0.32905      0.46068     28.00000   2816.00050      1.19345      -999.25      -999.25
       1661.46480   1661.45592     19.44876     28.28958     60.19080     99.85098      0.35476      0.32851      0.35246      0.33318      0.35634      0.33551      0.35692      0.33928      0.34909      0.34582      0.38313      0.36058      0.36268      0.35520      0.35039      0.35478      0.34671      0.35761      0.34511      0.35901      0.45513     28.00000   2816.00050      1.19336      1.00000      -999.25
       1661.61720   1661.60832     25.03840     29.37475     63.42933    101.88900      0.37746      0.34776      0.37220      0.34559      0.37485      0.34539      0.37858      0.34738      0.37648      0.34974      0.37887      0.36766      0.36241      0.36090      0.35073      0.35984      0.35068      0.36101      0.35900      0.35907      0.45334     28.00000   2818.00057      1.19411      -999.25      -999.25
       1661.76960   1661.76072     36.70617     30.33691     63.07922    101.66870      0.37066      0.35054      0.36006      0.34667      0.36151      0.34659      0.36367      0.34826      0.35673      0.34851      0.34037      0.35025      0.33404      0.35149      0.33116      0.35526      0.32957      0.35439      0.32608      0.34649      0.45124     28.00000   2816.99981      1.19361      -999.25      -999.25
       1661.92200   1661.91312     42.49633     30.35892     55.59556     96.95914      0.33187      0.34451      0.33503      0.34238      0.33950      0.34479      0.34318      0.34648      0.34450      0.34363      0.36007      0.35381      0.34688      0.34711      0.33881      0.34632      0.33651      0.34614      0.33576      0.34106      0.45138     29.00000   2820.99995      1.19513      -999.25      1.00000
       1662.07440   1662.06552     55.20953     30.26114     52.24760     94.85223      0.32290      0.33515      0.33096      0.33693      0.33906      0.34063      0.34264      0.34148      0.34108      0.33776      0.33179      0.33048      0.32819      0.33228      0.32465      0.33609      0.31925      0.33619      0.31209      0.33058      0.45209     29.00000   2816.99981      1.19332      1.00000      1.00000
       1662.22680   1662.21791     32.23591     28.07917     60.93478    100.31920      0.30443      0.32486      0.32008      0.33036      0.33279      0.33571      0.33667      0.33729      0.33363      0.33488      0.32687      0.32534      0.32345      0.32540      0.31980      0.32762      0.31863      0.32744      0.32038      0.32277      0.45069     29.00000   2817.50599      1.19347      1.00000      1.00000
       1662.37920   1662.37031     21.11745     26.38139     67.34623    104.35400      0.29817      0.31880      0.31385      0.32788      0.32763      0.33430      0.33511      0.33691      0.33733      0.33734      0.32342      0.31203      0.31481      0.31819      0.31046      0.32176      0.30866      0.32133      0.30570      0.31941      0.44790     28.00000   2818.00057      1.19362      -999.25      -999.25
       1662.53160   1662.52271     14.82030     24.12285     61.00772    100.36510      0.30392      0.31992      0.32070      0.32977      0.33248      0.33604      0.33646      0.33916      0.33640      0.34147      0.31723      0.31340      0.31402      0.31826      0.30828      0.32219      0.30537      0.32598      0.30792      0.33054      0.43860     29.00000   2818.00057      1.19348      1.00000      -999.25
       1662.68400   1662.67511     10.89981     21.19792     49.08929     92.86466      0.32412      0.32244      0.33329      0.33238      0.34169      0.33821      0.35008      0.34153      0.35829      0.34509      0.35347      0.32772      0.33863      0.33123      0.32826      0.33432      0.32517      0.33608      0.32598      0.33685      0.23819     29.00000   2818.00057      1.19338      1.00000      1.00000
       1662.83640   1662.82751     19.21629     23.36387     39.82588     87.03509      0.31888      0.33141      0.33221      0.34015      0.34334      0.34492      0.34861      0.34777      0.34915      0.35136      0.32352      0.33179      0.32632      0.33566      0.32528      0.33863      0.32660      0.34129      0.33438      0.34448      0.24028     29.00000   2818.00057      1.19324      1.00000      -999.25
       1662.98880   1662.97991    136.80180     26.07359     38.66613     86.30524      0.31911      0.33608      0.33148      0.34334      0.34581      0.34670      0.35545      0.34844      0.35741      0.35125      0.35406      0.33769      0.34099      0.33967      0.33351      0.34201      0.33378      0.34306      0.33722      0.34237      0.24208     29.00000   2823.00002      1.19525      -999.25      -999.25
       1663.14120   1663.13231    114.26470     27.34952     46.05497     90.95513      0.31596      0.34157      0.33258      0.34772      0.34549      0.35015      0.34885      0.35119      0.34531      0.35345      0.35825      0.34201      0.35037      0.34336      0.34243      0.34559      0.33824      0.34609      0.33815      0.34393      0.24458     29.00000   2827.00016      1.19686      -999.25      -999.25
       1663.29360   1663.28471    102.41640     28.68854     55.29650     96.77094      0.32897      0.34465      0.34246      0.35111      0.35196      0.35388      0.35909      0.35639      0.36654      0.36110      0.35775      0.34704      0.35310      0.35059      0.34759      0.35206      0.34637      0.35202      0.35055      0.35246      0.24709     29.00000   2829.99954      1.19804      -999.25      -999.25
       1663.44600   1663.43711     55.92291     28.22166     60.72326    100.18610      0.33304      0.34911      0.35079      0.35630      0.36362      0.35903      0.36939      0.35934      0.37160      0.36051      0.37163      0.35792      0.36754      0.36222      0.36385      0.36387      0.35968      0.36264      0.35469      0.36109      0.24694     29.00000   2829.99954      1.19783      -999.25      1.00000
