~VERSION INFORMATION 
VERS  .    2.0                                     :CWLS Log ASCII Standard - VERSION 2.0
WRAP  .    NO                                      :One Line per Depth step
PROD  .    Schlumberger Technology Corp.           :LAS Producer
PROG  .    Horizon LASWriter 8.2.104493.3100       :LAS Program name and version
SOURCE.    Run03-Drilling                          :Run&Pass Information
CREA  .    11/08/2019                              :LAS Creation date {MM/DD/YYYY}
#--------------------------------------------------
~WELL INFORMATION 
#MNEM           .UNIT                      DATA            :DESCRIPTION
#----            ------          --------------            -----------------------------
STRT            .m                   1489.86240            :START DEPTH
STOP            .m                   2794.86360            :STOP DEPTH
STEP            .m                       0.1524            :STEP
NULL            .                       -999.25            :NULL VALUE
COMP            .                      Woodside            :COMPANY
WELL            .                         PLA07            :WELL NAME
FLD             .                 Pluto/WA-34-L            :FIELD NAME
RIGN            .                    Ocean Apex            :Rig Name
RIGTYP          .                Semi-Submersible          :Rig Type
SON             .                     19AWA0002            :Service Order Number
SRVC            .                  Schlumberger            :SERVICE COMPANY
DATE            .                    06/13/2019            :LOG DATE(Composite Date for Composite LAP) (MM/DD/YYYY)
CLAB            .                       County:            :County Label
CNTY            .                                          :COUNTY
SLAB            .                        State:            :State/Province Label
STAT            .                Western Australia         :STATE or PROVINCE
PROV            .                Western Australia         :STATE or PROVINCE
CTRY            .                     Australia            :COUNTRY
CONT_REGION     .                   Australasia            :Continent Region
SECT            .                                          :Section
TOWN            .                                          :Township
RANG            .                                          :Range
API             .                                          :API NUMBER
UWI             .                     19AWA0002            :UNIQUE WELL ID
LUL             .                        Zone 1            :Logging Unit Location
LUN             .                       1010979            :Logging Unit Number
LOC             .                       WA-34-L            :FIELD LOCATION
FL1             .                N 7 797 035.31m           :Field Location Line 1
FL2             .                 E 304 456.39m            :Field Location Line 2
LATI            .deg                 -19.913224            :LATITUDE
LONG            .deg                  115.13193            :LONGITUDE
PDAT            .                         OTHER            :Local Permanent Datum
LMF             .                            DF            :Logging Measured From
APD             .m                        23.85            :Elevation of Depth Reference (LMF) Above Permanent Datum
EPD             .m                        -1.35            :Elevation of Permanent Datum (PDAT) above Mean Sea Level
EKB             .m                      -999.25            :Elevation of Kelly Bushing Above Permanent Datum
EDF             .m                        23.85            :Elevation of Drill Floor Above Permanent Datum
EGL             .m                      -830.05            :Elevation of Ground Level Above Permanent Datum
ECF             .m                      -999.25            :Elevation of Casing Flange above Permanent Datum
#--------------------------------------------------
~CURVE INFORMATION
#MNEM           .UNIT                  API CODE            :DESCRIPTION
#----            ------          --------------            -----------------------------
DEPT            .m                                         :                                                        Depth Index
TVD             .m                                         :(RT)    (DnMWorkflow)           (6in)                   True Vertical Depth
GR              .gAPI                                      :(RM)    (ARC9)                  (6in)                   Gamma Ray
ROP             .m/h                                       :(RT)    (DRILLING_SURFACE)      (6in)                   Rate of Penetration
ROP5            .m/h                                       :(RT)    (DRILLING_SURFACE)      (6in)                   Rate of penetration averaged over the last 5 ft (1.5 m)
BLKP            .m                                         :(RT)    (DRILLING_SURFACE)      (6in)                   Height of block above rig floor
HKLA            .1000 lbf                                  :(RT)    (DRILLING_SURFACE)      (6in)                   Average Hookload
SWOB            .1000 lbf                                  :(RT)    (DRILLING_SURFACE)      (6in)                   Surface Weight On Bit
STOR            .1000 ft.lbf                               :(RT)    (DRILLING_SURFACE)      (6in)                   Surface Torque
RPM             .c/min                                     :(RT)    (DRILLING_SURFACE)      (6in)                   Rotational Speed
CRPM            .c/min                                     :(RM)    (TELE900)               (6in)                   Collar Rotational Speed
STICKNSLIP      .c/min                                     :(RM)    (TELE900)               (6in)                   Stick Slip Indicator
SPPA            .psi                                       :(RT)    (DRILLING_SURFACE)      (6in)                   Standpipe Pressure
TFLO            .gal/min                                   :(RT)    (DRILLING_SURFACE)      (6in)                   Total flow rate of all active pumps
TRPM            .c/min                                     :(RM)    (TELE900)               (6in)                   MWD Turbine Rotation Speed
DHAT            .degC                                      :(RM)    (ARC9)                  (6in)                   Downhole Annulus Temperature
DHAP            .psi                                       :(RM)    (ARC9)                  (6in)                   Downhole Annulus Pressure
ECD             .g/cm3                                     :(RM)    (ARC9)                  (6in)                   Equivalent Circulating Density
COBTM           .                                          :(RT)    (DRILLING_SURFACE)      (6in)                   Composite On Bottom Status
SHKL            .                                          :(RM)    (ARC9)                  (6in)                   Tool Shock Level
SHKRSK          .                                          :(RM)    (TELE900)               (6in)                   Shock Risk
SHKPK           .gn                                        :(RM)    (TELE900)               (6in)                   Shock Peak
SHOCKS_ACC      .                                          :(RM)    (TELE900)               (6in)                   Total Shocks accumulated over tool lifetime
VIB_X           .gn                                        :(RM)    (TELE900)               (6in)                   RMS Vibration, X-Axis
VIB_LAT         .gn                                        :(RM)    (TELE900)               (6in)                   Transverse RMS Vibration
INCL_CONT       .deg                                       :(RT)    (PDXCEED_900)           (6in)                   Continuous Inclination (Hole Deviation)
AZIM_CONT       .deg                                       :(RT)    (PDXCEED_900)           (6in)                   Continuous Hole Azimuth
#-------------------------------------------------------------
#            DEPT          TVD           GR          ROP         ROP5         BLKP         HKLA         SWOB         STOR          RPM         CRPM   STICKNSLIP         SPPA         TFLO         TRPM         DHAT         DHAP          ECD        COBTM         SHKL       SHKRSK        SHKPK   SHOCKS_ACC        VIB_X      VIB_LAT    INCL_CONT    AZIM_CONT 
#                  (DnMWorkfl)       (ARC9)  (DRILLING_)  (DRILLING_)  (DRILLING_)  (DRILLING_)  (DRILLING_)  (DRILLING_)  (DRILLING_)    (TELE900)    (TELE900)  (DRILLING_)  (DRILLING_)    (TELE900)       (ARC9)       (ARC9)       (ARC9)  (DRILLING_)       (ARC9)    (TELE900)    (TELE900)    (TELE900)    (TELE900)    (TELE900)  (PDXCEED_9)  (PDXCEED_9) 
#                         (RT)         (RM)         (RT)         (RT)         (RT)         (RT)         (RT)         (RT)         (RT)         (RM)         (RM)         (RT)         (RT)         (RM)         (RM)         (RM)         (RM)         (RT)         (RM)         (RM)         (RM)         (RM)         (RM)         (RM)         (RT)         (RT) 
#                        (6in)        (6in)        (6in)        (6in)        (6in)        (6in)        (6in)        (6in)        (6in)        (6in)        (6in)        (6in)        (6in)        (6in)        (6in)        (6in)        (6in)        (6in)        (6in)        (6in)        (6in)        (6in)        (6in)        (6in)        (6in)        (6in) 
~ASCII
# ...
       1584.50280   1584.49516     77.80586     21.70083     14.44675     25.56631    189.62001     24.53079      6.30000    140.00000      -999.25      -999.25   2855.52184   1159.84680      -999.25     27.00000   2648.99970      1.17720      0.00000      0.00000      -999.25      0.00000      -999.25      0.00000      0.24983      -999.25      -999.25
       1584.65520   1584.64756     74.39225     18.94604     14.64231     25.52492    192.25998     19.98081      6.18000    140.00000      -999.25      -999.25   2862.94052   1159.84680      -999.25     27.00000   2652.00053      1.17843      0.00000      0.00000      -999.25      -999.25      -999.25      -999.25      -999.25      -999.25      -999.25
       1584.80760   1584.79996     68.14494     20.73280     15.77641     25.45632    188.61001     23.63080     13.03000    140.00000      -999.25     78.00000   2844.00874   1159.84680      -999.25     27.00000   2650.00046      1.17744      0.00000      0.00000      -999.25      -999.25      -999.25      -999.25      -999.25      -999.25      -999.25
       1584.96000   1584.95236     58.42928     28.14086     15.89370     25.24435    190.22000     22.03355      7.82000    140.00000    136.00000      -999.25   2866.85798   1159.84680   3153.00000     28.00000   2650.99977      1.17773      0.00000      0.00000      0.00000      0.00000      0.00000      -999.25      -999.25      0.00000     83.32732
       1585.11240   1585.10476     53.11194     34.05195     16.77067     25.14130    189.15001     17.29081     12.32000    140.00000      -999.25      -999.25   2878.66406   1159.84680      -999.25     28.00000   2655.99922      1.17984      0.00000      0.00000      -999.25      -999.25      -999.25      -999.25      -999.25      -999.25      -999.25
       1585.26480   1585.25716     54.52698     44.31459     18.28707     24.82667    191.96000     20.38564      8.70000    140.00000      -999.25      -999.25   2863.70341   1159.84680      -999.25     28.00000   2652.00053      1.17797      0.00000      0.00000      -999.25      -999.25      -999.25      -999.25      -999.25      0.00000     80.93887
       1585.41720   1585.40956     58.00987     37.94413     20.55362     24.70426    186.50999     25.73081      9.33000    140.00000      -999.25      -999.25   2859.85411   1159.84680      -999.25     28.00000   2650.00046      1.17700      0.00000      0.00000      -999.25      -999.25      -999.25      -999.25      -999.25      -999.25      -999.25
       1585.56960   1585.56196     61.97781     31.35416     22.75120     24.77545    185.44000     26.68508     14.41000    140.00000      -999.25      -999.25   2816.90989   1159.84680      -999.25     28.00000   2652.00053      1.17773      0.00000      0.00000      -999.25      0.00000      -999.25      -999.25      -999.25      -999.25      -999.25
       1585.72200   1585.71436     64.76414     31.94480     27.57261     24.58155    185.67001     26.57082     11.65000    140.00000      -999.25      -999.25   2827.94001   1159.84680      -999.25     28.00000   2654.99991      1.17894      0.00000      0.00000      -999.25      -999.25      -999.25      -999.25      -999.25      0.00000     80.93887
       1585.87440   1585.86676     68.48410     33.96432     29.03276     24.24794    184.96001     27.28079      9.59000    140.00000      -999.25      -999.25   2843.59973   1159.84680      -999.25     28.00000   2652.99984      1.17793      0.00000      0.00000      -999.25      -999.25      -999.25      -999.25      -999.25      -999.25      -999.25
       1586.02680   1586.01916     72.81674     24.72442     28.45695     24.11554    188.90999     23.33079      9.00000    140.00000    144.00000     90.00000   2846.04217   1149.85502   3141.00000     28.00000   2650.99977      1.17696      0.00000      0.00000      0.00000      0.00000      0.00000      -999.25      -999.25      0.00000     80.93887
       1586.17920   1586.17156     71.35065     15.82375     27.37717     23.93650    188.31000     23.93080      2.99000    140.00000      -999.25      -999.25   2852.27154   1159.84680      -999.25     28.00000   2650.99977      1.17687      0.00000      0.00000      -999.25      0.00000      -999.25      -999.25      -999.25      0.00000     80.93887
       1586.33160   1586.32396     64.41405     13.08555     24.52285     23.76265    189.86001     22.49044      3.22000    140.00000      -999.25    183.00000   2845.04721   1159.84680      -999.25     28.00000   2654.00060      1.17807      0.00000      0.00000      -999.25      -999.25      -999.25      -999.25      -999.25      -999.25      -999.25
       1586.48400   1586.47636     55.46428     11.40612     21.29738     23.72378    188.85000     23.39080      7.48000    140.00000    132.00000      -999.25   2865.18425   1159.84680   3150.00000     28.00000   2654.00060      1.17797      0.00000      0.00000      0.00000      0.00000      0.00000      0.00000      0.00000      -999.25      -999.25
       1586.63640   1586.62876     48.02437     10.34745     18.43884     23.56379    187.95001     24.29082     10.15000    140.00000      -999.25      -999.25   2858.00343   1159.84680      -999.25     28.00000   2654.00060      1.17790      0.00000      0.00000      -999.25      0.00000      -999.25      -999.25      -999.25      -999.25      -999.25
       1586.78880   1586.78116     45.61734     11.46983     16.70062     23.31623    189.74001     22.98081      4.94000    140.00000    134.00000     66.00000   2846.12919   1159.84680   3147.00000     28.00000   2652.00053      1.17684      0.00000      0.00000      0.00000      0.00000      0.00000      -999.25      -999.25      0.00000     83.32732
       1586.94120   1586.93356     44.39194     10.68823     14.77659     23.25182    189.74001     21.30081      8.07000    140.00000      -999.25      -999.25   2803.17336   1154.84048      -999.25     28.00000   2653.86136      1.17757      0.00000      0.00000      -999.25      -999.25      -999.25      -999.25      -999.25      -999.25      -999.25
       1587.09360   1587.08596     42.61220     14.47071     14.85436     23.07042    189.15001     23.09082      9.12000    140.00000      -999.25      -999.25   2802.34230   1149.85502      -999.25     28.00000   2654.99991      1.17801      0.00000      0.00000      -999.25      0.00000      -999.25      -999.25      -999.25      -999.25      -999.25
       1587.24600   1587.23836     45.09946     30.28350     14.70198     22.91570    186.50999     23.21082     13.44000    140.00000      -999.25      -999.25   2778.92741   1149.85502      -999.25     28.00000   2656.99998      1.17872      0.00000      0.00000      -999.25      -999.25      -999.25      -999.25      -999.25      -999.25      -999.25
       1587.39840   1587.39076     50.64291     28.71368     14.62051     22.81432    186.69000     25.55080      7.60000    140.00000      -999.25     81.00000   2761.12692   1149.85502      -999.25     28.00000   2654.00060      1.17728      0.00000      0.00000      -999.25      -999.25      -999.25      -999.25      -999.25      -999.25      -999.25
       1587.55080   1587.54316     55.48615     28.67197     14.94671     22.63780    186.03000     26.27081      4.55000    141.00000    127.00000      -999.25   2725.73191   1149.85502   3099.00000     28.00000   2659.00005      1.17937      0.00000      0.00000      0.00000      0.00000      0.00000      -999.25      -999.25      0.00000     85.77703
       1587.70320   1587.69556     59.99385     19.82183     15.18655     22.44047    189.86001     23.15081      5.79000    140.00000      -999.25      -999.25   2770.12652   1149.85502      -999.25     28.00000   2659.00005      1.17925      0.00000      0.00000      -999.25      -999.25      -999.25      -999.25      -999.25      -999.25      -999.25
       1587.85560   1587.84796     64.06392     17.62410     15.88098     22.25586    184.71999     27.39711      6.79000    140.00000      -999.25      -999.25   2719.21392   1149.85502      -999.25     28.00000   2659.00005      1.17917      0.00000      0.00000      -999.25      0.00000      -999.25      0.00000      0.24983      -999.25      -999.25
