~VERSION INFORMATION 
VERS  .    2.0                                     :CWLS Log ASCII Standard - VERSION 2.0
WRAP  .    NO                                      :One Line per Depth step
PROD  .    Schlumberger Technology Corp.           :LAS Producer
PROG  .    Horizon LASWriter 8.2.104493.3100       :LAS Program name and version
SOURCE.    Run03-Drilling                          :Run&Pass Information
CREA  .    11/08/2019                              :LAS Creation date {MM/DD/YYYY}
#--------------------------------------------------
~WELL INFORMATION 
#MNEM           .UNIT                      DATA            :DESCRIPTION
#----            ------          --------------            -----------------------------
STRT            .m                   1489.86240            :START DEPTH
STOP            .m                   2794.86360            :STOP DEPTH
STEP            .m                       0.1524            :STEP
NULL            .                       -999.25            :NULL VALUE
COMP            .                      Woodside            :COMPANY
WELL            .                         PLA07            :WELL NAME
FLD             .                 Pluto/WA-34-L            :FIELD NAME
RIGN            .                    Ocean Apex            :Rig Name
RIGTYP          .                Semi-Submersible          :Rig Type
SON             .                     19AWA0002            :Service Order Number
SRVC            .                  Schlumberger            :SERVICE COMPANY
DATE            .                    06/13/2019            :LOG DATE(Composite Date for Composite LAP) (MM/DD/YYYY)
CLAB            .                       County:            :County Label
CNTY            .                                          :COUNTY
SLAB            .                        State:            :State/Province Label
STAT            .                Western Australia         :STATE or PROVINCE
PROV            .                Western Australia         :STATE or PROVINCE
CTRY            .                     Australia            :COUNTRY
CONT_REGION     .                   Australasia            :Continent Region
SECT            .                                          :Section
TOWN            .                                          :Township
RANG            .                                          :Range
API             .                                          :API NUMBER
UWI             .                     19AWA0002            :UNIQUE WELL ID
LUL             .                        Zone 1            :Logging Unit Location
LUN             .                       1010979            :Logging Unit Number
LOC             .                       WA-34-L            :FIELD LOCATION
FL1             .                N 7 797 035.31m           :Field Location Line 1
FL2             .                 E 304 456.39m            :Field Location Line 2
LATI            .deg                 -19.913224            :LATITUDE
LONG            .deg                  115.13193            :LONGITUDE
PDAT            .                         OTHER            :Local Permanent Datum
LMF             .                            DF            :Logging Measured From
APD             .m                        23.85            :Elevation of Depth Reference (LMF) Above Permanent Datum
EPD             .m                        -1.35            :Elevation of Permanent Datum (PDAT) above Mean Sea Level
EKB             .m                      -999.25            :Elevation of Kelly Bushing Above Permanent Datum
EDF             .m                        23.85            :Elevation of Drill Floor Above Permanent Datum
EGL             .m                      -830.05            :Elevation of Ground Level Above Permanent Datum
ECF             .m                      -999.25            :Elevation of Casing Flange above Permanent Datum
#--------------------------------------------------
~CURVE INFORMATION
#MNEM           .UNIT                  API CODE            :DESCRIPTION
#----            ------          --------------            -----------------------------
DEPT            .m                                         :                                                        Depth Index
TVD             .m                                         :(RT)    (DnMWorkflow)           (6in)                   True Vertical Depth
GR              .gAPI                                      :(RM)    (ARC9)                  (6in)                   Gamma Ray
ROP             .m/h                                       :(RT)    (DRILLING_SURFACE)      (6in)                   Rate of Penetration
ROP5            .m/h                                       :(RT)    (DRILLING_SURFACE)      (6in)                   Rate of penetration averaged over the last 5 ft (1.5 m)
BLKP            .m                                         :(RT)    (DRILLING_SURFACE)      (6in)                   Height of block above rig floor
HKLA            .1000 lbf                                  :(RT)    (DRILLING_SURFACE)      (6in)                   Average Hookload
SWOB            .1000 lbf                                  :(RT)    (DRILLING_SURFACE)      (6in)                   Surface Weight On Bit
STOR            .1000 ft.lbf                               :(RT)    (DRILLING_SURFACE)      (6in)                   Surface Torque
RPM             .c/min                                     :(RT)    (DRILLING_SURFACE)      (6in)                   Rotational Speed
CRPM            .c/min                                     :(RM)    (TELE900)               (6in)                   Collar Rotational Speed
STICKNSLIP      .c/min                                     :(RM)    (TELE900)               (6in)                   Stick Slip Indicator
SPPA            .psi                                       :(RT)    (DRILLING_SURFACE)      (6in)                   Standpipe Pressure
TFLO            .gal/min                                   :(RT)    (DRILLING_SURFACE)      (6in)                   Total flow rate of all active pumps
TRPM            .c/min                                     :(RM)    (TELE900)               (6in)                   MWD Turbine Rotation Speed
DHAT            .degC                                      :(RM)    (ARC9)                  (6in)                   Downhole Annulus Temperature
DHAP            .psi                                       :(RM)    (ARC9)                  (6in)                   Downhole Annulus Pressure
ECD             .g/cm3                                     :(RM)    (ARC9)                  (6in)                   Equivalent Circulating Density
COBTM           .                                          :(RT)    (DRILLING_SURFACE)      (6in)                   Composite On Bottom Status
SHKL            .                                          :(RM)    (ARC9)                  (6in)                   Tool Shock Level
SHKRSK          .                                          :(RM)    (TELE900)               (6in)                   Shock Risk
SHKPK           .gn                                        :(RM)    (TELE900)               (6in)                   Shock Peak
SHOCKS_ACC      .                                          :(RM)    (TELE900)               (6in)                   Total Shocks accumulated over tool lifetime
VIB_X           .gn                                        :(RM)    (TELE900)               (6in)                   RMS Vibration, X-Axis
VIB_LAT         .gn                                        :(RM)    (TELE900)               (6in)                   Transverse RMS Vibration
INCL_CONT       .deg                                       :(RT)    (PDXCEED_900)           (6in)                   Continuous Inclination (Hole Deviation)
AZIM_CONT       .deg                                       :(RT)    (PDXCEED_900)           (6in)                   Continuous Hole Azimuth
#-------------------------------------------------------------
#            DEPT          TVD           GR          ROP         ROP5         BLKP         HKLA         SWOB         STOR          RPM         CRPM   STICKNSLIP         SPPA         TFLO         TRPM         DHAT         DHAP          ECD        COBTM         SHKL       SHKRSK        SHKPK   SHOCKS_ACC        VIB_X      VIB_LAT    INCL_CONT    AZIM_CONT 
#                  (DnMWorkfl)       (ARC9)  (DRILLING_)  (DRILLING_)  (DRILLING_)  (DRILLING_)  (DRILLING_)  (DRILLING_)  (DRILLING_)    (TELE900)    (TELE900)  (DRILLING_)  (DRILLING_)    (TELE900)       (ARC9)       (ARC9)       (ARC9)  (DRILLING_)       (ARC9)    (TELE900)    (TELE900)    (TELE900)    (TELE900)    (TELE900)  (PDXCEED_9)  (PDXCEED_9) 
#                         (RT)         (RM)         (RT)         (RT)         (RT)         (RT)         (RT)         (RT)         (RT)         (RM)         (RM)         (RT)         (RT)         (RM)         (RM)         (RM)         (RM)         (RT)         (RM)         (RM)         (RM)         (RM)         (RM)         (RM)         (RT)         (RT) 
#                        (6in)        (6in)        (6in)        (6in)        (6in)        (6in)        (6in)        (6in)        (6in)        (6in)        (6in)        (6in)        (6in)        (6in)        (6in)        (6in)        (6in)        (6in)        (6in)        (6in)        (6in)        (6in)        (6in)        (6in)        (6in)        (6in) 
~ASCII
# ...
       2099.76720   2095.39219     34.73245     62.32269     60.64636     13.32064    199.25999     24.46849     18.40000    148.00000      -999.25      -999.25   3225.30715   1149.89703      -999.25     31.00000   3577.99977      1.20194      0.00000      0.00000      -999.25      -999.25      -999.25      -999.25      -999.25     17.51836    185.58210
       2099.91960   2095.53719     31.32214     70.15234     60.83689     13.16786    195.55000     27.32396     21.41000    148.00000      -999.25      -999.25   3016.61380   1149.89703      -999.25     32.00000   3577.99977      1.20187      0.00000      0.00000      -999.25      -999.25      -999.25      -999.25      -999.25      -999.25      -999.25
       2100.07200   2095.68219     31.02983     73.34193     60.00045     12.89969    196.62000     32.48847     17.81000    148.00000      -999.25      -999.25   2830.24756    994.71973      -999.25     32.00000   3579.00053      1.20211      0.00000      0.00000      -999.25      -999.25      -999.25      -999.25      -999.25      -999.25      -999.25
       2100.22440   2095.82717     33.62521     55.87110     56.88812     12.83986    192.80000     31.27877     26.21000    148.00000      -999.25      -999.25   2871.45713   1134.87779      -999.25     32.00000   3579.00053      1.20202      0.00000      0.00000      -999.25      -999.25      -999.25      -999.25      -999.25      -999.25      -999.25
       2100.37680   2095.97215     33.76694     35.75799     50.84914     12.71418    195.19001     27.39848     19.66000    148.00000      -999.25      -999.25   3006.31467   1154.92448      -999.25     32.00000   3581.00060      1.20257      0.00000      0.00000      -999.25      0.00000      -999.25      -999.25      -999.25      -999.25      -999.25
       2100.52920   2096.11711     32.94611     27.90630     47.22799     12.63108    192.19999     28.89848     23.65000    148.00000      -999.25      -999.25   3106.80262   1134.89892      -999.25     32.00000   3579.00053      1.20183      0.00000      0.00000      -999.25      -999.25      -999.25      -999.25      -999.25      -999.25      -999.25
       2100.68160   2096.26207     29.85173     27.57826     44.37601     12.26366    198.29998     29.85848     16.57000    149.00000      -999.25     93.00000   2755.85480   1004.73238      -999.25     32.00000   3579.00053      1.20175      0.00000      0.00000      -999.25      -999.25      -999.25      -999.25      -999.25      -999.25      -999.25
       2100.83400   2096.40702     24.27862     22.51230     38.73989     12.19752    194.52999     29.19848     24.04000    148.00000    157.00000      -999.25   3037.65152   1154.90335   2797.00000     32.00000   3579.00053      1.20167      0.00000      0.00000      0.00000      0.00000      0.00000      -999.25      -999.25     17.63231    187.44450
       2100.98640   2096.55196     17.15325     18.53742     33.81773     12.10367    196.74002     26.98846     22.02000    148.00000      -999.25      -999.25   2644.79796    999.72605      -999.25     32.00000   3581.00060      1.20226      0.00000      0.00000      -999.25      -999.25      -999.25      -999.25      -999.25      -999.25    184.74300
       2101.13880   2096.69689     14.67224     20.07557     30.82249     11.86884    200.69002     24.76847     17.94000    148.00000      -999.25      -999.25   2984.93176   1184.96269      -999.25     32.00000   3581.00060      1.20216      0.00000      0.00000      -999.25      0.00000      -999.25      -999.25      -999.25      -999.25      -999.25
       2101.29120   2096.84182     23.71074     15.55285     25.49683     11.76786    201.35001     23.27848     16.45000    148.00000    148.00000    111.00000   3363.33666   1164.91626   3196.00000     32.00000   3579.00053      1.20139      0.00000      0.00000      0.00000      0.00000      0.00000      -999.25      -999.25      -999.25      -999.25
       2101.44360   2096.98673     26.91884     11.43990     21.24244     11.70990    197.46000     23.03848     19.12000    148.00000      -999.25      -999.25   3367.78207   1164.91626      -999.25     32.00000   3581.99991      1.20235      0.00000      0.00000      -999.25      -999.25      -999.25      -999.25      -999.25      -999.25      -999.25
       2101.59600   2097.13164     21.01595     15.90301     20.37912     11.63100    201.46999     22.25847     14.02000    149.00000      -999.25      -999.25   3384.62095   1164.91626      -999.25     32.00000   3581.99991      1.20225      0.00000      0.00000      -999.25      0.00000      -999.25      0.37475      0.74949     17.74555    184.41990
       2101.74840   2097.27653     23.26365     42.58445     20.75014     11.18025    203.50999     20.21848     15.99000    148.00000      -999.25      -999.25   3392.19917   1164.91626      -999.25     32.00000   3581.00060      1.20183      0.00000      0.00000      -999.25      -999.25      -999.25      -999.25      -999.25      -999.25      -999.25
       2101.90080   2097.42142     30.36107     49.88264     21.05880     11.13032    199.38001     22.97847     19.93000    148.00000      -999.25      -999.25   3369.73863   1164.91626      -999.25     32.00000   3579.99984      1.20141      0.00000      0.00000      -999.25      -999.25      -999.25      -999.25      -999.25     17.74555    184.41990
       2102.05320   2097.56630     31.28007     30.69431     21.03426     10.96471    199.55999     25.44229     12.72000    149.00000      -999.25    168.00000   3367.53986   1164.91626      -999.25     32.00000   3579.99984      1.20133      0.00000      0.00000      -999.25      -999.25      -999.25      -999.25      -999.25      -999.25      -999.25
       2102.20560   2097.71117     23.91692     25.79838     20.83923     10.87011    194.10999     29.61847     22.85000    149.00000    134.00000      -999.25   3374.36243   1164.91626   3200.00000     32.00000   3579.00053      1.20092      0.00000      0.00000      0.00000      0.00000      0.00000      -999.25      -999.25     17.74555    184.41990
       2102.35800   2097.85603     18.05225     32.11127     22.27877     10.78836    196.02999     28.29849     31.69000    148.00000      -999.25      -999.25   3352.01067   1164.91626      -999.25     32.00000   3585.00074      1.20284      0.00000      0.00000      -999.25      -999.25      -999.25      -999.25      -999.25      -999.25    184.41990
       2102.51040   2098.00089     23.79882     55.86256     24.52323     10.63100    200.33000     23.39848     26.58000    148.00000      -999.25      -999.25   3378.42349   1164.91626      -999.25     32.00000   3581.00060      1.20140      0.00000      0.00000      -999.25      -999.25      -999.25      -999.25      -999.25      -999.25      -999.25
       2102.66280   2098.14573     33.58682     83.37794     26.79374     10.26231    195.13000     28.59847     28.95000    148.00000      -999.25      -999.25   3363.43094   1164.91626      -999.25     32.00000   3581.99991      1.20166      0.00000      0.00000      -999.25      -999.25      -999.25      -999.25      -999.25      -999.25      -999.25
       2102.81520   2098.29057     39.23006     71.07817     32.53928     10.44541    196.39001     27.33847     18.35000    148.00000      -999.25      -999.25   3376.02022   1164.91626      -999.25     32.00000   3579.00053      1.20061      0.00000      0.00000      -999.25      -999.25      -999.25      -999.25      -999.25     17.85809    182.13380
       2102.96760   2098.43539     43.98750     59.89067     43.14270     10.04924    200.87000     22.85848     14.75000    148.00000      -999.25      -999.25   3391.07803   1164.91626      -999.25     32.00000   3583.00067      1.20182      0.00000      0.00000      -999.25      -999.25      -999.25      -999.25      -999.25      -999.25      -999.25
       2103.12000   2098.58021     46.05066     58.96409     46.40856      9.98265    195.55000     28.17847     25.22000    149.00000      -999.25      -999.25   3372.30145   1164.91626      -999.25     32.00000   3581.99991      1.20143      0.00000      0.00000      -999.25      0.00000      -999.25      -999.25      -999.25      -999.25      -999.25
