~VERSION INFORMATION 
VERS  .    2.0                                     :CWLS Log ASCII Standard - VERSION 2.0
WRAP  .    NO                                      :One Line per Depth step
PROD  .    Schlumberger Technology Corp.           :LAS Producer
PROG  .    Horizon LASWriter 8.2.104493.3100       :LAS Program name and version
SOURCE.    Run03-Drilling                          :Run&Pass Information
CREA  .    11/08/2019                              :LAS Creation date {MM/DD/YYYY}
#--------------------------------------------------
~WELL INFORMATION 
#MNEM           .UNIT                      DATA            :DESCRIPTION
#----            ------          --------------            -----------------------------
STRT            .m                   1489.86240            :START DEPTH
STOP            .m                   2794.86360            :STOP DEPTH
STEP            .m                       0.1524            :STEP
NULL            .                       -999.25            :NULL VALUE
COMP            .                      Woodside            :COMPANY
WELL            .                         PLA07            :WELL NAME
FLD             .                 Pluto/WA-34-L            :FIELD NAME
RIGN            .                    Ocean Apex            :Rig Name
RIGTYP          .                Semi-Submersible          :Rig Type
SON             .                     19AWA0002            :Service Order Number
SRVC            .                  Schlumberger            :SERVICE COMPANY
DATE            .                    06/13/2019            :LOG DATE(Composite Date for Composite LAP) (MM/DD/YYYY)
CLAB            .                       County:            :County Label
CNTY            .                                          :COUNTY
SLAB            .                        State:            :State/Province Label
STAT            .                Western Australia         :STATE or PROVINCE
PROV            .                Western Australia         :STATE or PROVINCE
CTRY            .                     Australia            :COUNTRY
CONT_REGION     .                   Australasia            :Continent Region
SECT            .                                          :Section
TOWN            .                                          :Township
RANG            .                                          :Range
API             .                                          :API NUMBER
UWI             .                     19AWA0002            :UNIQUE WELL ID
LUL             .                        Zone 1            :Logging Unit Location
LUN             .                       1010979            :Logging Unit Number
LOC             .                       WA-34-L            :FIELD LOCATION
FL1             .                N 7 797 035.31m           :Field Location Line 1
FL2             .                 E 304 456.39m            :Field Location Line 2
LATI            .deg                 -19.913224            :LATITUDE
LONG            .deg                  115.13193            :LONGITUDE
PDAT            .                         OTHER            :Local Permanent Datum
LMF             .                            DF            :Logging Measured From
APD             .m                        23.85            :Elevation of Depth Reference (LMF) Above Permanent Datum
EPD             .m                        -1.35            :Elevation of Permanent Datum (PDAT) above Mean Sea Level
EKB             .m                      -999.25            :Elevation of Kelly Bushing Above Permanent Datum
EDF             .m                        23.85            :Elevation of Drill Floor Above Permanent Datum
EGL             .m                      -830.05            :Elevation of Ground Level Above Permanent Datum
ECF             .m                      -999.25            :Elevation of Casing Flange above Permanent Datum
#--------------------------------------------------
~CURVE INFORMATION
#MNEM           .UNIT                  API CODE            :DESCRIPTION
#----            ------          --------------            -----------------------------
DEPT            .m                                         :                                                        Depth Index
TVD             .m                                         :(RT)    (DnMWorkflow)           (6in)                   True Vertical Depth
ROP             .m/h                                       :(RT)    (DRILLING_SURFACE)      (6in)                   Rate of Penetration
ROP5            .m/h                                       :(RT)    (DRILLING_SURFACE)      (6in)                   Rate of penetration averaged over the last 5 ft (1.5 m)
GR_ARC          .gAPI                                      :(RM)    (ARC9)                  (6in)                   Gamma Ray
GR_CAL          .gAPI                                      :(RM)    (ARC9)                  (6in)                   Calibrated Gamma Ray
A16H            .ohm.m                                     :(RM)    (ARC9)                  (6in)                   Attenuation Resistivity 16 inch Spacing at 2 MHz, Environmentally Corrected
A16L            .ohm.m                                     :(RM)    (ARC9)                  (6in)                   Attenuation Resistivity 16 inch Spacing at 400 KHz, Environmentally Corrected
A22H            .ohm.m                                     :(RM)    (ARC9)                  (6in)                   Attenuation Resistivity 22 inch Spacing at 2 MHz, Environmentally Corrected
A22L            .ohm.m                                     :(RM)    (ARC9)                  (6in)                   Attenuation Resistivity 22 inch Spacing at 400 KHz, Environmentally Corrected
A28H            .ohm.m                                     :(RM)    (ARC9)                  (6in)                   Attenuation Resistivity 28 inch Spacing at 2 MHz, Environmentally Corrected
A28L            .ohm.m                                     :(RM)    (ARC9)                  (6in)                   Attenuation Resistivity 28 inch Spacing at 400 KHz, Environmentally Corrected
A34H            .ohm.m                                     :(RM)    (ARC9)                  (6in)                   Attenuation Resistivity 34 inch Spacing at 2 MHz, Environmentally Corrected
A34L            .ohm.m                                     :(RM)    (ARC9)                  (6in)                   Attenuation Resistivity 34 inch Spacing at 400 KHz, Environmentally Corrected
A40H            .ohm.m                                     :(RM)    (ARC9)                  (6in)                   Attenuation Resistivity 40 inch Spacing at 2 MHz, Environmentally Corrected.
A40L            .ohm.m                                     :(RM)    (ARC9)                  (6in)                   Attenuation Resistivity 40 inch Spacing at 400 KHz, Environmentally Corrected
P16H            .ohm.m                                     :(RM)    (ARC9)                  (6in)                   Phase Shift Resistivity 16 inch Spacing at 2 MHz, Environmentally Corrected.
P16L            .ohm.m                                     :(RM)    (ARC9)                  (6in)                   Phase Shift Resistivity 16 inch Spacing at 400 KHz, Environmentally Corrected.
P22H            .ohm.m                                     :(RM)    (ARC9)                  (6in)                   Phase Shift Resistivity 22 inch Spacing at 2 MHz, Environmentally Corrected.
P22L            .ohm.m                                     :(RM)    (ARC9)                  (6in)                   Phase Shift Resistivity 22 inch Spacing at 400 KHz, Environmentally Corrected.
P28H            .ohm.m                                     :(RM)    (ARC9)                  (6in)                   Phase Shift Resistivity 28 inch Spacing at 2 MHz, Environmentally Corrected.
P28L            .ohm.m                                     :(RM)    (ARC9)                  (6in)                   Phase Shift Resistivity 28 inch Spacing at 400 KHz, Environmentally Corrected.
P34H            .ohm.m                                     :(RM)    (ARC9)                  (6in)                   Phase Shift Resistivity 34 inch Spacing at 2 MHz, Environmentally Corrected.
P34L            .ohm.m                                     :(RM)    (ARC9)                  (6in)                   Phase Shift Resistivity 34 inch Spacing at 400 KHz, Environmentally Corrected.
P40H            .ohm.m                                     :(RM)    (ARC9)                  (6in)                   Phase Shift Resistivity 40 inch Spacing at 2 MHz, Environmentally Corrected.
P40L            .ohm.m                                     :(RM)    (ARC9)                  (6in)                   Phase Shift Resistivity 40 inch Spacing at 400 KHz, Environmentally Corrected.
TAB_RES         .h                                         :        (ARC9)                  (6in)                   Resistivity Time After Bit
DHAT            .degC                                      :(RM)    (ARC9)                  (6in)                   Downhole Annulus Temperature
DHAP            .psi                                       :(RM)    (ARC9)                  (6in)                   Downhole Annulus Pressure
ECD             .g/cm3                                     :(RM)    (ARC9)                  (6in)                   Equivalent Circulating Density
TICKS_GR        .                                          :(RM)    (ARC9)                  (1.2in)                 Gamma Ray Tick Marks
TICKS_RES       .                                          :(RM)    (ARC9)                  (1.2in)                 Resistivity Tick Marks
#-------------------------------------------------------------
#            DEPT          TVD          ROP         ROP5       GR_ARC       GR_CAL         A16H         A16L         A22H         A22L         A28H         A28L         A34H         A34L         A40H         A40L         P16H         P16L         P22H         P22L         P28H         P28L         P34H         P34L         P40H         P40L      TAB_RES         DHAT         DHAP          ECD     TICKS_GR    TICKS_RES 
#                  (DnMWorkfl)  (DRILLING_)  (DRILLING_)       (ARC9)       (ARC9)       (ARC9)       (ARC9)       (ARC9)       (ARC9)       (ARC9)       (ARC9)       (ARC9)       (ARC9)       (ARC9)       (ARC9)       (ARC9)       (ARC9)       (ARC9)       (ARC9)       (ARC9)       (ARC9)       (ARC9)       (ARC9)       (ARC9)       (ARC9)       (ARC9)       (ARC9)       (ARC9)       (ARC9)       (ARC9)       (ARC9) 
#                         (RT)         (RT)         (RT)         (RM)         (RM)         (RM)         (RM)         (RM)         (RM)         (RM)         (RM)         (RM)         (RM)         (RM)         (RM)         (RM)         (RM)         (RM)         (RM)         (RM)         (RM)         (RM)         (RM)         (RM)         (RM)                      (RM)         (RM)         (RM)         (RM)         (RM) 
#                        (6in)        (6in)        (6in)        (6in)        (6in)        (6in)        (6in)        (6in)        (6in)        (6in)        (6in)        (6in)        (6in)        (6in)        (6in)        (6in)        (6in)        (6in)        (6in)        (6in)        (6in)        (6in)        (6in)        (6in)        (6in)        (6in)        (6in)        (6in)        (6in)      (1.2in)      (1.2in) 
~ASCII
# ...
       2779.16640   2583.76669     75.16846     54.11205     72.07530    111.86880      0.56958      0.55668      0.58847      0.57045      0.60598      0.58132      0.61817      0.58793      0.62408      0.59123      0.74549      0.64466      0.73562      0.64894      0.73267      0.65625      0.74883      0.66344      0.77965      0.66730      1.23874     41.00000   4609.99984      1.25559      1.00000      1.00000
       2779.31880   2583.85427     86.67753     56.30061     71.73686    111.66450      0.56319      0.55658      0.59061      0.57216      0.61283      0.58429      0.62571      0.59154      0.63123      0.59516      0.77106      0.64918      0.75125      0.65271      0.73948      0.66000      0.74859      0.66714      0.77291      0.67018      1.77179     41.00000   4605.00039      1.25419      1.00000      1.00000
       2779.47120   2583.94184     81.23423     57.61681     70.88542    111.15060      0.56101      0.55597      0.59117      0.57213      0.61474      0.58549      0.62767      0.59456      0.63305      0.59983      0.78323      0.65107      0.75924      0.65531      0.74575      0.66423      0.75385      0.67243      0.77531      0.67499      1.80899     41.00000   4609.99984      1.25552      -999.25      1.00000
       2779.62360   2584.02940     75.43037     60.55182     70.11660    110.68660      0.56258      0.55707      0.59173      0.57344      0.61404      0.58582      0.62653      0.59267      0.63262      0.59568      0.78351      0.65281      0.75997      0.65688      0.74694      0.66478      0.75591      0.67160      0.77870      0.67334      1.81385     41.00000   4611.99991      1.25602      1.00000      1.00000
       2779.77600   2584.11695     45.80187     56.83047     70.93238    111.17900      0.56927      0.56062      0.59595      0.57571      0.61710      0.58738      0.62906      0.59429      0.63422      0.59772      0.80276      0.66447      0.77587      0.66514      0.76265      0.67131      0.77366      0.67846      0.79776      0.68104      1.84456     41.00000   4613.00067      1.25625      1.00000      1.00000
       2779.92840   2584.20449     38.10249     61.00349     69.23628    110.15530      0.57205      0.56349      0.60172      0.57895      0.62450      0.59096      0.63671      0.59798      0.64182      0.60126      0.83578      0.67720      0.80165      0.67696      0.78642      0.68319      0.79931      0.69033      0.82431      0.69188      2.01122     41.00000   4603.99963      1.25376      1.00000      1.00000
       2780.08080   2584.29202     41.58250     56.80620     67.08198    108.85500      0.56171      0.57011      0.61485      0.58968      0.64936      0.60327      0.66343      0.61013      0.67088      0.61346      0.92285      0.69898      0.85556      0.69991      0.82038      0.70618      0.82560      0.71290      0.84508      0.71473      3.18620     40.00000   4599.99949      1.25262      1.00000      1.00000
       2780.23320   2584.37953     48.59551     57.61215     66.17540    108.30780      0.56444      0.57478      0.61705      0.59120      0.65146      0.60482      0.66364      0.61278      0.66701      0.61575      0.94128      0.70517      0.86502      0.70556      0.82374      0.71059      0.82732      0.71648      0.84819      0.71862      3.22648     40.00000   4603.99963      1.25366      1.00000      -999.25
       2780.38560   2584.46704     53.41278     55.42169     63.19821    106.51090      0.57227      0.57870      0.62275      0.59690      0.65511      0.60978      0.66719      0.61599      0.67235      0.61834      0.91082      0.70616      0.85234      0.70762      0.82198      0.71418      0.82911      0.72105      0.85054      0.72306      3.24578     40.00000   4595.99934      1.25144      1.00000      1.00000
       2780.53800   2584.55453     51.33545     54.88653     63.72642    106.82970      0.58810      0.58601      0.62843      0.60208      0.65447      0.61339      0.66457      0.61876      0.66875      0.62067      0.88827      0.71162      0.84159      0.71226      0.81823      0.71744      0.82950      0.72361      0.85618      0.72626      3.47093     40.00000   4601.00025      1.25278      1.00000      1.00000
       2780.69040   2584.64201     66.30654     54.35054     67.62289    109.18150      0.57687      0.58538      0.62587      0.60332      0.65690      0.61585      0.66875      0.62186      0.67469      0.62425      0.87475      0.70200      0.83233      0.70777      0.80900      0.71551      0.81718      0.72199      0.84139      0.72492      3.68300     41.00000   4588.00051      1.24918      1.00000      1.00000
       2780.84280   2584.72948     65.78472     52.76426     68.27392    109.57440      0.60126      0.59273      0.63522      0.60776      0.65670      0.61821      0.66490      0.62308      0.66842      0.62478      0.84959      0.70892      0.81887      0.71208      0.80267      0.71743      0.81343      0.72197      0.83939      0.72336      3.99772     41.00000   4586.00044      1.24860      1.00000      1.00000
       2780.99520   2584.81694     61.43297     52.10329     67.19543    108.92350      0.61449      0.59469      0.63974      0.60841      0.65660      0.61805      0.66390      0.62242      0.66699      0.62368      0.84391      0.71372      0.81581      0.71401      0.80016      0.71748      0.80945      0.72145      0.83375      0.72276      4.12134     41.00000   4582.00030      1.24747      1.00000      1.00000
       2781.14760   2584.90439     61.15166     51.09515     66.72405    108.63900      0.56312      0.58725      0.60846      0.60250      0.64135      0.61333      0.65681      0.61904      0.66367      0.62186      0.83199      0.68709      0.82168      0.69955      0.81329      0.71097      0.82149      0.71839      0.84618      0.72228      4.28841     41.00000   4576.00009      1.24579      1.00000      1.00000
       2781.30000   2584.99183     64.78497     55.82492     68.53188    109.73010      0.56298      0.58656      0.60603      0.60073      0.63750      0.61083      0.65163      0.61643      0.65643      0.61952      0.82524      0.68478      0.81842      0.69692      0.81289      0.70882      0.82107      0.71621      0.84309      0.71887      4.42828     41.00000   4578.00016      1.24630      1.00000      1.00000
       2781.45240   2585.07925     64.06903     57.32644     71.19546    111.33780      0.56450      0.58518      0.60454      0.59966      0.63458      0.60982      0.64851      0.61517      0.65288      0.61792      0.81002      0.68138      0.80839      0.69384      0.80699      0.70611      0.81738      0.71337      0.84074      0.71552      4.51661     41.00000   4571.00064      1.24434      1.00000      1.00000
       2781.60480   2585.16667     61.41076     61.12398     69.83077    110.51410      0.56840      0.58571      0.60595      0.59905      0.63439      0.60899      0.64765      0.61462      0.65153      0.61740      0.80697      0.68115      0.80313      0.69217      0.80001      0.70323      0.80881      0.70946      0.83015      0.71073      4.61438     41.00000   4571.99995      1.24458      1.00000      1.00000
       2781.75720   2585.25407     68.35561     61.52245     69.05587    110.04640      0.56537      0.58266      0.60444      0.59652      0.63435      0.60685      0.64822      0.61261      0.65185      0.61533      0.81938      0.68288      0.81455      0.69330      0.81031      0.70413      0.81725      0.70981      0.83587      0.70980      4.72105     41.00000   4571.00064      1.24426      1.00000      1.00000
       2781.90960   2585.34147     60.52510     62.81335     69.41091    110.26070      0.54635      0.57594      0.59609      0.59247      0.63336      0.60457      0.65044      0.61089      0.65606      0.61361      0.83746      0.67645      0.82189      0.68705      0.80970      0.69954      0.81251      0.70716      0.82824      0.70819      4.84521     41.00000   4574.00002      1.24503      1.00000      1.00000
       2782.06200   2585.42885     61.72888     64.10972     68.97159    109.99550      0.53758      0.57330      0.59153      0.59027      0.63149      0.60275      0.64903      0.60947      0.65440      0.61254      0.85863      0.67547      0.83280      0.68543      0.81209      0.69683      0.81213      0.70406      0.82981      0.70560      4.99451     41.00000   4576.99940      1.24582      1.00000      1.00000
