~VERSION INFORMATION 
VERS  .    2.0                                     :CWLS Log ASCII Standard - VERSION 2.0
WRAP  .    NO                                      :One Line per Depth step
PROD  .    Schlumberger Technology Corp.           :LAS Producer
PROG  .    Horizon LASWriter 8.2.104493.3100       :LAS Program name and version
SOURCE.    Run03-Drilling                          :Run&Pass Information
CREA  .    11/08/2019                              :LAS Creation date {MM/DD/YYYY}
#--------------------------------------------------
~WELL INFORMATION 
#MNEM           .UNIT                      DATA            :DESCRIPTION
#----            ------          --------------            -----------------------------
STRT            .m                   1489.86240            :START DEPTH
STOP            .m                   2794.86360            :STOP DEPTH
STEP            .m                       0.1524            :STEP
NULL            .                       -999.25            :NULL VALUE
COMP            .                      Woodside            :COMPANY
WELL            .                         PLA07            :WELL NAME
FLD             .                 Pluto/WA-34-L            :FIELD NAME
RIGN            .                    Ocean Apex            :Rig Name
RIGTYP          .                Semi-Submersible          :Rig Type
SON             .                     19AWA0002            :Service Order Number
SRVC            .                  Schlumberger            :SERVICE COMPANY
DATE            .                    06/13/2019            :LOG DATE(Composite Date for Composite LAP) (MM/DD/YYYY)
CLAB            .                       County:            :County Label
CNTY            .                                          :COUNTY
SLAB            .                        State:            :State/Province Label
STAT            .                Western Australia         :STATE or PROVINCE
PROV            .                Western Australia         :STATE or PROVINCE
CTRY            .                     Australia            :COUNTRY
CONT_REGION     .                   Australasia            :Continent Region
SECT            .                                          :Section
TOWN            .                                          :Township
RANG            .                                          :Range
API             .                                          :API NUMBER
UWI             .                     19AWA0002            :UNIQUE WELL ID
LUL             .                        Zone 1            :Logging Unit Location
LUN             .                       1010979            :Logging Unit Number
LOC             .                       WA-34-L            :FIELD LOCATION
FL1             .                N 7 797 035.31m           :Field Location Line 1
FL2             .                 E 304 456.39m            :Field Location Line 2
LATI            .deg                 -19.913224            :LATITUDE
LONG            .deg                  115.13193            :LONGITUDE
PDAT            .                         OTHER            :Local Permanent Datum
LMF             .                            DF            :Logging Measured From
APD             .m                        23.85            :Elevation of Depth Reference (LMF) Above Permanent Datum
EPD             .m                        -1.35            :Elevation of Permanent Datum (PDAT) above Mean Sea Level
EKB             .m                      -999.25            :Elevation of Kelly Bushing Above Permanent Datum
EDF             .m                        23.85            :Elevation of Drill Floor Above Permanent Datum
EGL             .m                      -830.05            :Elevation of Ground Level Above Permanent Datum
ECF             .m                      -999.25            :Elevation of Casing Flange above Permanent Datum
#--------------------------------------------------
~CURVE INFORMATION
#MNEM           .UNIT                  API CODE            :DESCRIPTION
#----            ------          --------------            -----------------------------
DEPT            .m                                         :                                                        Depth Index
TVD             .m                                         :(RT)    (DnMWorkflow)           (6in)                   True Vertical Depth
ROP             .m/h                                       :(RT)    (DRILLING_SURFACE)      (6in)                   Rate of Penetration
ROP5            .m/h                                       :(RT)    (DRILLING_SURFACE)      (6in)                   Rate of penetration averaged over the last 5 ft (1.5 m)
GR_ARC          .gAPI                                      :(RM)    (ARC9)                  (6in)                   Gamma Ray
GR_CAL          .gAPI                                      :(RM)    (ARC9)                  (6in)                   Calibrated Gamma Ray
A16H            .ohm.m                                     :(RM)    (ARC9)                  (6in)                   Attenuation Resistivity 16 inch Spacing at 2 MHz, Environmentally Corrected
A16L            .ohm.m                                     :(RM)    (ARC9)                  (6in)                   Attenuation Resistivity 16 inch Spacing at 400 KHz, Environmentally Corrected
A22H            .ohm.m                                     :(RM)    (ARC9)                  (6in)                   Attenuation Resistivity 22 inch Spacing at 2 MHz, Environmentally Corrected
A22L            .ohm.m                                     :(RM)    (ARC9)                  (6in)                   Attenuation Resistivity 22 inch Spacing at 400 KHz, Environmentally Corrected
A28H            .ohm.m                                     :(RM)    (ARC9)                  (6in)                   Attenuation Resistivity 28 inch Spacing at 2 MHz, Environmentally Corrected
A28L            .ohm.m                                     :(RM)    (ARC9)                  (6in)                   Attenuation Resistivity 28 inch Spacing at 400 KHz, Environmentally Corrected
A34H            .ohm.m                                     :(RM)    (ARC9)                  (6in)                   Attenuation Resistivity 34 inch Spacing at 2 MHz, Environmentally Corrected
A34L            .ohm.m                                     :(RM)    (ARC9)                  (6in)                   Attenuation Resistivity 34 inch Spacing at 400 KHz, Environmentally Corrected
A40H            .ohm.m                                     :(RM)    (ARC9)                  (6in)                   Attenuation Resistivity 40 inch Spacing at 2 MHz, Environmentally Corrected.
A40L            .ohm.m                                     :(RM)    (ARC9)                  (6in)                   Attenuation Resistivity 40 inch Spacing at 400 KHz, Environmentally Corrected
P16H            .ohm.m                                     :(RM)    (ARC9)                  (6in)                   Phase Shift Resistivity 16 inch Spacing at 2 MHz, Environmentally Corrected.
P16L            .ohm.m                                     :(RM)    (ARC9)                  (6in)                   Phase Shift Resistivity 16 inch Spacing at 400 KHz, Environmentally Corrected.
P22H            .ohm.m                                     :(RM)    (ARC9)                  (6in)                   Phase Shift Resistivity 22 inch Spacing at 2 MHz, Environmentally Corrected.
P22L            .ohm.m                                     :(RM)    (ARC9)                  (6in)                   Phase Shift Resistivity 22 inch Spacing at 400 KHz, Environmentally Corrected.
P28H            .ohm.m                                     :(RM)    (ARC9)                  (6in)                   Phase Shift Resistivity 28 inch Spacing at 2 MHz, Environmentally Corrected.
P28L            .ohm.m                                     :(RM)    (ARC9)                  (6in)                   Phase Shift Resistivity 28 inch Spacing at 400 KHz, Environmentally Corrected.
P34H            .ohm.m                                     :(RM)    (ARC9)                  (6in)                   Phase Shift Resistivity 34 inch Spacing at 2 MHz, Environmentally Corrected.
P34L            .ohm.m                                     :(RM)    (ARC9)                  (6in)                   Phase Shift Resistivity 34 inch Spacing at 400 KHz, Environmentally Corrected.
P40H            .ohm.m                                     :(RM)    (ARC9)                  (6in)                   Phase Shift Resistivity 40 inch Spacing at 2 MHz, Environmentally Corrected.
P40L            .ohm.m                                     :(RM)    (ARC9)                  (6in)                   Phase Shift Resistivity 40 inch Spacing at 400 KHz, Environmentally Corrected.
TAB_RES         .h                                         :        (ARC9)                  (6in)                   Resistivity Time After Bit
DHAT            .degC                                      :(RM)    (ARC9)                  (6in)                   Downhole Annulus Temperature
DHAP            .psi                                       :(RM)    (ARC9)                  (6in)                   Downhole Annulus Pressure
ECD             .g/cm3                                     :(RM)    (ARC9)                  (6in)                   Equivalent Circulating Density
TICKS_GR        .                                          :(RM)    (ARC9)                  (1.2in)                 Gamma Ray Tick Marks
TICKS_RES       .                                          :(RM)    (ARC9)                  (1.2in)                 Resistivity Tick Marks
#-------------------------------------------------------------
#            DEPT          TVD          ROP         ROP5       GR_ARC       GR_CAL         A16H         A16L         A22H         A22L         A28H         A28L         A34H         A34L         A40H         A40L         P16H         P16L         P22H         P22L         P28H         P28L         P34H         P34L         P40H         P40L      TAB_RES         DHAT         DHAP          ECD     TICKS_GR    TICKS_RES 
#                  (DnMWorkfl)  (DRILLING_)  (DRILLING_)       (ARC9)       (ARC9)       (ARC9)       (ARC9)       (ARC9)       (ARC9)       (ARC9)       (ARC9)       (ARC9)       (ARC9)       (ARC9)       (ARC9)       (ARC9)       (ARC9)       (ARC9)       (ARC9)       (ARC9)       (ARC9)       (ARC9)       (ARC9)       (ARC9)       (ARC9)       (ARC9)       (ARC9)       (ARC9)       (ARC9)       (ARC9)       (ARC9) 
#                         (RT)         (RT)         (RT)         (RM)         (RM)         (RM)         (RM)         (RM)         (RM)         (RM)         (RM)         (RM)         (RM)         (RM)         (RM)         (RM)         (RM)         (RM)         (RM)         (RM)         (RM)         (RM)         (RM)         (RM)         (RM)                      (RM)         (RM)         (RM)         (RM)         (RM) 
#                        (6in)        (6in)        (6in)        (6in)        (6in)        (6in)        (6in)        (6in)        (6in)        (6in)        (6in)        (6in)        (6in)        (6in)        (6in)        (6in)        (6in)        (6in)        (6in)        (6in)        (6in)        (6in)        (6in)        (6in)        (6in)        (6in)        (6in)        (6in)        (6in)      (1.2in)      (1.2in) 
~ASCII
# ...
       1748.94240   1748.93217     26.65098     28.09287     63.55334    101.96710      0.44037      0.46631      0.47043      0.47991      0.49458      0.48941      0.50513      0.49518      0.50563      0.49986      0.51301      0.48259      0.50387      0.49102      0.49870      0.50084      0.49336      0.50771      0.48419      0.51041      0.61749     29.00000   2965.48365      1.19379      -999.25      -999.25
       1749.09480   1749.08456     16.47228     26.40659     62.10912    101.05820      0.45968      0.47122      0.46801      0.48046      0.48271      0.48845      0.48915      0.49536      0.48071      0.50166      0.45792      0.46168      0.44755      0.46697      0.44306      0.47081      0.44080      0.47358      0.43516      0.47663      0.60750     29.00000   2965.99998      1.19384      -999.25      -999.25
       1749.24720   1749.23696     16.50562     24.65656     61.37973    100.59920      0.45724      0.47145      0.47179      0.48148      0.48121      0.48935      0.48160      0.49339      0.47709      0.49479      0.46597      0.46377      0.46178      0.47045      0.45651      0.47723      0.44952      0.47640      0.44194      0.46795      0.60374     29.00000   2965.99998      1.19376      1.00000      -999.25
       1749.39960   1749.38936     12.27064     20.63051     62.07995    101.03980      0.45975      0.47072      0.47133      0.48068      0.48229      0.48763      0.48343      0.49138      0.47492      0.49382      0.48457      0.47086      0.47826      0.47644      0.47631      0.48112      0.46781      0.48014      0.44892      0.47439      0.59498     29.00000   2966.99929      1.19403      -999.25      1.00000
       1749.55200   1749.54175     10.40190     18.69680     63.31993    101.82020      0.45471      0.47702      0.47966      0.49139      0.49587      0.49960      0.49976      0.50329      0.49861      0.50631      0.47407      0.47902      0.47687      0.49270      0.47452      0.49959      0.47081      0.50380      0.47087      0.51226      0.58443     29.00000   2968.23211      1.19448      -999.25      -999.25
       1749.70440   1749.69415     18.68414     18.36217     66.12083    103.58280      0.45471      0.47702      0.47966      0.49139      0.49587      0.49960      0.49976      0.50329      0.49861      0.50631      0.47407      0.47902      0.47687      0.49270      0.47452      0.49959      0.47081      0.50380      0.47087      0.51226      0.58096     29.00000   2970.64554      1.19534      -999.25      -999.25
       1749.85680   1749.84655     31.09984     18.87786     64.54532    102.59130      0.51081      0.49257      0.52572      0.50184      0.52457      0.51013      0.51783      0.51355      0.51816      0.51407      0.45056      0.50874      0.48108      0.50150      0.49097      0.50014      0.48722      0.50723      0.49254      0.51762      0.57665     29.00000   2972.00019      1.19583      -999.25      -999.25
       1750.00920   1749.99895     27.54659     19.13668     57.71811     98.29488      0.56673      0.49501      0.54784      0.50087      0.53543      0.50663      0.52636      0.50922      0.51748      0.50956      0.51889      0.51634      0.49934      0.51188      0.48345      0.50819      0.47689      0.50550      0.47641      0.50327      0.57263     29.00000   2970.00012      1.19486      1.00000      -999.25
       1750.16160   1750.15134     30.70879     19.30783     49.70928     93.25483      0.58390      0.49860      0.55771      0.50328      0.53840      0.50836      0.53074      0.51279      0.53144      0.51589      0.53529      0.57240      0.50889      0.53473      0.48989      0.51567      0.48162      0.51868      0.47809      0.52995      0.57027     29.00000   2970.97478      1.19516      -999.25      1.00000
       1750.31400   1750.30374     26.45583     18.53048     43.84488     89.56429      0.60302      0.49848      0.56755      0.50339      0.55049      0.50955      0.54061      0.51261      0.52710      0.51152      0.62681      0.56795      0.58245      0.55442      0.56540      0.55043      0.56629      0.55045      0.56117      0.54606      0.56415     29.00000   2972.00019      1.19549      -999.25      -999.25
       1750.46640   1750.45614     15.08989     17.37862     42.66325     88.82068      0.60309      0.49839      0.57579      0.50550      0.56492      0.51204      0.55616      0.51287      0.53946      0.50868      0.56108      0.54765      0.54397      0.53806      0.53917      0.53756      0.54002      0.54048      0.53457      0.53839      0.55263     29.00000   2970.54256      1.19478      -999.25      -999.25
       1750.61880   1750.60853     17.21668     18.71251     42.26937     88.57281      0.57223      0.49427      0.54176      0.49882      0.53009      0.50720      0.52617      0.51223      0.51779      0.51093      0.54946      0.53256      0.50329      0.51401      0.48040      0.50303      0.47661      0.49933      0.47237      0.49692      0.54916     29.00000   2969.00081      1.19403      -999.25      -999.25
       1750.77120   1750.76093     30.73889     19.25622     40.82516     87.66395      0.57223      0.49427      0.54176      0.49882      0.53009      0.50720      0.52617      0.51223      0.51779      0.51093      0.54946      0.53256      0.50329      0.51401      0.48040      0.50303      0.47661      0.49933      0.47237      0.49692      0.54500     29.00000   2970.51210      1.19456      -999.25      -999.25
       1750.92360   1750.91333     28.14210     22.59995     39.46848     86.81017      0.54670      0.48838      0.52811      0.49723      0.52871      0.50462      0.53183      0.50914      0.52291      0.51203      0.52314      0.50523      0.48961      0.50127      0.47027      0.50023      0.46844      0.50015      0.47221      0.49830      0.54013     29.00000   2972.00019      1.19508      -999.25      1.00000
       1751.07600   1751.06572     19.23587     23.20118     42.05056     88.43510      0.53673      0.48778      0.52401      0.49928      0.52586      0.50858      0.52861      0.51172      0.52101      0.51235      0.53056      0.49506      0.51247      0.50728      0.50398      0.50950      0.50107      0.50778      0.49494      0.51161      0.53082     29.00000   2972.58034      1.19518      -999.25      -999.25
       1751.22840   1751.21812     18.81910     22.63922     48.30883     92.37351      0.53673      0.48778      0.52401      0.49928      0.52586      0.50858      0.52861      0.51172      0.52101      0.51235      0.53056      0.49506      0.51247      0.50728      0.50398      0.50950      0.50107      0.50778      0.49494      0.51161      0.52583     29.00000   2972.99950      1.19526      -999.25      -999.25
       1751.38080   1751.37052     28.43910     22.88176     49.97187     93.42008      0.50633      0.48914      0.50304      0.49302      0.50648      0.49773      0.50461      0.50081      0.49309      0.50088      0.57724      0.52707      0.53465      0.51794      0.51812      0.51552      0.51451      0.51516      0.50153      0.51089      0.52235     29.00000   2973.39691      1.19530      -999.25      -999.25
       1751.53320   1751.52291     25.31968     22.31660     44.50135     89.97742      0.49593      0.48228      0.49855      0.48945      0.50599      0.49712      0.50277      0.50452      0.48674      0.50956      0.51205      0.48771      0.48805      0.49219      0.48100      0.49474      0.48003      0.49628      0.46920      0.49865      0.51624     29.00000   2973.75515      1.19534      -999.25      1.00000
       1751.68560   1751.67531     21.16128     21.44020     40.14682     87.23706      0.48988      0.48334      0.49368      0.49149      0.50264      0.49826      0.50649      0.50277      0.49964      0.50486      0.45777      0.47188      0.45444      0.47795      0.45261      0.48508      0.45077      0.48653      0.44740      0.48116      0.51277     29.00000   2974.00026      1.19537      -999.25      -999.25
       1751.83800   1751.82771     22.54356     21.68180     43.80112     89.53676      0.45898      0.47898      0.48110      0.48766      0.49941      0.49521      0.50842      0.49882      0.50917      0.49885      0.50050      0.48734      0.49657      0.49403      0.49242      0.50019      0.49201      0.49913      0.49576      0.49144      0.50833     29.00000   2974.97347      1.19563      -999.25      -999.25
