~VERSION INFORMATION
VERS.    2.0:   CWLS LOG ASCII STANDARD - VERSION 2.0
WRAP.     NO:   ONE LINE PER STEP
~WELL INFORMATION BLOCK
#MNEM.UNIT      DATA                  DESCRIPTION OF MNEMONIC
#----   --------             ---------------
STRT.m  260.00                   :START DEPTH
STOP.m  5139.00                   :STOP DEPTH
STEP.m  0.50                   :STEP VALUE
NULL.   0                   :NULL VALUE
COMP.   SHELL                   :COMPANY NAME
WELL.   PRELUDE P1 ST1                   :WELL NAME
FLD .   PRELUDE                   :FIELD NAME
LOC .   BROWSE BASIN                   :LOCATION
PROV.   NORTH WEST SHELF, W.A.                   :PROVINCE
SRVC.   Geoservices                   :SERVICE COMPANY NAME
DATE.   01-10-2015 15:41:26                   :DATE
UWI .                      :UNIQUE WELL IDENTIFIER
~CURVE INFORMATION
#MNEM.UNIT       API CODE        CURVE DESCRIPTION
#----   -------- ------------------
Tot Depth .m        :Tot Depth
ROP m/hr .m/h        :ROP m/hr
WOH .klbs        :WOH
WOB .klbs        :WOB
RPM .rpm        :RPM
SPP .psi        :SPP
TORQUE .lb*ft        :TORQUE
FLWpmps .gpm        :FLWpmps
D Exp .....        :D Exp
TVD Depth .m        :TVD Depth
#
#-----------------------------------------------------------
# Tot Depth (m)   ROP m/hr (m/h)   WOH (klbs)   WOB (klbs)   RPM (rpm)   SPP (psi)   TORQUE (lb*ft)   FLWpmps (gpm)   D Exp (....)   TVD Depth (m)
#-----------------------------------------------------------
~A
# ...
   1245.50      29.28      389.9        7.1        172       2110    3312.46    1130.58       0.39    1245.46 
   1246.00      35.75      389.4        7.6        173       2114    3001.37    1130.79       0.36    1245.96 
   1246.50      35.72      390.9        6.1        173       2120    3181.43    1136.00       0.35    1246.46 
   1247.00      29.86      392.6        4.4        174       2125    2936.37    1136.00       0.35    1246.96 
   1247.50      36.44      392.5        4.5        173       2127    3095.62    1136.00       0.33    1247.46 
   1248.00      27.75      390.7        6.3        174       2128    2889.40    1136.00       0.39    1247.96 
   1248.50      30.36      390.4        6.6        174       2134    2860.01    1136.00       0.38    1248.46 
   1249.00      33.87      390.4        6.6        174       2134    2780.14    1136.00       0.36    1248.96 
   1249.50      28.58      392.3        4.7        173       2149    3061.89    1136.00       0.37    1249.46 
   1250.00      34.24      393.0        3.9        173       2155    3199.02    1136.00       0.33    1249.96 
   1250.50      33.87      392.3        4.6        173       2168    3422.31    1136.00       0.34    1250.46 
   1251.00      52.79      392.2        4.8        174       2160    2743.20    1136.00       0.28    1250.96 
   1251.50      22.78      389.8        7.2        174       2163    2911.56    1136.00       0.43    1251.46 
   1252.00      28.04      389.8        7.2        170       2190    4966.79    1136.00       0.39    1251.96 
   1252.50      31.07      388.8        8.2        166       2370    9947.99    1128.00       0.38    1252.46 
   1253.00      28.22      391.7        5.3        168       2239    6900.34    1120.52       0.37    1252.96 
   1253.50      30.99      392.5        4.5        167       2293    7412.16    1124.00       0.35    1253.46 
   1254.00      37.21      391.8        5.2        170       2238    5620.92    1124.00       0.33    1253.96 
   1254.50      27.32      392.1        4.9        168       2235    6675.35    1130.00       0.37    1254.46 
   1255.00      26.11      391.2        5.8        170       2212    5022.01    1120.55       0.39    1254.96 
   1255.50      29.65      392.0        5.0        167       2251    6537.42    1119.24       0.36    1255.46 
   1256.00      32.04      393.2        3.8        170       2247    6298.07    1130.00       0.33    1255.96 
   1256.50      24.46      392.8        4.2        167       2295    8430.83    1130.00       0.38    1256.46 
   1257.00      30.87      390.5        6.5        170       2246    5504.70    1130.00       0.37    1256.96 
   1257.50      32.04      390.5        6.5        174       2184    2559.12    1130.00       0.37    1257.46 
   1258.00      32.26      392.1        4.9        173       2192    2847.01    1130.00       0.35    1257.96 
   1258.50      26.90      393.9        3.1        172       2231    3760.61    1130.00       0.35    1258.46 
   1259.00      32.59      393.0        4.0        173       2201    2972.16    1130.00       0.34    1258.96 
   1259.50      27.61      392.1        4.9        173       2194    2829.25    1130.00       0.37    1259.46 
   1260.00      31.32      392.6        4.3        173       2199    2927.78    1130.00       0.35    1259.96 
   1260.50      31.49      392.3        4.7        174       2193    2607.81    1130.00       0.35    1260.46 
   1261.00      32.57      394.0        3.0        173       2193    2602.13    1130.00       0.32    1260.96 
   1261.50      31.01      394.3        2.6        173       2205    3108.39    1130.00       0.32    1261.46 
   1262.00      31.00      392.6        4.4        173       2209    3056.45    1130.00       0.35    1261.96 
   1262.50      26.71      391.8        5.2        173       2218    3159.45    1130.00       0.38    1262.46 
   1263.00      40.48      391.6        5.4        173       2206    3111.57    1130.00       0.32    1262.96 
   1263.50      23.07      392.1        4.9        173       2204    3204.56    1130.00       0.40    1263.46 
   1264.00      29.26      392.1        4.9        173       2204    3150.85    1130.00       0.36    1263.96 
   1264.50      27.48      392.0        5.0        173       2200    2892.27    1130.00       0.37    1264.46 
   1265.00      28.28      390.9        6.1        171       2021    3230.30    1118.94       0.38    1264.96 
   1265.50      33.07      389.7        7.3        164       1985    3634.76    1057.00       0.36    1265.46 
   1266.00      21.52      389.7        7.3        164       1976    3681.07    1057.00       0.43    1265.96 
   1266.50      32.12      389.4        7.6        164       1946    3445.38    1055.55       0.37    1266.46 
   1267.00      30.66      389.2        7.8        163       1958    4163.91    1050.00       0.38    1266.96 
   1267.50      27.63      388.1       10.8        166       1902    3363.64    1091.94       0.42    1267.46 
   1268.00      33.39      387.3       12.4        166       1888    4013.28    1112.00       0.40    1267.96 
   1268.50      29.84      387.0       12.7        165       1908    4511.96    1112.00       0.42    1268.46 
   1269.00      29.03      387.3       12.5        166       1908    4364.52    1112.00       0.42    1268.96 
   1269.50      37.22      387.2       12.6        167       1896    3876.12    1112.00       0.38    1269.46 
   1270.00      26.89      387.2       12.5        166       1901    4289.23    1112.00       0.44    1269.96 
   1270.50      43.70      387.1       12.6        166       1812    4215.90    1112.00       0.35    1270.46 
   1271.00      26.08      386.9       12.8        166       1822    4331.19    1112.00       0.45    1270.96 
   1271.50      30.73      386.5       13.3        166       1792    4215.80    1112.00       0.42    1271.46 
   1272.00      39.53      386.6       13.1        166       1762    4175.78    1112.00       0.38    1271.96 
   1272.50      29.25      386.7       13.1        166       1769    4400.45    1112.00       0.43    1272.46 
   1273.00      44.40      387.1       12.7        166       1755    4106.04    1112.00       0.35    1272.96 
   1273.50      36.42      387.6       12.2        163       1745    4967.24    1105.57       0.38    1273.46 
   1274.00      34.50      388.2       11.5        157       1974   11001.49    1075.00       0.38    1273.96 
   1274.50      42.50      387.6       12.1        160       1817    6478.23    1075.00       0.35    1274.46 
   1275.00      24.81      387.5       12.2        158       1827    7857.69    1075.00       0.44    1274.96 
   1275.50      31.50      387.3       12.4        160       1773    6077.16    1075.00       0.40    1275.46 
   1276.00      28.03      387.2       12.5        160       1792    6240.97    1075.00       0.42    1275.96 
   1276.50      29.75      386.6       13.2        161       1773    5386.78    1075.00       0.42    1276.46 
   1277.00      38.76      386.1       13.7        161       1782    6133.53    1075.00       0.38    1276.96 
   1277.50      31.74      386.0       13.8        159       1788    6445.27    1075.00       0.41    1277.46 
   1278.00      25.55      386.6       13.1        170       1905   11168.14    1075.00       0.46    1277.96 
   1278.50      43.20      388.9       10.8        181       1784    8707.79    1075.00       0.36    1278.46 
   1279.00      32.04      389.0       10.8        182       1786    6742.47    1075.00       0.41    1278.96 
   1279.50      38.06      389.2       10.5        184       1732    4281.19    1075.00       0.38    1279.46 
   1280.00      32.12      389.0       10.7        185       1742    4066.09    1075.00       0.41    1279.96 
   1280.50      31.24      388.9       10.9        183       1793    5608.18    1075.00       0.42    1280.46 
   1281.00      40.49      389.4       10.3        185       1744    4176.50    1075.00       0.37    1280.96 
   1281.50      33.82      388.5       11.3        185       1734    3806.08    1075.00       0.41    1281.46 
