~VERSION INFORMATION
VERS.    2.0:   CWLS LOG ASCII STANDARD - VERSION 2.0
WRAP.     NO:   ONE LINE PER STEP
~WELL INFORMATION BLOCK
#MNEM.UNIT      DATA                  DESCRIPTION OF MNEMONIC
#----   --------             ---------------
STRT.m  260.00                   :START DEPTH
STOP.m  5139.00                   :STOP DEPTH
STEP.m  0.50                   :STEP VALUE
NULL.   0                   :NULL VALUE
COMP.   SHELL                   :COMPANY NAME
WELL.   PRELUDE P1 ST1                   :WELL NAME
FLD .   PRELUDE                   :FIELD NAME
LOC .   BROWSE BASIN                   :LOCATION
PROV.   NORTH WEST SHELF, W.A.                   :PROVINCE
SRVC.   Geoservices                   :SERVICE COMPANY NAME
DATE.   01-10-2015 15:41:26                   :DATE
UWI .                      :UNIQUE WELL IDENTIFIER
~CURVE INFORMATION
#MNEM.UNIT       API CODE        CURVE DESCRIPTION
#----   -------- ------------------
Tot Depth .m        :Tot Depth
ROP m/hr .m/h        :ROP m/hr
WOH .klbs        :WOH
WOB .klbs        :WOB
RPM .rpm        :RPM
SPP .psi        :SPP
TORQUE .lb*ft        :TORQUE
FLWpmps .gpm        :FLWpmps
D Exp .....        :D Exp
TVD Depth .m        :TVD Depth
#
#-----------------------------------------------------------
# Tot Depth (m)   ROP m/hr (m/h)   WOH (klbs)   WOB (klbs)   RPM (rpm)   SPP (psi)   TORQUE (lb*ft)   FLWpmps (gpm)   D Exp (....)   TVD Depth (m)
#-----------------------------------------------------------
~A
# ...
   3508.50      44.25      399.1        2.4        158       3355   17267.43    1021.99       0.47    3444.05 
   3509.00      36.45      397.9        3.6        157       3356   17676.36    1021.98       0.53    3444.52 
   3509.50      35.75      399.1        2.3        157       3352   17521.23    1022.00       0.50    3445.00 
   3510.00      40.48      397.7        3.8        157       3353   17474.18    1021.92       0.52    3445.48 
   3510.50      34.96      399.9        1.7        158       3350   17297.58    1021.98       0.47    3445.96 
   3511.00      37.15      398.7        3.0        159       3316   16601.13    1016.80       0.51    3446.44 
   3511.50      30.02      399.4        2.2        158       3271   17373.10    1007.27       0.51    3446.92 
   3512.00      39.14      400.2        1.7        157       3273   17490.93    1007.23       0.46    3447.40 
   3512.50      35.01      399.6        2.1        158       3275   17517.44    1007.13       0.49    3447.88 
   3513.00      42.25      400.5        1.5        157       3273   17593.27    1007.16       0.44    3448.36 
   3513.50      37.23      398.3        3.1        158       3272   17512.93    1007.28       0.52    3448.84 
   3514.00      34.46      398.8        2.8        156       3277   17777.37    1007.09       0.51    3449.32 
   3514.50      38.82      397.9        3.6        155       3275   18077.18    1007.11       0.52    3449.79 
   3515.00      38.00      401.3        0.7        157       3276   17914.20    1007.07       0.40    3450.27 
   3515.50      34.43      400.1        1.5        156       3276   17929.86    1007.09       0.46    3450.75 
   3516.00      22.85      415.6        4.8        168       3291   15565.05    1007.78       0.63    3451.23 
   3516.50      23.88      413.4        7.0        164       3294   17437.88    1007.60       0.67    3451.71 
   3517.00      26.94      413.3        7.1        157       3294   19179.72    1007.58       0.64    3452.19 
   3517.50      31.05      415.0        5.4        162       3294   18085.81    1007.61       0.60    3452.66 
   3518.00      35.07      412.1        8.3        161       3297   18490.09    1007.59       0.63    3453.14 
   3518.50      39.55      413.9        6.5        161       3292   18577.34    1007.64       0.58    3453.62 
   3519.00      34.48      410.9        9.5        161       3294   18569.18    1007.74       0.65    3454.09 
   3519.50      34.93      408.7        8.7        160       3291   19123.55    1007.73       0.64    3454.57 
   3520.00      37.14      411.7        8.7        161       3293   18715.38    1007.67       0.63    3455.05 
   3520.50      34.42      411.3        9.1        162       3290   18270.19    1007.70       0.65    3455.53 
   3521.00      34.96      413.3        7.1        163       3286   18037.58    1007.89       0.61    3456.00 
   3521.50      35.75      412.2        8.2        162       3287   18394.80    1007.84       0.63    3456.48 
   3522.00      36.45      411.2        9.2        161       3287   18492.41    1008.01       0.64    3456.96 
   3522.50      32.59      412.1        8.3        161       3283   18375.48    1007.97       0.64    3457.43 
   3523.00      35.05      411.8        8.6        162       3282   18460.48    1007.98       0.64    3457.91 
   3523.50      31.33      414.5        5.9        163       3285   17682.31    1008.12       0.61    3458.39 
   3524.00      31.97      411.2        9.2        163       3283   17499.34    1008.02       0.66    3458.87 
   3524.50      34.79      413.2        7.2        164       3282   17348.01    1007.98       0.62    3459.34 
   3525.00       9.37      410.7        7.6        158       3283   10411.63    1006.29       0.80    3459.82 
   3525.50      21.60      414.9        5.5        145       3297   12449.62    1006.43       0.63    3460.30 
   3526.00      24.46      415.5        4.9        140       3294   14436.77    1006.53       0.60    3460.77 
   3526.50      17.36      415.9        4.5        138       3298   15488.68    1006.64       0.63    3461.25 
   3527.00      29.58      415.9        4.5        137       3297   15910.60    1006.64       0.56    3461.73 
   3527.50      27.50      416.4        4.0        136       3296   16310.22    1006.66       0.56    3462.20 
   3528.00      31.42      415.5        5.0        132       3300   17663.25    1006.69       0.56    3462.68 
   3528.50      26.18      412.7        7.7        135       3300   16864.13    1006.71       0.64    3463.16 
   3529.00      29.87      414.6        5.8        136       3297   16737.37    1006.65       0.59    3463.64 
   3529.50      29.39      413.9        6.5        133       3297   17489.86    1006.56       0.60    3464.11 
   3530.00      33.79      413.2        7.2        132       3298   18017.75    1006.51       0.59    3464.59 
   3530.50      33.01      415.0        5.4        133       3297   18598.96    1006.67       0.56    3465.07 
   3531.00      32.46      412.9        7.5        134       3295   18479.32    1006.68       0.60    3465.54 
   3531.50      33.35      413.6        6.8        158       3296   18632.24    1006.79       0.61    3466.02 
   3532.00       9.37      410.7        7.6        158       3283   10411.63    1006.29       0.80    3466.50 
   3532.50      21.60      414.9        5.5        145       3297   12449.62    1006.43       0.63    3466.97 
   3533.00      24.46      415.5        4.9        140       3294   14436.77    1006.53       0.60    3467.45 
   3533.50      17.36      415.9        4.5        138       3298   15488.68    1006.64       0.63    3467.93 
   3534.00      29.58      415.9        4.5        137       3297   15910.60    1006.64       0.56    3468.41 
   3534.50      27.50      416.4        4.0        136       3296   16310.22    1006.66       0.56    3468.88 
   3535.00      31.42      415.5        5.0        132       3300   17663.25    1006.69       0.56    3469.36 
   3535.50      26.18      412.7        7.7        135       3300   16864.13    1006.71       0.64    3469.84 
   3536.00      29.87      414.6        5.8        136       3297   16737.37    1006.65       0.59    3470.31 
   3536.50      29.39      413.9        6.5        133       3297   17489.86    1006.56       0.60    3470.79 
   3537.00      33.79      413.2        7.2        132       3298   18017.75    1006.51       0.59    3471.27 
   3537.50      33.01      415.0        5.4        133       3297   18598.96    1006.67       0.56    3471.74 
   3538.00      32.46      412.9        7.5        134       3295   18479.32    1006.68       0.60    3472.22 
   3538.50      32.46      412.9        7.5        134       3295   18479.32    1006.68       0.60    3472.70 
   3539.00       9.37      410.7        7.6        158       3283   10411.63    1006.29       0.80    3473.18 
   3539.50      21.60      414.9        5.5        145       3297   12449.62    1006.43       0.63    3473.65 
   3540.00      24.46      415.5        4.9        140       3294   14436.77    1006.53       0.60    3474.13 
   3540.50      17.36      415.9        4.5        138       3298   15488.68    1006.64       0.63    3474.61 
   3541.00      29.58      415.9        4.5        137       3297   15910.60    1006.64       0.56    3475.08 
   3541.50      27.50      416.4        4.0        136       3296   16310.22    1006.66       0.56    3475.56 
   3542.00      31.42      415.5        5.0        132       3300   17663.25    1006.69       0.56    3476.04 
   3542.50      26.18      412.7        7.7        135       3300   16864.13    1006.71       0.64    3476.51 
   3543.00      29.87      414.6        5.8        136       3297   16737.37    1006.65       0.59    3476.99 
   3543.50      29.39      413.9        6.5        133       3297   17489.86    1006.56       0.60    3477.47 
   3544.00      33.79      413.2        7.2        132       3298   18017.75    1006.51       0.59    3477.94 
   3544.50      33.01      415.0        5.4        133       3297   18598.96    1006.67       0.56    3478.42 
