~VERSION INFORMATION
VERS.    2.0:   CWLS LOG ASCII STANDARD - VERSION 2.0
WRAP.     NO:   ONE LINE PER STEP
~WELL INFORMATION BLOCK
#MNEM.UNIT      DATA                  DESCRIPTION OF MNEMONIC
#----   --------             ---------------
STRT.m  260.00                   :START DEPTH
STOP.m  5139.00                   :STOP DEPTH
STEP.m  0.50                   :STEP VALUE
NULL.   0                   :NULL VALUE
COMP.   SHELL                   :COMPANY NAME
WELL.   PRELUDE P1 ST1                   :WELL NAME
FLD .   PRELUDE                   :FIELD NAME
LOC .   BROWSE BASIN                   :LOCATION
PROV.   NORTH WEST SHELF, W.A.                   :PROVINCE
SRVC.   Geoservices                   :SERVICE COMPANY NAME
DATE.   01-10-2015 15:41:26                   :DATE
UWI .                      :UNIQUE WELL IDENTIFIER
~CURVE INFORMATION
#MNEM.UNIT       API CODE        CURVE DESCRIPTION
#----   -------- ------------------
Tot Depth .m        :Tot Depth
ROP m/hr .m/h        :ROP m/hr
WOH .klbs        :WOH
WOB .klbs        :WOB
RPM .rpm        :RPM
SPP .psi        :SPP
TORQUE .lb*ft        :TORQUE
FLWpmps .gpm        :FLWpmps
D Exp .....        :D Exp
TVD Depth .m        :TVD Depth
#
#-----------------------------------------------------------
# Tot Depth (m)   ROP m/hr (m/h)   WOH (klbs)   WOB (klbs)   RPM (rpm)   SPP (psi)   TORQUE (lb*ft)   FLWpmps (gpm)   D Exp (....)   TVD Depth (m)
#-----------------------------------------------------------
~A
# ...
   4457.50       4.16      407.4       15.6         84       1618   16237.94     446.86       1.26    4044.65 
   4458.00       5.81      408.5       14.4         82       1389   17281.60     406.63       1.03    4044.69 
   4458.50       3.76      411.9       11.0         83       1385   16247.04     406.81       1.17    4044.74 
   4459.00       9.27      411.0       11.9         82       1381   17416.41     406.85       1.01    4044.78 
   4459.50       5.22      410.3       13.5         83       1379   16751.06     407.04       1.17    4044.82 
   4460.00       4.28      409.8       14.6         84       1376   15959.49     407.25       1.23    4044.86 
   4460.50       8.60      409.3       15.1         84       1373   16042.25     407.49       1.09    4044.91 
   4461.00       4.61      409.2       15.2         83       1368   16076.93     407.65       1.23    4044.95 
   4461.50       4.16      408.5       15.9         83       1365   16611.61     407.89       1.26    4044.99 
   4462.00       4.87      408.7       15.7         82       1363   17125.53     407.85       1.03    4045.04 
   4462.50       5.47      406.9       18.8         82       1362   17286.61     408.05       1.26    4045.08 
   4463.00       3.45      408.6       18.2         84       1450   15912.16     420.89       1.36    4045.12 
   4463.50       4.61      408.1       18.6         84       1482   14856.51     416.84       1.30    4045.17 
   4464.00       8.45      410.3       16.4         79       1356   16384.87     408.16       1.06    4045.21 
   4464.50       5.90      411.8       15.0         79       1353   16594.40     408.20       1.16    4045.25 
   4465.00       6.48      412.0       14.7         81       1355   16241.38     408.12       1.00    4045.29 
   4465.50       6.44      411.0       15.8         80       1355   16534.09     408.10       1.16    4045.34 
   4466.00       5.54      409.0       17.8         81       1355   16336.48     408.05       1.23    4045.38 
   4466.50       4.10      410.7       16.1         80       1354   16699.07     408.01       1.27    4045.42 
   4467.00       7.54      409.0       17.8         79       1356   18771.30     407.92       1.16    4045.47 
   4467.50       8.50      407.6       19.1         83       1363   18255.96     407.63       1.17    4045.51 
   4468.00       8.98      407.8       19.0         84       1365   17290.39     407.51       1.16    4045.55 
   4468.50       8.57      405.8       21.0         83       1367   17986.05     407.45       1.20    4045.60 
   4469.00       9.50      406.3       20.5         84       1368   17323.70     407.38       1.17    4045.64 
   4469.50       8.62      405.5       21.3         82       1370   18678.64     407.30       1.13    4045.68 
   4470.00       7.54      407.5       19.3         84       1367   17247.11     407.41       1.20    4045.73 
   4470.50       4.66      410.9       15.8         84       1368   17235.32     407.34       1.24    4045.77 
   4471.00       6.89      410.7       16.1         86       1369   15441.21     407.40       1.17    4045.81 
   4471.50       7.02      410.4       16.3         83       1368   16938.39     407.43       1.16    4045.85 
   4472.00       4.25      409.4       17.7         83       1406   16461.03     412.23       1.30    4045.90 
   4472.50       3.79      405.2       23.7         83       1464   14508.09     423.56       1.44    4045.94 
   4473.00       6.86      405.6       23.3         82       1393   16133.76     410.99       1.28    4045.98 
   4473.50       5.59      407.4       21.4         81       1393   16974.53     411.03       1.30    4046.03 
   4474.00      10.21      404.7       21.5         81       1393   17265.96     411.01       1.16    4046.07 
   4474.50      12.72      403.4       16.9         80       1370   17907.94     406.77       1.03    4046.11 
   4475.00       4.44      405.2       15.1         79       1366   18368.78     406.82       1.22    4046.16 
   4475.50       7.42      404.2       16.1         80       1366   17839.59     406.86       1.14    4046.20 
   4476.00      10.33      406.7       13.6         79       1365   18243.11     406.93       1.02    4046.24 
   4476.50       7.93      405.8       14.5         79       1365   18537.30     406.84       1.09    4046.28 
   4477.00       8.80      404.2       16.8         80       1365   18417.14     406.85       1.11    4046.33 
   4477.50       9.04      399.3       20.9         79       1366   19591.08     406.75       1.17    4046.37 
   4478.00      11.09      408.0       14.7         80       1366   19079.15     406.72       1.02    4046.41 
   4478.50      10.16      403.5       16.7         82       1367   18850.04     406.73       1.08    4046.46 
   4479.00      10.75      403.0       17.3         83       1368   18297.47     406.58       1.08    4046.50 
   4479.50       9.10      403.3       16.9         83       1371   18178.14     406.51       1.11    4046.54 
   4480.00      11.69      403.2       17.1         83       1371   18266.85     406.46       1.06    4046.58 
   4480.50       8.73      402.6       17.7         83       1373   18407.54     406.49       1.14    4046.63 
   4481.00      10.57      402.4       17.9         82       1374   18626.42     406.38       1.10    4046.67 
   4481.50      10.00      402.0       18.3         83       1376   18087.33     406.29       1.12    4046.71 
   4482.00       9.95      401.7       18.6         82       1378   18951.24     406.16       1.12    4046.76 
   4482.50      11.04      400.8       19.4         83       1380   18567.47     405.97       1.11    4046.80 
   4483.00      10.21      400.3       20.0         83       1385   17958.01     405.76       1.14    4046.84 
   4483.50       9.08      402.0       18.3         84       1389   17684.64     405.59       1.14    4046.88 
   4484.00      10.70      401.6       18.7         84       1391   17725.19     405.41       1.11    4046.93 
   4484.50      12.48      401.7       18.6         83       1393   18193.68     405.25       1.07    4046.97 
   4485.00      11.70      403.7       16.5         84       1394   17719.16     405.25       1.05    4047.01 
   4485.50      10.53      404.6       15.7         84       1396   17543.85     405.16       1.06    4047.06 
   4486.00      10.44      405.0       15.3         84       1398   17102.24     405.08       1.06    4047.10 
   4486.50      13.08      405.2       15.0         84       1400   17223.82     404.96       1.01    4047.14 
   4487.00      14.86      405.2       15.1         84       1401   16974.67     404.92       0.98    4047.18 
   4487.50      11.49      405.7       14.5         84       1402   17059.10     404.85       1.02    4047.23 
   4488.00      11.32      405.3       15.0         84       1439   16998.25     415.52       1.04    4047.27 
   4488.50       8.81      405.1       15.2         85       1574   16378.70     432.10       1.10    4047.31 
   4489.00       3.29      404.9       15.3         86       1548   15187.47     428.98       1.30    4047.35 
   4489.50       9.21      403.2       17.1         86       1429   15879.34     408.61       1.10    4047.40 
   4490.00       9.60      402.8       17.4         85       1430   15968.85     408.46       1.10    4047.44 
   4490.50       9.84      402.4       17.9         85       1432   16626.32     408.42       1.10    4047.48 
   4491.00      16.71      402.6       17.6         84       1432   17389.89     408.39       0.98    4047.53 
   4491.50       3.50      401.7       18.5         85       1478   16792.83     417.65       1.34    4047.57 
   4492.00       4.50      402.2       18.0         87       1522   14784.18     423.76       1.28    4047.61 
   4492.50       7.00      403.5       16.8         62       1449   11000.23     411.24       1.09    4047.65 
   4493.00       6.63      402.3       18.0         82       1381   14475.87     405.80       1.18    4047.70 
   4493.50       7.15      403.7       16.6         81       1376   15378.48     405.97       1.14    4047.74 
