~VERSION INFORMATION
VERS.    2.0:   CWLS LOG ASCII STANDARD - VERSION 2.0
WRAP.     NO:   ONE LINE PER STEP
~WELL INFORMATION BLOCK
#MNEM.UNIT      DATA                  DESCRIPTION OF MNEMONIC
#----   --------             ---------------
STRT.m  260.00                   :START DEPTH
STOP.m  5139.00                   :STOP DEPTH
STEP.m  0.50                   :STEP VALUE
NULL.   0                   :NULL VALUE
COMP.   SHELL                   :COMPANY NAME
WELL.   PRELUDE P1 ST1                   :WELL NAME
FLD .   PRELUDE                   :FIELD NAME
LOC .   BROWSE BASIN                   :LOCATION
PROV.   NORTH WEST SHELF, W.A.                   :PROVINCE
SRVC.   Geoservices                   :SERVICE COMPANY NAME
DATE.   01-10-2015 15:41:26                   :DATE
UWI .                      :UNIQUE WELL IDENTIFIER
~CURVE INFORMATION
#MNEM.UNIT       API CODE        CURVE DESCRIPTION
#----   -------- ------------------
Tot Depth .m        :Tot Depth
ROP m/hr .m/h        :ROP m/hr
WOH .klbs        :WOH
WOB .klbs        :WOB
RPM .rpm        :RPM
SPP .psi        :SPP
TORQUE .lb*ft        :TORQUE
FLWpmps .gpm        :FLWpmps
D Exp .....        :D Exp
TVD Depth .m        :TVD Depth
#
#-----------------------------------------------------------
# Tot Depth (m)   ROP m/hr (m/h)   WOH (klbs)   WOB (klbs)   RPM (rpm)   SPP (psi)   TORQUE (lb*ft)   FLWpmps (gpm)   D Exp (....)   TVD Depth (m)
#-----------------------------------------------------------
~A
# ...
   3180.00      28.90      391.2       12.4        148       3162   16793.48    1005.84       0.71    3130.37 
   3180.50      23.62      391.3       12.3        151       3161   16098.41    1005.84       0.74    3130.85 
   3181.00      26.06      388.3       15.3        153       3161   14824.06    1005.81       0.76    3131.32 
   3181.50      19.15      384.8       18.8        153       2898   14859.12     949.08       0.86    3131.80 
   3182.00      22.03      385.0       18.6        152       2810   14988.68     938.75       0.83    3132.28 
   3182.50      25.46      385.0       18.6        153       2799   14546.11     928.68       0.81    3132.75 
   3183.00      21.03      386.7       16.9        151       3092   15508.21    1000.25       0.82    3133.23 
   3183.50      31.42      389.1       14.5        149       3128   16450.43    1000.43       0.72    3133.71 
   3184.00      36.43      390.1       13.5        148       3128   16668.04    1000.64       0.68    3134.18 
   3184.50      25.27      389.5       14.1        148       3134   17062.55    1000.44       0.75    3134.66 
   3185.00      38.77      389.3       14.3        147       3136   17170.67    1000.48       0.68    3135.14 
   3185.50      38.83      389.7       13.9        147       3139   17459.56    1000.33       0.68    3135.61 
   3186.00      37.82      389.8       13.8        148       3141   16947.96    1000.35       0.68    3136.09 
   3186.50      30.49      390.8       12.8        148       3138   16797.59    1000.29       0.71    3136.57 
   3187.00      30.79      390.5       13.1        147       3142   16837.84    1000.41       0.71    3137.05 
   3187.50      29.25      387.4       16.2        152       3139   15428.11    1000.41       0.76    3137.52 
   3188.00      19.15      386.6       17.0        155       2850   13890.92     945.55       0.84    3138.00 
   3188.50      21.44      385.7       17.9        154       2825   14505.29     935.05       0.83    3138.48 
   3189.00      24.47      386.3       17.3        153       2881   14217.61     958.66       0.80    3138.95 
   3189.50      29.03      388.1       15.5        155       3121   13888.03     999.46       0.75    3139.43 
   3190.00      22.48      389.0       14.6        155       3162   13675.31    1005.11       0.78    3139.91 
   3190.50      37.82      388.8       14.8        154       3163   14011.97    1005.07       0.70    3140.38 
   3191.00      28.76      389.7       13.9        153       3163   14777.22    1005.12       0.73    3140.86 
   3191.50      33.99      387.8       15.8        152       3165   15294.67    1005.06       0.73    3141.34 
   3192.00      29.04      388.3       15.3        149       3168   16110.40    1005.00       0.74    3141.81 
   3192.50      36.45      387.6       16.0        148       3168   16678.93    1004.95       0.71    3142.29 
   3193.00      35.05      387.5       16.1        146       3168   17584.74    1004.97       0.72    3142.77 
   3193.50      14.32      387.2       16.2        153       3166   13923.56    1005.03       0.88    3143.25 
   3194.00      13.12      391.3        3.7        146       3182    8150.77    1003.91       0.65    3143.72 
   3194.50      20.46      391.6        3.4        138       3177   13094.93    1004.37       0.58    3144.20 
   3195.00      30.28      391.6        3.4        133       3175   15049.30    1004.29       0.53    3144.68 
   3195.50      25.79      390.1        4.9        132       3172   16693.84    1004.24       0.59    3145.15 
   3196.00      26.94      390.1        4.9        134       3175   15394.20    1004.54       0.58    3145.63 
   3196.50      19.59      390.4        4.6        137       3178   13846.32    1004.46       0.62    3146.11 
   3197.00      21.44      385.9        9.1        138       2970   13373.03     963.91       0.69    3146.58 
   3197.50      35.33      385.0       10.0        136       2836   14658.37     937.76       0.63    3147.06 
   3198.00      26.86      385.3        9.7        133       2933   15637.04     958.30       0.66    3147.54 
   3198.50      23.65      391.4        6.3        136       2949   15111.80     963.01       0.63    3148.02 
   3199.00      23.73      391.1        4.0        153       3168   14350.62    1005.28       0.59    3148.49 
   3199.50      23.82      390.2        4.8        148       3171   15673.23    1005.36       0.61    3148.97 
   3200.00      29.26      390.5        4.5        148       3190   15776.65    1004.98       0.57    3149.45 
   3200.50      37.98      389.7        5.3        147       3172   16574.98    1005.36       0.56    3149.92 
   3201.00      28.45      389.8        5.2        154       3168   16769.18    1005.24       0.60    3150.40 
   3201.50      36.40      387.1        7.9        155       3161   16959.77    1005.38       0.61    3150.88 
   3202.00      32.45      389.4        5.6        157       3165   16198.00    1005.40       0.59    3151.35 
   3202.50      26.81      389.5        5.5        156       3169   16588.20    1005.38       0.61    3151.83 
   3203.00      29.92      390.1        5.0        159       3166   15548.99    1005.49       0.59    3152.31 
   3203.50      20.34      385.7        9.3        163       3032   14295.54     974.83       0.73    3152.79 
   3204.00      17.02      386.5        8.6        163       2841   13594.95     945.89       0.74    3153.26 
   3204.50      18.40      386.2        8.8        162       2857   14228.04     945.49       0.74    3153.74 
   3205.00      24.26      385.8        9.2        161       3108   14874.74    1001.37       0.70    3154.22 
   3205.50      30.65      386.2        8.8        160       3166   15131.40    1005.51       0.66    3154.69 
   3206.00      31.33      386.9        8.1        161       3166   15019.71    1005.42       0.64    3155.17 
   3206.50      25.82      387.1        7.9        163       3167   13960.73    1005.53       0.67    3155.65 
   3207.00      24.80      388.2        6.8        165       3171   12961.39    1005.54       0.66    3156.13 
   3207.50      27.20      388.4        6.6        163       3172   13746.53    1005.65       0.64    3156.60 
   3208.00      29.28      388.3        6.7        162       3171   14163.62    1005.53       0.63    3157.08 
   3208.50      30.54      389.0        6.0        161       3175   14761.32    1005.63       0.61    3157.56 
   3209.00      37.22      388.0        7.0        161       3174   15501.35    1005.49       0.60    3158.03 
   3209.50      26.68      388.3        6.7        157       3172   16331.77    1005.58       0.64    3158.51 
   3210.00      33.91      387.8        7.2        158       3177   16033.14    1005.51       0.62    3158.99 
   3210.50      30.27      387.8        7.2        158       3178   16226.36    1005.52       0.63    3159.46 
   3211.00      33.97      388.5        6.5        158       3180   15924.57    1005.52       0.60    3159.94 
   3211.50      28.52      388.8        6.2        156       3184   16732.35    1005.39       0.62    3160.42 
   3212.00      39.74      388.6        6.4        156       3185   16890.26    1005.44       0.58    3160.90 
   3212.50      39.74      388.6        6.4        156       3185   16890.26    1005.44       0.58    3161.37 
   3213.00      24.09      388.7        6.3        157       3184   16886.10    1005.36       0.64    3161.85 
   3213.50      36.41      389.1        6.0        156       3184   17069.86    1005.40       0.58    3162.33 
   3214.00      32.23      389.1        5.9        155       3187   17505.53    1005.34       0.60    3162.80 
   3214.50      35.07      389.4        5.6        155       3190   17418.24    1005.35       0.58    3163.28 
   3215.00      33.01      388.3        6.8        153       3189   18157.90    1005.18       0.61    3163.76 
   3215.50      44.37      389.1        5.9        154       3193   17909.49    1005.34       0.55    3164.24 
   3216.00      43.68      388.8        6.3        150       3188   18283.20    1005.37       0.56    3164.71 
