~VERSION INFORMATION
VERS.    2.0:   CWLS LOG ASCII STANDARD - VERSION 2.0
WRAP.     NO:   ONE LINE PER STEP
~WELL INFORMATION BLOCK
#MNEM.UNIT      DATA                  DESCRIPTION OF MNEMONIC
#----   --------             ---------------
STRT.m  260.00                   :START DEPTH
STOP.m  5139.00                   :STOP DEPTH
STEP.m  0.50                   :STEP VALUE
NULL.   0                   :NULL VALUE
COMP.   SHELL                   :COMPANY NAME
WELL.   PRELUDE P1 ST1                   :WELL NAME
FLD .   PRELUDE                   :FIELD NAME
LOC .   BROWSE BASIN                   :LOCATION
PROV.   NORTH WEST SHELF, W.A.                   :PROVINCE
SRVC.   Geoservices                   :SERVICE COMPANY NAME
DATE.   01-10-2015 15:41:26                   :DATE
UWI .                      :UNIQUE WELL IDENTIFIER
~CURVE INFORMATION
#MNEM.UNIT       API CODE        CURVE DESCRIPTION
#----   -------- ------------------
Tot Depth .m        :Tot Depth
ROP m/hr .m/h        :ROP m/hr
WOH .klbs        :WOH
WOB .klbs        :WOB
RPM .rpm        :RPM
SPP .psi        :SPP
TORQUE .lb*ft        :TORQUE
FLWpmps .gpm        :FLWpmps
D Exp .....        :D Exp
TVD Depth .m        :TVD Depth
#
#-----------------------------------------------------------
# Tot Depth (m)   ROP m/hr (m/h)   WOH (klbs)   WOB (klbs)   RPM (rpm)   SPP (psi)   TORQUE (lb*ft)   FLWpmps (gpm)   D Exp (....)   TVD Depth (m)
#-----------------------------------------------------------
~A
# ...
   4129.00      24.65      432.9        5.7        150       3639   20352.84    1020.76       0.61    3946.89 
   4129.50      16.37      433.0        5.6        151       3644   20270.12    1020.76       0.67    3947.13 
   4130.00      23.70      432.7        5.9        151       3644   19968.02    1020.78       0.62    3947.37 
   4130.50       8.60      434.2        4.4        160       3412   15931.47     979.53       0.73    3947.61 
   4131.00       8.68      434.7        3.8        165       3443   13647.34     994.41       0.71    3947.86 
   4131.50      17.08      434.3        4.2        159       3633   16144.93    1020.81       0.63    3948.10 
   4132.00      10.37      434.4        4.2        156       3636   17556.70    1020.67       0.69    3948.34 
   4132.50      22.21      434.2        4.4        154       3638   18260.57    1020.67       0.60    3948.58 
   4133.00      18.92      435.1        3.5        155       3636   18217.84    1020.67       0.60    3948.82 
   4133.50      21.27      434.8        3.7        153       3642   18797.94    1020.64       0.59    3949.06 
   4134.00      24.85      435.4        3.1        153       3646   18754.33    1020.73       0.55    3949.30 
   4134.50      23.98      434.5        4.1        154       3643   18443.97    1020.70       0.58    3949.55 
   4135.00      21.31      433.4        5.1        155       3643   18406.84    1020.67       0.62    3949.79 
   4135.50      23.00      434.2        4.4        153       3646   18728.45    1020.64       0.60    3950.03 
   4136.00      19.65      434.6        4.0        154       3648   18345.16    1020.69       0.61    3950.27 
   4136.50      22.85      434.1        4.5        154       3647   18929.03    1020.63       0.60    3950.51 
   4137.00      22.77      434.7        3.9        155       3644   18247.07    1020.67       0.59    3950.75 
   4137.50      22.11      434.2        4.4        154       3649   18601.59    1020.57       0.60    3950.99 
   4138.00      24.76      434.3        4.3        155       3646   18212.19    1020.56       0.59    3951.24 
   4138.50      21.47      434.2        4.4        155       3649   18030.59    1020.58       0.61    3951.48 
   4139.00      25.56      434.3        4.3        156       3651   17587.34    1020.59       0.58    3951.72 
   4139.50      17.06      435.0        3.6        155       3648   17890.07    1020.49       0.61    3951.96 
   4140.00      23.36      434.2        4.4        154       3652   18231.46    1020.43       0.59    3952.20 
   4140.50      19.77      434.5        4.1        154       3650   18428.93    1020.54       0.61    3952.44 
   4141.00      20.42      434.2        4.4        153       3650   18888.89    1020.44       0.61    3952.68 
   4141.50      22.54      434.1        4.5        153       3654   19103.34    1020.34       0.60    3952.92 
   4142.00      13.13      426.9        4.7        159       3537   16391.12     998.07       0.68    3953.17 
   4142.50       9.52      420.3        5.3        162       3402   14848.53     982.39       0.74    3953.41 
   4143.00      12.11      429.2        7.3        162       3641   14923.30    1020.49       0.75    3953.65 
   4143.50      17.56      433.0        5.6        161       3646   15492.63    1020.39       0.67    3953.89 
   4144.00      20.29      432.8        5.7        158       3649   16795.44    1020.34       0.65    3954.13 
   4144.50      25.97      432.0        6.6        155       3657   17741.24    1020.26       0.63    3954.37 
   4145.00      21.87      432.0        6.6        155       3653   18258.60    1020.19       0.65    3954.61 
   4145.50      22.89      431.9        6.7        153       3654   18986.26    1020.14       0.65    3954.86 
   4146.00      25.47      431.3        7.3        152       3655   19761.05    1020.06       0.64    3955.10 
   4146.50      25.49      431.6        7.0        151       3659   19956.34    1020.12       0.64    3955.34 
   4147.00      24.16      431.2        7.4        152       3658   19561.46    1020.13       0.65    3955.58 
   4147.50      25.01      430.3        8.2        151       3659   20276.96    1019.99       0.66    3955.82 
   4148.00      17.01      429.2        9.3        151       3661   20071.02    1019.99       0.73    3956.06 
   4148.50      24.08      431.1        7.5        153       3661   19039.41    1020.13       0.65    3956.30 
   4149.00      18.95      431.3        7.3        152       3661   19987.84    1019.96       0.68    3956.54 
   4149.50       8.61      425.8        4.1        166       3649   12334.50    1019.64       0.72    3956.79 
   4150.00      17.90      432.4        8.2        162       3652   14072.25    1019.38       0.72    3957.03 
   4150.50      15.79      432.6        8.0        157       3649   15850.39    1019.38       0.73    3957.27 
   4151.00      22.71      434.5        6.2        155       3649   17155.14    1019.38       0.64    3957.51 
   4151.50      18.99      434.9        5.7        155       3649   17355.53    1019.42       0.65    3957.75 
   4152.00      22.80      433.8        6.8        154       3648   17889.18    1019.44       0.65    3957.99 
   4152.50      20.72      434.3        6.3        154       3649   17721.98    1019.53       0.65    3958.23 
   4153.00      23.13      435.5        5.2        153       3651   18057.97    1019.62       0.61    3958.48 
   4153.50      22.74      435.3        5.3        152       3651   18657.89    1019.51       0.62    3958.72 
   4154.00      18.06      433.2        7.5        151       3649   18982.99    1019.56       0.69    3958.96 
   4154.50      19.19      432.3        8.3        153       3650   18807.72    1019.56       0.70    3959.20 
   4155.00      20.62      433.0        7.7        153       3650   18546.87    1019.60       0.68    3959.44 
   4155.50      21.00      433.6        7.1        155       3650   17619.10    1019.74       0.67    3959.67 
   4156.00      19.52      434.3        6.4        154       3648   17875.84    1019.87       0.66    3959.89 
   4156.50      21.70      433.4        7.3        155       3648   17500.55    1019.92       0.66    3960.11 
   4157.00      19.32      434.5        6.2        155       3650   17752.57    1019.87       0.66    3960.33 
   4157.50      19.88      433.8        6.9        154       3646   17987.41    1019.86       0.67    3960.55 
   4158.00      20.63      434.4        6.2        154       3645   17873.56    1019.95       0.65    3960.77 
   4158.50      19.96      433.6        7.0        154       3649   18082.72    1019.86       0.67    3960.99 
   4159.00      18.93      431.8        8.8        155       3648   17649.80    1019.92       0.71    3961.21 
   4159.50      18.60      432.2        8.4        155       3646   17700.77    1020.04       0.71    3961.43 
   4160.00      18.55      432.1        8.5        154       3645   17951.32    1019.94       0.71    3961.65 
   4160.50      20.80      432.5        8.2        154       3649   18136.92    1020.03       0.69    3961.87 
   4161.00      18.46      433.4        7.2        154       3648   18167.93    1019.98       0.69    3962.09 
   4161.50      21.25      433.5        7.1        155       3647   17584.26    1019.98       0.66    3962.31 
   4162.00      15.79      433.1        7.6        156       3647   17310.73    1020.13       0.72    3962.53 
   4162.50      17.27      433.8        6.9        157       3646   16782.23    1020.16       0.69    3962.74 
   4163.00      16.67      434.2        6.5        156       3647   17005.37    1020.08       0.69    3962.96 
   4163.50      18.20      433.3        7.4        156       3645   17426.25    1020.01       0.69    3963.18 
   4164.00      18.28      433.7        7.0        155       3649   17420.39    1019.98       0.68    3963.40 
   4164.50      17.48      433.6        7.0        155       3647   17667.43    1020.03       0.69    3963.62 
   4165.00      18.56      436.3        4.3        154       3647   18163.64    1019.89       0.62    3963.84 
