~VERSION INFORMATION
VERS.    2.0:   CWLS LOG ASCII STANDARD - VERSION 2.0
WRAP.     NO:   ONE LINE PER STEP
~WELL INFORMATION BLOCK
#MNEM.UNIT      DATA                  DESCRIPTION OF MNEMONIC
#----   --------             ---------------
STRT.m  260.00                   :START DEPTH
STOP.m  5139.00                   :STOP DEPTH
STEP.m  0.50                   :STEP VALUE
NULL.   0                   :NULL VALUE
COMP.   SHELL                   :COMPANY NAME
WELL.   PRELUDE P1 ST1                   :WELL NAME
FLD .   PRELUDE                   :FIELD NAME
LOC .   BROWSE BASIN                   :LOCATION
PROV.   NORTH WEST SHELF, W.A.                   :PROVINCE
SRVC.   Geoservices                   :SERVICE COMPANY NAME
DATE.   01-10-2015 15:41:26                   :DATE
UWI .                      :UNIQUE WELL IDENTIFIER
~CURVE INFORMATION
#MNEM.UNIT       API CODE        CURVE DESCRIPTION
#----   -------- ------------------
Tot Depth .m        :Tot Depth
ROP m/hr .m/h        :ROP m/hr
WOH .klbs        :WOH
WOB .klbs        :WOB
RPM .rpm        :RPM
SPP .psi        :SPP
TORQUE .lb*ft        :TORQUE
FLWpmps .gpm        :FLWpmps
D Exp .....        :D Exp
TVD Depth .m        :TVD Depth
#
#-----------------------------------------------------------
# Tot Depth (m)   ROP m/hr (m/h)   WOH (klbs)   WOB (klbs)   RPM (rpm)   SPP (psi)   TORQUE (lb*ft)   FLWpmps (gpm)   D Exp (....)   TVD Depth (m)
#-----------------------------------------------------------
~A
# ...
   1866.00      21.78      405.6        0.0        111       1652          0    1008.31       0.38    1863.61 
   1866.50      23.64      405.5        0.1        111       1655          0    1008.20       0.41    1864.10 
   1867.00      26.41      405.2        0.2        111       1673          0    1007.05       0.44    1864.59 
   1867.50      29.51      405.1        0.3        111       1671          0    1006.86       0.44    1865.09 
   1868.00      34.38      405.0        0.4        111       1651          0    1008.14       0.44    1865.58 
   1868.50      39.62      405.0        0.4        111       1691          0    1005.98       0.42    1866.07 
   1869.00      38.00      405.2        0.2        111       1669          0    1006.83       0.40    1866.57 
   1869.50      41.21      405.6        0.1        111       1674          0    1006.98       0.34    1867.06 
   1870.00      42.66      405.6        0.0        110       1704          0    1004.64       0.32    1867.55 
   1870.50      44.26      405.9        0.0        111       1659          0    1007.72       0.28    1868.05 
   1871.00      25.67      405.6        0.1        110       1754          0    1001.26       0.40    1868.54 
   1871.50      13.84      405.8        0.0        111       1689          0    1005.44       0.41    1869.03 
   1872.00      20.95      405.9        0.0        111       1664          0    1007.54       0.37    1869.53 
   1872.50      17.95      405.7        0.1        111       1700          0    1004.79       0.41    1870.02 
   1873.00      21.44      405.8        0.0        111       1697          0    1004.91       0.39    1870.51 
   1873.50       7.83      405.7        0.1        111       1696          0    1004.91       0.49    1871.01 
   1874.00      23.67      405.5        0.1        111       1677          0    1006.53       0.41    1871.50 
   1874.50      21.96      405.6        0.1        111       1649          0    1008.64       0.40    1871.99 
   1875.00      31.07      405.7        0.0        111       1651          0    1008.59       0.35    1872.49 
   1875.50      30.79      405.6        0.0        111       1649          0    1008.64       0.34    1872.98 
   1876.00      36.44      405.7        0.0        111       1644          0    1008.83       0.31    1873.47 
   1876.50      36.45      405.8        0.0        111       1640          0    1008.87       0.32    1873.97 
   1877.00      32.94      405.9        0.0        111       1642          0    1008.85       0.31    1874.46 
   1877.50      35.07      406.2        0.0        111       1636          0    1009.32       0.30    1874.95 
   1878.00      34.43      405.1        0.3        111       1631       0.00    1009.79       0.43    1875.44 
   1878.50      25.34      404.9        0.6        111       1637          0    1009.29       0.50    1875.94 
   1879.00      31.49      414.3        0.0        111       1621          0    1006.73       0.36    1876.43 
   1879.50      23.67      414.9        0.2        111       1629          0    1006.32       0.43    1876.92 
   1880.00      29.77      415.0        0.1        110       1641          0    1004.48       0.40    1877.42 
   1880.50      31.97      415.1        0.1        111       1624          0    1005.85       0.38    1877.91 
   1881.00      29.50      414.9        0.1        111       1635          0    1005.03       0.40    1878.40 
   1881.50      30.37      415.4        0.1        111       1627          0    1005.56       0.40    1878.89 
   1882.00      30.89      414.2        0.8        110       1671          0     999.96       0.49    1879.39 
   1882.50      30.27      414.2        0.7        110       1647          0    1000.87       0.49    1879.88 
   1883.00      30.98      413.8        1.1        110       1725          0     995.36       0.51    1880.37 
   1883.50      30.89      414.5        0.5        110       1627       0.00    1002.12       0.46    1880.87 
   1884.00      30.27      414.7        0.5        110       1682          0     998.61       0.46    1881.36 
   1884.50      30.37      415.2        0.1        110       1709          0     997.07       0.40    1881.85 
   1885.00      31.34      414.7        0.3        109       1743          0     993.42       0.44    1882.34 
   1885.50      31.97      415.2        0.1        110       1629          0    1001.79       0.37    1882.84 
   1886.00      29.40      415.6        0.0        110       1625          0    1002.13       0.34    1883.33 
   1886.50      33.80      415.9        0.0        111       1628          0    1002.04       0.30    1883.82 
   1887.00      35.73      416.1        0.0        110       1626          0    1002.10       0.30    1884.31 
   1887.50      37.97      415.9        0.0        110       1627          0    1002.14       0.29    1884.81 
   1888.00      45.34      415.7        0.0        110       1657          0    1000.19       0.29    1885.30 
   1888.50      47.15      415.4        0.0        109       1734          0     994.45       0.28    1885.79 
   1889.00      65.05      415.6        0.0        110       1637          0    1001.28       0.25    1886.29 
   1889.50      30.65      415.8        0.0        110       1674          0     999.21       0.31    1886.78 
   1890.00      64.45      415.8        0.0        110       1686          0     998.26       0.25    1887.27 
   1890.50      34.45      415.8        0.0        110       1652          0    1000.69       0.30    1887.76 
   1891.00      38.82      415.3        0.0        109       1768          0     992.43       0.29    1888.26 
   1891.50      77.39      415.2        0.0        109       1763          0     992.13       0.25    1888.75 
   1892.00      53.65      415.5        0.0        110       1683          0     998.50       0.27    1889.24 
   1892.50      40.48      415.8        0.0        110       1647          0    1000.47       0.29    1889.74 
   1893.00      39.90      416.0        0.0        110       1634          0    1001.64       0.29    1890.23 
   1893.50      38.76      415.6        0.0        110       1642          0    1001.30       0.29    1890.72 
   1894.00      39.38      415.8        0.0        110       1646          0    1000.72       0.29    1891.21 
   1894.50      25.78      415.2        0.0        110       1736          0     995.17       0.37    1891.71 
   1895.00      36.44      415.4        0.0        110       1653          0     999.67       0.30    1892.20 
   1895.50      25.02      415.5        0.0        110       1631          0    1001.53       0.33    1892.69 
   1896.00      34.73      415.5        0.0        110       1652          0    1000.19       0.30    1893.18 
   1896.50      24.29      415.2        0.0        110       1670          0     999.31       0.37    1893.68 
   1897.00      45.98      415.3        0.0        110       1645          0    1000.89       0.28    1894.17 
   1897.50      28.02      415.1        0.0        110       1663          0     999.60       0.35    1894.66 
   1898.00      35.74      414.9        0.0        110       1632          0    1001.49       0.33    1895.16 
   1898.50      43.38      415.1        0.1        110       1634          0    1001.66       0.33    1895.65 
   1899.00      37.26      415.1        0.0        110       1633          0    1001.74       0.32    1896.14 
   1899.50      29.39      414.9        0.1        110       1677          0     999.38       0.40    1896.63 
   1900.00      21.77      414.2        0.7        110       1713          0     996.70       0.53    1897.13 
   1900.50      15.71      414.8        0.2        110       1659          0    1000.79       0.49    1897.62 
   1901.00       9.79      414.6        0.4        110       1687          0     998.61       0.59    1898.11 
   1901.50       9.92      414.9        0.1        110       1656          0    1000.78       0.51    1898.61 
   1902.00      22.13      415.1        0.1        110       1658          0    1000.44       0.41    1899.10 
