~VERSION INFORMATION
VERS.    2.0:   CWLS LOG ASCII STANDARD - VERSION 2.0
WRAP.     NO:   ONE LINE PER STEP
~WELL INFORMATION BLOCK
#MNEM.UNIT      DATA                  DESCRIPTION OF MNEMONIC
#----   --------             ---------------
STRT.m  260.00                   :START DEPTH
STOP.m  5139.00                   :STOP DEPTH
STEP.m  0.50                   :STEP VALUE
NULL.   0                   :NULL VALUE
COMP.   SHELL                   :COMPANY NAME
WELL.   PRELUDE P1 ST1                   :WELL NAME
FLD .   PRELUDE                   :FIELD NAME
LOC .   BROWSE BASIN                   :LOCATION
PROV.   NORTH WEST SHELF, W.A.                   :PROVINCE
SRVC.   Geoservices                   :SERVICE COMPANY NAME
DATE.   01-10-2015 15:41:26                   :DATE
UWI .                      :UNIQUE WELL IDENTIFIER
~CURVE INFORMATION
#MNEM.UNIT       API CODE        CURVE DESCRIPTION
#----   -------- ------------------
Tot Depth .m        :Tot Depth
ROP m/hr .m/h        :ROP m/hr
WOH .klbs        :WOH
WOB .klbs        :WOB
RPM .rpm        :RPM
SPP .psi        :SPP
TORQUE .lb*ft        :TORQUE
FLWpmps .gpm        :FLWpmps
D Exp .....        :D Exp
TVD Depth .m        :TVD Depth
#
#-----------------------------------------------------------
# Tot Depth (m)   ROP m/hr (m/h)   WOH (klbs)   WOB (klbs)   RPM (rpm)   SPP (psi)   TORQUE (lb*ft)   FLWpmps (gpm)   D Exp (....)   TVD Depth (m)
#-----------------------------------------------------------
~A
    260.00       1.73      293.3        0.1         14         59      50.00     150.10       0.23     998.97 
    260.50       1.73      293.3        0.1         14         59      60.00     208.10       0.23     998.97 
    261.00       0.53      294.4        0.1         14        122     506.21     248.79       0.23     998.97 
    261.50      41.26      294.0        0.1         41        145    1414.39     314.64       0.32     998.97 
    262.00      24.28      294.1        0.1         41        167    1523.16     359.25       0.32     998.97 
    262.50      44.81      293.9        0.1         41        212    1738.89     433.24       0.30     262.50 
    263.00      81.10      294.2        0.1         71        385    2564.68     600.43       0.28     266.00 
    263.50      81.10      294.2        0.1         71        385    2564.68     600.43       0.28     266.00 
    264.00      81.10      294.2        0.1         71        385    2564.68     600.43       0.28     266.00 
    264.50      81.10      294.2        0.1         71        385    2564.68     600.43       0.28     266.00 
    265.00      89.18      294.2        0.2         71        366    2437.66     601.28       0.29     267.00 
    265.50      81.10      294.2        0.1         71        385    2564.68     600.43       0.28     266.00 
    266.00      81.10      294.2        0.1         71        385    2564.68     600.43       0.28     266.00 
    266.50      75.85      294.0        0.1         71        372    2260.63     601.03       0.28     266.50 
    267.00      89.18      294.2        0.2         71        366    2437.66     601.28       0.29     267.00 
    267.50      48.56      293.9        0.1         71        382    2111.17     601.33       0.33     267.50 
    268.00      79.45      293.9        0.2         71        387    2365.22     601.66       0.29     268.00 
    268.50      82.76      294.0        0.2         70        400    2480.87     608.54       0.29     268.50 
    269.00      77.37      293.7        0.3         70        432    2421.63     639.76       0.31     269.00 
    269.50     113.51      293.8        0.2         70        440    2769.37     658.58       0.25     269.50 
    270.00     105.16      293.9        0.3         69        442    3020.91     658.62       0.27     270.00 
    270.50     111.56      293.4        0.5         70        442    3193.77     659.08       0.29     270.50 
    271.00      95.07      293.5        0.4         69        442    2763.63     659.59       0.29     271.00 
    271.50     113.78      293.7        0.3         69        443    3073.90     659.58       0.26     271.50 
    272.00     109.20      293.4        0.5         69        447    3410.17     659.35       0.28     272.00 
    272.50     109.30      293.6        0.4         69        444    3311.03     659.64       0.27     272.50 
    273.00     107.17      293.3        0.6         68        442    4195.25     660.12       0.29     273.00 
    273.50     119.64      293.5        0.5         68        445    4023.61     660.11       0.27     273.50 
    274.00      70.01      293.3        0.6         69        443    3360.99     660.35       0.34     274.00 
    274.50      49.50      293.2        0.7         70        499    2992.12     700.79       0.40     274.50 
    275.00      46.41      293.5        0.5         70        526    2637.21     724.16       0.38     275.00 
    275.50      79.77      293.5        0.5         69        532    2898.69     724.34       0.31     275.50 
    276.00      74.22      293.5        0.5         70        572    2960.38     722.73       0.32     276.00 
    276.50      65.82      293.5        0.4         71        665    2887.30     806.85       0.34     276.50 
    277.00      64.04      293.5        0.5         81        681    3048.81     842.97       0.36     277.00 
    277.50      32.16      293.7        0.3         82        683    2536.91     843.18       0.42     277.50 
    278.00      60.27      293.7        0.3         82        681    2764.52     843.57       0.34     278.00 
    278.50      53.54      293.3        0.6         82        674    2680.24     844.09       0.39     278.49 
    279.00      47.91      293.4        0.6         82        684    2693.43     844.24       0.40     278.99 
    279.50      46.69      293.2        0.8         82        685    2747.70     844.33       0.42     279.49 
    280.00      27.47      292.7        0.7         82        715    2429.48     859.96       0.48     279.99 
    280.50      95.88      288.2        0.2         81        965    2166.20    1000.15       0.27     280.49 
    281.00     101.11      289.1        0.1         81        972    2184.62    1000.38       0.25     280.99 
    281.50      72.86      289.3        0.4         80        959    2648.36    1000.47       0.33     281.49 
    282.00      55.75      290.3        0.2         80        963    2408.84    1000.58       0.33     281.99 
    282.50      69.91      290.5        0.5         79        954    2490.81    1002.37       0.34     282.49 
    283.00      71.43      291.7        0.5         79        955    2582.68    1001.04       0.33     282.99 
    283.50      75.61      292.6        0.4         79        948    2599.38    1001.55       0.32     283.49 
    284.00      72.82      293.0        0.5         79        962    2836.96    1001.22       0.33     283.99 
    284.50      60.69      293.0        0.5         80        958    2339.27    1001.25       0.35     284.49 
    285.00      66.32      293.2        0.6         80        962    2258.68    1001.41       0.35     284.99 
    285.50      41.60      293.6        0.6         84       1093    2493.38    1080.92       0.42     285.49 
    286.00     135.26      293.6        0.7         89       1230    3111.75    1161.69       0.28     285.99 
    286.50     114.45      293.6        0.7         89       1232    3301.24    1161.82       0.30     286.49 
    287.00      75.85      293.9        0.4         89       1254    2903.16    1160.65       0.33     286.99 
    287.50      66.08      293.8        0.6         89       1262    2783.05    1161.05       0.36     287.49 
    288.00      82.76      294.1        0.2         89       1240    3072.88    1160.94       0.30     287.99 
    288.50      84.40      294.9        0.5         89       1188    2919.27    1161.79       0.32     288.49 
    289.00      71.36      295.3        0.6         90       1253    2884.38    1160.89       0.35     288.99 
    289.50      61.90      295.5        0.6         90       1231    2815.77    1161.26       0.37     289.49 
    290.00      79.43      295.5        0.6         89       1207    3586.43    1160.99       0.33     289.99 
    290.50      39.52      295.9        0.1         90       1227    3019.35    1161.00       0.34     290.49 
    291.00      66.32      296.1        0.2         89       1245    3211.34    1161.13       0.32     290.99 
    291.50     135.25      295.9        0.5         89       1242    3199.18    1161.24       0.26     291.49 
    292.00      72.84      295.7        0.6         90       1238    2730.38    1161.50       0.35     291.99 
    292.50      68.48      295.6        0.7         90       1241    2810.51    1161.05       0.36     292.49 
    293.00      56.75      295.7        0.6         90       1215    2739.72    1161.17       0.38     292.99 
    293.50      57.05      295.7        0.6         90       1205    2786.84    1161.42       0.37     293.49 
    294.00      47.08      295.5        0.8         90       1219    2583.20    1161.68       0.42     293.99 
    294.50      77.79      295.5        0.8         90       1214    2877.41    1161.40       0.35     294.49 
    295.00      84.40      295.9        0.4         90       1250    2673.02    1161.56       0.31     294.99 
    295.50      82.33      295.7        0.6         90       1233    2592.99    1161.53       0.33     295.49 
    296.00      75.85      296.1        0.2         90       1222    2573.41    1161.44       0.30     295.99 
