~VERSION INFORMATION
VERS.    2.0:   CWLS LOG ASCII STANDARD - VERSION 2.0
WRAP.     NO:   ONE LINE PER STEP
~WELL INFORMATION BLOCK
#MNEM.UNIT      DATA                  DESCRIPTION OF MNEMONIC
#----   --------             ---------------
STRT.m  260.00                   :START DEPTH
STOP.m  5139.00                   :STOP DEPTH
STEP.m  0.50                   :STEP VALUE
NULL.   0                   :NULL VALUE
COMP.   SHELL                   :COMPANY NAME
WELL.   PRELUDE P1 ST1                   :WELL NAME
FLD .   PRELUDE                   :FIELD NAME
LOC .   BROWSE BASIN                   :LOCATION
PROV.   NORTH WEST SHELF, W.A.                   :PROVINCE
SRVC.   Geoservices                   :SERVICE COMPANY NAME
DATE.   01-10-2015 15:41:26                   :DATE
UWI .                      :UNIQUE WELL IDENTIFIER
~CURVE INFORMATION
#MNEM.UNIT       API CODE        CURVE DESCRIPTION
#----   -------- ------------------
Tot Depth .m        :Tot Depth
ROP m/hr .m/h        :ROP m/hr
WOH .klbs        :WOH
WOB .klbs        :WOB
RPM .rpm        :RPM
SPP .psi        :SPP
TORQUE .lb*ft        :TORQUE
FLWpmps .gpm        :FLWpmps
D Exp .....        :D Exp
TVD Depth .m        :TVD Depth
#
#-----------------------------------------------------------
# Tot Depth (m)   ROP m/hr (m/h)   WOH (klbs)   WOB (klbs)   RPM (rpm)   SPP (psi)   TORQUE (lb*ft)   FLWpmps (gpm)   D Exp (....)   TVD Depth (m)
#-----------------------------------------------------------
~A
# ...
   2194.50      22.05      412.9        3.0        181       2186   11000.63    1138.28       0.70    2185.60 
   2195.00      27.20      412.7        3.1        180       2213   11221.71    1136.69       0.67    2186.08 
   2195.50      26.75      412.6        3.3        180       2224   11634.11    1136.08       0.68    2186.57 
   2196.00      25.76      412.5        3.4        181       2224   11206.24    1136.00       0.69    2187.06 
   2196.50      27.19      412.5        3.4        181       2242   11223.54    1134.80       0.68    2187.54 
   2197.00      18.84      412.4        3.5        182       2217   10522.73    1136.09       0.74    2188.03 
   2197.50      23.40      412.3        3.6        181       2219   10987.34    1135.99       0.71    2188.51 
   2198.00      22.72      412.5        3.3        182       2204   10629.92    1137.41       0.70    2189.00 
   2198.50      20.03      412.6        3.2        182       2187   10558.50    1138.47       0.72    2189.49 
   2199.00      24.30      412.5        3.4        181       2217   11132.14    1136.44       0.70    2189.97 
   2199.50      20.95      412.4        3.4        180       2219   11372.62    1135.84       0.72    2190.46 
   2200.00      23.98      412.4        3.5        181       2216   11137.55    1136.44       0.70    2190.94 
   2200.50      18.60      412.3        3.6        181       2208   11035.06    1136.76       0.74    2191.43 
   2201.00      21.37      412.1        3.8        181       2226   10876.61    1135.30       0.73    2191.91 
   2201.50      20.07      412.1        3.8        181       2235   11112.55    1135.05       0.74    2192.40 
   2202.00      21.16      411.9        4.0        181       2223   11450.44    1135.70       0.74    2192.89 
   2202.50      17.34      411.7        4.2        181       2219   11212.84    1136.10       0.78    2193.37 
   2203.00      26.17      411.7        4.2        181       2219   10949.81    1136.32       0.71    2193.86 
   2203.50      19.72      411.7        4.1        181       2209   10911.44    1136.90       0.75    2194.34 
   2204.00      21.68      411.7        4.1        181       2215   11150.22    1136.68       0.74    2194.83 
   2204.50      23.53      411.6        4.3        181       2221   11079.87    1136.30       0.73    2195.32 
   2205.00      21.44      411.5        4.4        180       2219   11891.92    1136.23       0.75    2195.80 
   2205.50      19.59      411.6        4.3        180       2218   11460.96    1136.17       0.76    2196.29 
   2206.00      21.52      411.3        4.6        180       2240   11981.68    1134.89       0.75    2196.77 
   2206.50      22.50      411.5        4.3        181       2236   11293.26    1135.53       0.74    2197.26 
   2207.00      25.66      411.4        4.5        181       2252   11238.92    1134.36       0.72    2197.75 
   2207.50      21.01      411.5        4.3        180       2265   11441.32    1132.90       0.75    2198.23 
   2208.00      26.30      411.4        4.4        180       2265   12050.04    1133.44       0.72    2198.72 
   2208.50      26.75      411.4        4.5        181       2242   11028.38    1134.37       0.72    2199.20 
   2209.00      19.72      411.3        4.5        181       2245   11128.43    1134.83       0.77    2199.69 
   2209.50      24.29      411.2        4.7        180       2278   11977.64    1131.72       0.74    2200.18 
   2210.00      21.86      411.2        4.7        181       2279   11206.36    1132.01       0.75    2200.66 
   2210.50      22.61      411.5        4.9        180       2283   11899.48    1130.92       0.75    2201.15 
   2211.00      22.50      411.3        5.7        180       2279   11878.12    1131.96       0.78    2201.63 
   2211.50      26.41      411.2        5.7        179       2311   12528.62    1128.91       0.75    2202.12 
   2212.00      27.20      411.3        5.7        180       2280   11732.24    1131.19       0.74    2202.60 
   2212.50      23.58      411.3        5.6        180       2280   11858.77    1130.97       0.77    2203.09 
   2213.00      19.92      411.4        5.6        180       2287   11794.37    1130.50       0.79    2203.58 
   2213.50      22.71      411.1        5.9        180       2281   12079.44    1131.12       0.78    2204.06 
   2214.00      26.22      410.8        6.2        179       2304   12253.97    1129.07       0.76    2204.55 
   2214.50      18.42      411.0        5.9        180       2281   11990.80    1131.13       0.82    2205.03 
   2215.00      24.92      410.9        6.0        179       2316   12856.63    1128.71       0.77    2205.52 
   2215.50      28.03      410.8        6.2        179       2310   12502.89    1128.74       0.75    2206.01 
   2216.00      23.59      410.9        6.1        180       2296   11636.74    1130.03       0.78    2206.49 
   2216.50      19.60      411.0        5.9        181       2276   11545.22    1131.74       0.81    2206.98 
   2217.00      22.05      410.8        6.2        180       2297   12033.78    1130.30       0.79    2207.46 
   2217.50      22.50      410.7        6.3        180       2284   12185.34    1131.00       0.79    2207.95 
   2218.00      20.95      410.6        6.4        179       2291   12180.17    1130.56       0.81    2208.44 
   2218.50      23.25      410.5        6.4        180       2281   12117.02    1130.75       0.79    2208.92 
   2219.00      16.31      410.4        6.5        180       2288   11838.89    1130.80       0.85    2209.41 
   2219.50      23.14      410.4        6.5        180       2281   11464.16    1131.13       0.79    2209.89 
   2220.00       9.44      411.0        6.0        183       2195    9806.57    1137.00       0.94    2210.38 
   2220.50      30.09      414.2        4.2        183       2150    9346.22    1138.80       0.69    2210.86 
   2221.00       6.55      434.2        3.0        179       2040    7542.13    1133.15       0.88    2211.35 
   2221.50      11.42      433.7        2.8        178       2118    9306.95    1135.08       0.79    2211.84 
   2222.00      15.89      433.2        3.2        176       2178   10518.99    1131.08       0.75    2212.32 
   2222.50      22.52      432.8        3.6        174       2230   11581.11    1127.01       0.71    2212.81 
   2223.00      17.31      432.5        3.9        174       2264   12040.61    1123.39       0.76    2213.29 
   2223.50      16.31      432.3        4.1        174       2264   11391.62    1123.24       0.78    2213.78 
   2224.00      10.59      432.9        3.5        176       2200   10043.90    1127.82       0.83    2214.27 
   2224.50      10.63      432.9        3.5        176       2198   10271.44    1128.03       0.83    2214.75 
   2225.00      11.10      432.8        3.6        173       2137   10555.16    1103.58       0.82    2215.24 
   2225.50      11.91      432.6        3.7        171       2089   10699.84    1088.25       0.81    2215.72 
   2226.00      13.92      432.7        3.7        171       2097   10717.48    1090.79       0.79    2216.21 
   2226.50      12.40      432.7        3.7        172       2090   10988.68    1094.62       0.81    2216.70 
   2227.00      18.03      432.8        3.6        171       2095   10974.48    1094.45       0.74    2217.18 
   2227.50      16.03      432.8        3.6        172       2098   10727.75    1093.93       0.76    2217.67 
   2228.00      20.10      432.7        3.6        172       2111   10717.40    1093.06       0.73    2218.15 
   2228.50      18.75      432.6        3.8        172       2105   10791.42    1093.40       0.74    2218.64 
   2229.00      15.62      433.1        3.3        170       2140   11745.30    1091.02       0.75    2219.13 
   2229.50      25.65      432.8        3.6        170       2162   12178.41    1089.05       0.69    2219.61 
   2230.00      16.95      432.9        3.5        169       2187   12779.44    1087.39       0.75    2220.10 
   2230.50      25.64      432.9        3.5        170       2168   12071.37    1088.53       0.68    2220.58 
