~VERSION INFORMATION
VERS.    2.0:   CWLS LOG ASCII STANDARD - VERSION 2.0
WRAP.     NO:   ONE LINE PER STEP
~WELL INFORMATION BLOCK
#MNEM.UNIT      DATA                  DESCRIPTION OF MNEMONIC
#----   --------             ---------------
STRT.m  260.00                   :START DEPTH
STOP.m  5139.00                   :STOP DEPTH
STEP.m  0.50                   :STEP VALUE
NULL.   0                   :NULL VALUE
COMP.   SHELL                   :COMPANY NAME
WELL.   PRELUDE P1 ST1                   :WELL NAME
FLD .   PRELUDE                   :FIELD NAME
LOC .   BROWSE BASIN                   :LOCATION
PROV.   NORTH WEST SHELF, W.A.                   :PROVINCE
SRVC.   Geoservices                   :SERVICE COMPANY NAME
DATE.   01-10-2015 15:41:26                   :DATE
UWI .                      :UNIQUE WELL IDENTIFIER
~CURVE INFORMATION
#MNEM.UNIT       API CODE        CURVE DESCRIPTION
#----   -------- ------------------
Tot Depth .m        :Tot Depth
ROP m/hr .m/h        :ROP m/hr
WOH .klbs        :WOH
WOB .klbs        :WOB
RPM .rpm        :RPM
SPP .psi        :SPP
TORQUE .lb*ft        :TORQUE
FLWpmps .gpm        :FLWpmps
D Exp .....        :D Exp
TVD Depth .m        :TVD Depth
#
#-----------------------------------------------------------
# Tot Depth (m)   ROP m/hr (m/h)   WOH (klbs)   WOB (klbs)   RPM (rpm)   SPP (psi)   TORQUE (lb*ft)   FLWpmps (gpm)   D Exp (....)   TVD Depth (m)
#-----------------------------------------------------------
~A
# ...
   2523.00      46.67      351.8        6.9        153       2813   10489.95     955.91       0.57    2502.99 
   2523.50      55.91      352.0        6.7        152       2815   10721.40     955.84       0.54    2503.46 
   2524.00      23.62      351.8        6.9        152       2817   10346.81     955.70       0.66    2503.94 
   2524.50      43.23      352.0        6.7        151       2813   10490.68     955.73       0.57    2504.42 
   2525.00      14.49      351.8        7.0        156       2815    8250.81     955.70       0.74    2504.90 
   2525.50      16.88      353.2        7.6        141       2808    8011.74     956.03       0.71    2505.38 
   2526.00      36.45      354.3        6.5        136       2805    9076.30     956.16       0.58    2505.85 
   2526.50      42.48      354.0        6.8        136       2802    9400.71     956.19       0.56    2506.33 
   2527.00      24.11      353.8        7.0        136       2799    9490.70     956.25       0.65    2506.81 
   2527.50      38.77      354.0        6.8        135       2801    9853.14     956.34       0.58    2507.29 
   2528.00      45.16      353.4        7.4        135       2798   10005.49     956.33       0.56    2507.76 
   2528.50      33.81      353.9        6.9        136       2798    9596.40     956.44       0.60    2508.24 
   2529.00      42.48      354.6        6.2        135       2797   10210.43     956.45       0.55    2508.72 
   2529.50      35.00      353.4        7.4        134       2796   10549.96     956.59       0.60    2509.20 
   2530.00      30.60      353.6        7.2        134       2794   11023.51     956.60       0.61    2509.68 
   2530.50      53.00      352.4        8.4        134       2802   11327.27     956.54       0.55    2510.15 
   2531.00      34.49      354.1        6.7        133       2799   11194.28     956.58       0.59    2510.63 
   2531.50      41.88      352.7        8.1        134       2802   11185.66     956.59       0.58    2511.11 
   2532.00      45.37      352.9        7.9        135       2793   10931.80     956.57       0.57    2511.59 
   2532.50      42.86      354.2        6.6        136       2799   10337.33     956.63       0.56    2512.07 
   2533.00      38.77      352.9        8.0        135       2792   10895.04     956.58       0.59    2512.54 
   2533.50      50.16      354.7        6.1        134       2793   11060.41     956.50       0.53    2513.02 
   2534.00      31.90      353.2        7.7        135       2800   10739.36     956.62       0.62    2513.50 
   2534.50      42.94      353.0        7.8        135       2796   10940.92     956.55       0.58    2513.98 
   2535.00      35.74      354.1        6.7        135       2797   10703.48     956.51       0.58    2514.45 
   2535.50      52.44      352.8        8.1        134       2800   11131.96     956.64       0.55    2514.93 
   2536.00      40.95      354.1        6.7        136       2798   10804.15     956.58       0.57    2515.41 
   2536.50      38.15      353.3        7.5        135       2800   10764.55     956.50       0.59    2515.89 
   2537.00      39.60      353.1        7.7        136       2797   10375.06     956.55       0.59    2516.36 
   2537.50      50.79      353.8        7.0        136       2798   10421.74     956.47       0.54    2516.84 
   2538.00      33.59      353.7        7.1        137       2798   10462.08     956.45       0.60    2517.32 
   2538.50      46.02      354.5        6.3        136       2803   10807.23     956.56       0.54    2517.80 
   2539.00      58.48      352.9        7.9        136       2801   10917.36     956.39       0.53    2518.27 
   2539.50      27.63      354.3        6.6        135       2799   10718.31     956.49       0.62    2518.75 
   2540.00      51.40      353.3        7.5        135       2795   10796.26     956.48       0.55    2519.23 
   2540.50      41.40      354.5        6.3        134       2803   11161.64     956.42       0.56    2519.71 
   2541.00      36.43      354.7        6.1        135       2798   10962.74     956.56       0.57    2520.18 
   2541.50      62.56      352.7        8.1        135       2800   10637.46     956.59       0.53    2520.66 
   2542.00      27.17      354.3        6.5        135       2794   10893.36     956.52       0.62    2521.14 
   2542.50      43.57      353.0        7.8        135       2794   11307.71     956.56       0.57    2521.62 
   2543.00      36.42      354.6        6.2        136       2797   10956.59     956.56       0.57    2522.09 
   2543.50      28.96      351.1        9.7        138       2670    9496.04     926.38       0.66    2522.57 
   2544.00      28.69      350.5       10.3        140       2507    8985.96     905.09       0.68    2523.05 
   2544.50      23.32      350.8       10.0        140       2438    8778.25     880.45       0.70    2523.53 
   2545.00      29.26      350.9        9.9        140       2447    8778.94     884.46       0.67    2524.00 
   2545.50      11.12      352.0        8.8        142       2514    8279.82     903.65       0.80    2524.48 
   2546.00      30.27      352.4        8.4        139       2775    9292.04     952.59       0.64    2524.96 
   2546.50      55.16      352.7        8.1        139       2777    9436.97     952.35       0.55    2525.44 
   2547.00      30.37      352.6        8.2        138       2779    9653.06     952.29       0.64    2525.91 
   2547.50      40.48      352.6        8.2        138       2777    9982.16     952.24       0.59    2526.39 
   2548.00      48.86      352.9        7.9        138       2778    9714.98     952.21       0.56    2526.87 
   2548.50      38.60      352.1        8.7        137       2781   10336.89     952.18       0.61    2527.35 
   2549.00      43.57      352.7        8.1        138       2782   10256.41     952.31       0.58    2527.82 
   2549.50      38.73      352.6        8.2        138       2775    9874.18     952.28       0.60    2528.30 
   2550.00      34.70      352.4        8.4        137       2782   10406.64     952.22       0.62    2528.78 
   2550.50      49.49      353.1        7.7        136       2780   10529.27     952.24       0.56    2529.26 
   2551.00      43.06      352.6        8.2        137       2783   10319.72     952.35       0.59    2529.73 
   2551.50      42.12      352.6        8.2        136       2783   10306.89     952.37       0.59    2530.21 
   2552.00      25.88      353.5        7.3        139       2783    9931.57     952.31       0.64    2530.69 
   2552.50      43.23      352.8        8.0        137       2778   10227.90     952.43       0.58    2531.17 
   2553.00      39.76      354.2        6.6        136       2780   10475.02     952.36       0.57    2531.64 
   2553.50      39.55      353.7        7.1        137       2784   10073.02     952.35       0.58    2532.12 
   2554.00      16.02      354.4        6.7        141       2786    8165.52     952.74       0.70    2532.60 
   2554.50      32.38      357.7        5.2        128       2815    8597.13     956.41       0.56    2533.08 
   2555.00      27.48      357.9        5.0        127       2811    9178.79     956.49       0.58    2533.55 
   2555.50      27.45      357.5        5.4        125       2809    9916.76     956.54       0.59    2534.03 
   2556.00      22.16      356.2        6.7        119       2810   12117.96     956.66       0.63    2534.51 
   2556.50      40.19      355.2        7.7        124       2811   10605.10     956.69       0.57    2534.99 
   2557.00      16.61      357.4        5.6        131       2803    9040.38     956.66       0.66    2535.46 
   2557.50      20.46      357.9        5.0        132       2800    8477.73     956.91       0.62    2535.94 
   2558.00      34.26      358.2        4.7        131       2800    8671.09     956.92       0.55    2536.42 
   2558.50      29.88      359.1        3.9        129       2801    9318.99     957.14       0.54    2536.90 
   2559.00      39.09      357.4        5.5        129       2800    9851.10     956.96       0.54    2537.37 
