~VERSION INFORMATION
VERS.    2.0:   CWLS LOG ASCII STANDARD - VERSION 2.0
WRAP.     NO:   ONE LINE PER STEP
~WELL INFORMATION BLOCK
#MNEM.UNIT      DATA                  DESCRIPTION OF MNEMONIC
#----   --------             ---------------
STRT.m  260.00                   :START DEPTH
STOP.m  5139.00                   :STOP DEPTH
STEP.m  0.50                   :STEP VALUE
NULL.   0                   :NULL VALUE
COMP.   SHELL                   :COMPANY NAME
WELL.   PRELUDE P1 ST1                   :WELL NAME
FLD .   PRELUDE                   :FIELD NAME
LOC .   BROWSE BASIN                   :LOCATION
PROV.   NORTH WEST SHELF, W.A.                   :PROVINCE
SRVC.   Geoservices                   :SERVICE COMPANY NAME
DATE.   01-10-2015 15:41:26                   :DATE
UWI .                      :UNIQUE WELL IDENTIFIER
~CURVE INFORMATION
#MNEM.UNIT       API CODE        CURVE DESCRIPTION
#----   -------- ------------------
Tot Depth .m        :Tot Depth
ROP m/hr .m/h        :ROP m/hr
WOH .klbs        :WOH
WOB .klbs        :WOB
RPM .rpm        :RPM
SPP .psi        :SPP
TORQUE .lb*ft        :TORQUE
FLWpmps .gpm        :FLWpmps
D Exp .....        :D Exp
TVD Depth .m        :TVD Depth
#
#-----------------------------------------------------------
# Tot Depth (m)   ROP m/hr (m/h)   WOH (klbs)   WOB (klbs)   RPM (rpm)   SPP (psi)   TORQUE (lb*ft)   FLWpmps (gpm)   D Exp (....)   TVD Depth (m)
#-----------------------------------------------------------
~A
# ...
   5114.50       7.27      445.0        4.7         80       1325   20321.54     325.88       0.85    4102.81 
   5115.00       7.84      445.9        3.8         81       1330   19799.14     332.83       0.80    4102.85 
   5115.50       8.56      446.1        3.6         81       1370   19068.36     336.02       0.78    4102.89 
   5116.00       7.63      446.5        3.1         81       1396   19138.01     342.30       0.78    4102.93 
   5116.50       8.02      447.1        2.5         82       1392   18995.94     342.41       0.75    4102.97 
   5117.00       5.52      446.2        3.5         82       1390   18458.39     342.52       0.85    4103.00 
   5117.50       4.98      446.7        2.9         81       1374   19294.11     339.95       0.83    4103.04 
   5118.00       3.84      447.2        2.5         83       1302   18066.46     325.57       0.85    4103.08 
   5118.50       6.73      449.4        1.0         82       1416   18268.40     347.16       0.72    4103.12 
   5119.00       9.07      449.4        3.2         82       1424   18455.46     346.79       0.76    4103.16 
   5119.50      11.64      448.3        4.3         82       1427   19021.09     346.74       0.76    4103.20 
   5120.00       7.01      448.5        4.1         82       1427   19008.47     346.67       0.84    4103.24 
   5120.50       7.92      449.8        2.8         81       1430   19140.00     346.60       0.76    4103.28 
   5121.00      12.90      450.2        2.4         81       1436   19160.55     346.41       0.67    4103.32 
   5121.50       6.62      450.6        2.0         82       1428   18218.04     344.14       0.74    4103.36 
   5122.00       4.13      449.6        3.0         82       1423   17665.20     342.30       0.87    4103.40 
   5122.50       7.32      449.8        2.8         82       1423   17960.74     342.30       0.77    4103.44 
   5123.00       5.99      449.8        2.7         81       1421   18358.91     342.34       0.80    4103.48 
   5123.50       4.65      450.4        2.2         82       1408   18257.68     338.49       0.80    4103.52 
   5124.00       3.57      450.4        2.2         82       1337   17634.49     326.66       0.84    4103.56 
   5124.50       6.85      450.0        2.6         81       1418   18390.04     341.33       0.77    4103.59 
   5125.00       6.37      450.1        2.5         81       1417   18990.51     341.78       0.77    4103.63 
   5125.50       5.23      450.5        2.1         82       1407   18158.22     340.80       0.78    4103.67 
   5126.00       6.56      450.6        2.0         82       1411   18225.25     341.27       0.74    4103.71 
   5126.50       8.49      450.6        2.0         81       1411   18493.46     341.21       0.71    4103.75 
   5127.00       7.53      450.6        1.9         80       1411   19292.89     341.23       0.72    4103.79 
   5127.50      12.55      450.4        2.2         81       1412   19243.67     341.22       0.66    4103.83 
   5128.00       6.82      450.3        2.3         81       1412   19265.58     341.19       0.75    4103.87 
   5128.50      10.41      450.3        2.3         80       1413   19700.62     341.15       0.69    4103.91 
   5129.00      11.64      450.5        2.1         81       1415   19688.21     341.10       0.67    4103.95 
   5129.50       7.67      451.3        1.2         80       1415   19869.21     341.07       0.66    4103.99 
   5130.00      10.95      452.1        2.3         80       1415   19838.84     341.04       0.68    4104.03 
   5130.50       9.10      452.1        2.6         80       1415   20104.21     341.04       0.73    4104.07 
   5131.00      10.92      452.1        2.5         80       1414   20184.58     341.07       0.70    4104.11 
   5131.50      10.06      452.6        2.1         80       1416   19944.18     340.98       0.69    4104.15 
   5132.00       5.30      452.6        2.1         81       1398   19506.63     336.41       0.78    4104.18 
   5132.50       7.37      453.3        1.4         81       1393   19016.06     335.90       0.68    4104.22 
   5133.00      10.81      453.3        1.5         81       1410   18942.97     340.42       0.64    4104.26 
   5133.50       6.70      453.2        1.6         79       1400   18539.42     337.15       0.71    4104.30 
   5134.00      11.16      453.4        1.3         78       1402   18789.90     337.00       0.62    4104.34 
   5134.50       7.04      453.6        1.5         78       1403   18755.10     336.96       0.69    4104.38 
   5135.00       7.76      453.6        2.2         78       1405   19585.67     336.87       0.72    4104.42 
   5135.50      11.17      453.1        2.7         78       1406   19669.62     336.74       0.70    4104.46 
   5136.00       7.23      454.1        1.7         79       1407   19718.39     336.68       0.71    4104.50 
   5136.50      12.41      454.0        1.8         79       1408   19783.40     336.67       0.64    4104.54 
   5137.00       6.97      454.0        1.8         79       1409   19640.88     336.67       0.72    4104.58 
   5137.50       8.27      454.0        1.8         79       1409   19884.95     336.62       0.69    4104.62 
   5138.00      10.18      454.0        1.7         79       1411   19648.86     336.55       0.66    4104.66 
   5138.50       4.75      454.9        1.6         77       1419   17995.09     340.01       0.75    4104.70 
   5139.00       3.91      454.9        2.2         77       1422   17411.36     341.20       0.82    4104.73 
