~VERSION INFORMATION
VERS.    2.0:   CWLS LOG ASCII STANDARD - VERSION 2.0
WRAP.     NO:   ONE LINE PER STEP
~WELL INFORMATION BLOCK
#MNEM.UNIT      DATA                  DESCRIPTION OF MNEMONIC
#----   --------             ---------------
STRT.m  260.00                   :START DEPTH
STOP.m  5139.00                   :STOP DEPTH
STEP.m  0.50                   :STEP VALUE
NULL.   0                   :NULL VALUE
COMP.   SHELL                   :COMPANY NAME
WELL.   PRELUDE P1 ST1                   :WELL NAME
FLD .   PRELUDE                   :FIELD NAME
LOC .   BROWSE BASIN                   :LOCATION
PROV.   NORTH WEST SHELF, W.A.                   :PROVINCE
SRVC.   Geoservices                   :SERVICE COMPANY NAME
DATE.   01-10-2015 15:41:26                   :DATE
UWI .                      :UNIQUE WELL IDENTIFIER
~CURVE INFORMATION
#MNEM.UNIT       API CODE        CURVE DESCRIPTION
#----   -------- ------------------
Tot Depth .m        :Tot Depth
ROP m/hr .m/h        :ROP m/hr
WOH .klbs        :WOH
WOB .klbs        :WOB
RPM .rpm        :RPM
SPP .psi        :SPP
TORQUE .lb*ft        :TORQUE
FLWpmps .gpm        :FLWpmps
D Exp .....        :D Exp
TVD Depth .m        :TVD Depth
#
#-----------------------------------------------------------
# Tot Depth (m)   ROP m/hr (m/h)   WOH (klbs)   WOB (klbs)   RPM (rpm)   SPP (psi)   TORQUE (lb*ft)   FLWpmps (gpm)   D Exp (....)   TVD Depth (m)
#-----------------------------------------------------------
~A
# ...
   4786.00       6.80      416.9       10.2         94       1332   16157.25     382.28       1.05    4073.49 
   4786.50      14.44      394.9       12.4         95       1333   15684.96     382.28       0.96    4073.53 
   4787.00       4.16      395.5       11.8         97       1335   15167.62     382.26       1.20    4073.58 
   4787.50       8.03      395.5       11.8         94       1333   16233.20     382.33       1.06    4073.62 
   4788.00       9.84      395.7       11.6         91       1330   17133.57     382.44       1.01    4073.67 
   4788.50      13.28      395.2       12.2         90       1330   17362.30     382.44       0.96    4073.71 
   4789.00       9.51      394.9       12.4         89       1330   17530.18     382.42       1.03    4073.76 
   4789.50      11.05      394.7       12.6         88       1331   17993.08     382.35       1.00    4073.80 
   4790.00      12.86      394.0       13.3         88       1333   18075.30     382.12       0.98    4073.85 
   4790.50       7.12      394.5       13.3         91       1332   16977.88     382.35       1.11    4073.89 
   4791.00      10.89      420.2        5.8         83       1337   17089.78     382.38       0.83    4073.94 
   4791.50      12.87      418.3        8.2         79       1335   18243.79     382.56       0.85    4073.98 
   4792.00      15.03      418.7        7.8         78       1334   18608.86     382.60       0.81    4074.03 
   4792.50       9.32      419.4        7.1         87       1336   18754.62     382.55       0.90    4074.07 
   4793.00      20.91      418.9        7.7         90       1344   18563.99     382.08       0.78    4074.12 
   4793.50      11.07      418.8        7.7         91       1345   18163.20     381.98       0.89    4074.16 
   4794.00       8.14      419.3        7.8         92       1347   17791.33     381.86       0.95    4074.21 
   4794.50      11.75      418.1        8.4         92       1350   17834.11     381.73       0.90    4074.25 
   4795.00       9.35      418.9        7.5         91       1350   18087.93     381.74       0.92    4074.30 
   4795.50      11.39      419.6        5.1         91       1353   18075.83     381.70       0.82    4074.34 
   4796.00      11.44      419.3        4.7         92       1356   17847.08     381.70       0.80    4074.39 
   4796.50      12.80      419.1        4.8         91       1356   17974.73     381.55       0.79    4074.43 
   4797.00      11.42      419.0        5.0         91       1356   17930.46     381.44       0.81    4074.48 
   4797.50       9.86      419.0        5.0         91       1358   18086.39     381.40       0.83    4074.52 
   4798.00       9.25      418.2        5.8         91       1360   18090.88     381.29       0.87    4074.57 
   4798.50      12.05      421.4        3.4         90       1363   18218.82     381.24       0.74    4074.62 
   4799.00      10.89      420.0        3.9         90       1365   18325.34     381.21       0.78    4074.66 
   4799.50      20.60      419.9        4.1         90       1367   18263.49     381.30       0.68    4074.71 
   4800.00      12.50      420.5        3.5         90       1367   18198.03     381.33       0.74    4074.76 
   4800.50       9.81      420.4        3.6         90       1368   18425.93     381.30       0.78    4074.81 
   4801.00      11.41      419.9        4.1         90       1370   18260.19     381.08       0.78    4074.85 
   4801.50      12.72      420.0        4.0         90       1372   18209.57     381.02       0.76    4074.90 
   4802.00      10.31      420.3        3.6         90       1375   18427.43     380.93       0.78    4074.95 
   4802.50      15.66      420.7        3.3         87       1371   18982.32     381.12       0.69    4074.99 
   4803.00       8.47      420.8        3.2         88       1369   19020.81     381.34       0.78    4075.04 
   4803.50      11.86      421.6        2.4         90       1380   18267.56     380.86       0.70    4075.09 
   4804.00       8.50      421.8        2.2         92       1382   17781.58     380.79       0.74    4075.14 
   4804.50       8.37      421.8        2.2         92       1382   17597.50     380.74       0.74    4075.18 
   4805.00       8.80      421.1        2.8         91       1382   17919.04     380.85       0.77    4075.23 
   4805.50      10.13      420.2        3.8         91       1383   18036.84     380.92       0.79    4075.28 
   4806.00       8.26      419.8        4.2         89       1381   18575.39     380.82       0.83    4075.32 
   4806.50      11.53      420.2        3.7         88       1380   19033.41     380.68       0.76    4075.37 
   4807.00      11.11      420.9        3.0         89       1382   18540.34     380.78       0.74    4075.42 
   4807.50       8.78      421.3        3.4         89       1385   18492.63     380.72       0.79    4075.47 
   4808.00      11.52      421.4        4.1         89       1387   18424.14     380.59       0.78    4075.51 
   4808.50      10.45      421.3        4.4         88       1386   18672.52     380.64       0.80    4075.56 
   4809.00       8.09      420.4        5.1         89       1387   18645.97     380.59       0.87    4075.61 
   4809.50       6.88      421.4        4.2         89       1389   18687.15     380.52       0.86    4075.65 
   4810.00      13.33      421.6        3.9         86       1390   19374.27     380.52       0.74    4075.70 
   4810.50      10.20      421.1        4.4         87       1390   19337.76     380.63       0.80    4075.75 
   4811.00       7.31      420.7        4.8         87       1390   19203.63     380.56       0.87    4075.80 
   4811.50       8.39      421.0        4.5         88       1389   18859.79     380.56       0.84    4075.84 
   4812.00      11.27      420.9        4.7         89       1389   18629.55     380.72       0.80    4075.89 
   4812.50       8.76      421.5        4.1         88       1389   18796.87     380.74       0.81    4075.94 
   4813.00      10.07      422.5        3.0         88       1387   18855.11     380.85       0.75    4075.98 
   4813.50      10.88      421.7        3.8         88       1387   18715.40     380.87       0.77    4076.03 
   4814.00       8.43      422.0        3.5         88       1388   19025.54     380.94       0.80    4076.08 
   4814.50      11.53      421.9        3.7         86       1386   19600.33     381.04       0.75    4076.13 
   4815.00       8.94      421.5        4.0         86       1385   19521.85     381.10       0.81    4076.17 
   4815.50       7.74      420.9        4.7         86       1385   19432.77     381.20       0.85    4076.22 
   4816.00       9.48      419.8        5.7         87       1387   19096.27     381.04       0.86    4076.27 
   4816.50       8.07      419.8        5.7         89       1388   18597.51     381.01       0.89    4076.31 
   4817.00       9.47      419.7        5.8         88       1387   18901.87     381.02       0.86    4076.36 
   4817.50       9.13      420.4        5.1         89       1385   18657.36     381.13       0.85    4076.41 
   4818.00       8.96      419.4        6.2         89       1384   18600.54     381.18       0.88    4076.46 
   4818.50      10.91      420.1        5.5         88       1383   18655.87     381.20       0.83    4076.50 
   4819.00       7.90      420.7        4.9         89       1382   18594.91     381.30       0.86    4076.55 
   4819.50       6.29      420.1        5.6         89       1381   18444.64     381.44       0.93    4076.60 
   4820.00       7.97      412.7        1.0         87       1368   16797.70     381.56       0.65    4076.64 
   4820.50      11.87      409.8        3.1         91       1367   17383.91     381.38       0.74    4076.69 
   4821.00       7.53      410.0        5.2         89       1369   17942.44     381.39       0.88    4076.74 
   4821.50      16.44      410.2        5.0         85       1368   19106.65     381.49       0.74    4076.79 
   4822.00      11.73      409.6        5.5         87       1365   20595.23     381.52       0.82    4076.83 
