~VERSION INFORMATION
VERS.    2.0:   CWLS LOG ASCII STANDARD - VERSION 2.0
WRAP.     NO:   ONE LINE PER STEP
~WELL INFORMATION BLOCK
#MNEM.UNIT      DATA                  DESCRIPTION OF MNEMONIC
#----   --------             ---------------
STRT.m  260.00                   :START DEPTH
STOP.m  5139.00                   :STOP DEPTH
STEP.m  0.50                   :STEP VALUE
NULL.   0                   :NULL VALUE
COMP.   SHELL                   :COMPANY NAME
WELL.   PRELUDE P1 ST1                   :WELL NAME
FLD .   PRELUDE                   :FIELD NAME
LOC .   BROWSE BASIN                   :LOCATION
PROV.   NORTH WEST SHELF, W.A.                   :PROVINCE
SRVC.   Geoservices                   :SERVICE COMPANY NAME
DATE.   01-10-2015 15:41:26                   :DATE
UWI .                      :UNIQUE WELL IDENTIFIER
~CURVE INFORMATION
#MNEM.UNIT       API CODE        CURVE DESCRIPTION
#----   -------- ------------------
Tot Depth .m        :Tot Depth
ROP m/hr .m/h        :ROP m/hr
WOH .klbs        :WOH
WOB .klbs        :WOB
RPM .rpm        :RPM
SPP .psi        :SPP
TORQUE .lb*ft        :TORQUE
FLWpmps .gpm        :FLWpmps
D Exp .....        :D Exp
TVD Depth .m        :TVD Depth
#
#-----------------------------------------------------------
# Tot Depth (m)   ROP m/hr (m/h)   WOH (klbs)   WOB (klbs)   RPM (rpm)   SPP (psi)   TORQUE (lb*ft)   FLWpmps (gpm)   D Exp (....)   TVD Depth (m)
#-----------------------------------------------------------
~A
# ...
    917.00      29.27      353.3        3.8        192       1988    6811.59    1057.00       0.40     916.97 
    917.50      49.78      353.0        4.1        191       2014    7565.15    1057.00       0.33     917.47 
    918.00      32.71      352.9        4.2        193       1989    6510.49    1057.00       0.39     917.97 
    918.50      31.15      352.9        4.3        194       1944    5361.56    1057.00       0.40     918.47 
    919.00      35.74      353.2        3.9        195       1923    4114.97    1057.00       0.38     918.97 
    919.50      30.70      354.6        2.5        194       1912    4620.74    1057.00       0.37     919.47 
    920.00      40.48      354.8        2.4        195       1915    4361.24    1057.00       0.33     919.97 
    920.50      34.62      355.6        1.5        194       1911    4833.53    1057.00       0.33     920.47 
    921.00      25.80      355.4        1.8        195       1905    4790.39    1057.00       0.37     920.97 
    921.50      53.87      355.0        2.1        193       1928    5101.72    1057.00       0.29     921.47 
    922.00      18.60      355.0        2.2        193       1969    6054.48    1057.00       0.43     921.97 
    922.50      15.36      355.1        2.0        195       1935    4768.12    1057.00       0.45     922.47 
    923.00      20.49      351.6        7.2        195       2085    3565.90    1101.71       0.50     922.97 
    923.50      29.37      349.9        9.8        195       2190    3408.18    1127.11       0.47     923.47 
    924.00      31.95      349.6       10.2        195       2185    3219.40    1127.55       0.46     923.97 
    924.50      37.24      349.4       10.4        195       2178    3177.40    1127.92       0.44     924.47 
    925.00      25.45      349.8       10.0        197       2184    2934.07    1135.63       0.50     924.97 
    925.50      31.33      350.0        9.7        198       2185    3007.42    1149.20       0.46     925.47 
    926.00      31.88      349.8        9.9        197       2206    3794.20    1149.20       0.46     925.97 
    926.50      25.45      350.0        9.8        197       2201    4019.32    1149.20       0.49     926.47 
    927.00      30.47      350.1        9.6        198       2187    3059.29    1149.20       0.46     926.97 
    927.50      31.31      349.9        9.8        198       2185    3447.83    1151.39       0.46     927.47 
    928.00      39.06      349.5       10.3        197       2197    3758.72    1154.60       0.43     927.97 
    928.50      27.43      349.7       10.0        197       2213    4230.43    1154.60       0.48     928.47 
    929.00      30.55      349.8       10.0        198       2219    4343.19    1154.60       0.47     928.97 
    929.50      28.64      349.7       10.1        197       2213    4050.22    1154.60       0.48     929.47 
    930.00      32.30      349.3       10.5        198       2201    3997.20    1154.60       0.46     929.97 
    930.50      25.34      349.6       10.2        195       2211    6031.63    1154.60       0.50     930.47 
    931.00      32.52      349.7       10.1        195       2236    5644.74    1154.60       0.46     930.97 
    931.50      44.88      349.3       10.5        195       2280    6052.67    1154.60       0.41     931.47 
    932.00      23.26      349.5       10.3        197       2224    4805.78    1154.60       0.52     931.97 
    932.50      28.26      349.3       10.4        197       2216    4636.35    1154.60       0.48     932.47 
    933.00      47.63      349.7       10.1        196       2212    4636.15    1154.60       0.39     932.97 
    933.50      29.74      349.5       10.3        198       2208    3770.62    1154.60       0.48     933.47 
    934.00      28.22      349.7       10.0        197       2193    3748.16    1154.60       0.48     933.97 
    934.50      26.26      349.9        9.9        197       2223    4434.03    1154.60       0.49     934.47 
    935.00      29.85      349.7       10.0        196       2241    5038.36    1154.60       0.47     934.97 
    935.50      38.77      349.4       10.4        196       2253    5351.71    1154.60       0.43     935.47 
    936.00      26.75      349.6       10.1        197       2251    5553.19    1154.60       0.49     935.97 
    936.50      26.10      349.9        9.9        196       2252    5272.05    1154.60       0.49     936.47 
    937.00      34.40      350.0        9.8        196       2253    5232.10    1154.60       0.45     936.97 
    937.50      30.26      350.4        9.4        196       2235    4726.36    1154.60       0.46     937.47 
    938.00      30.93      350.2        9.6        198       2231    4007.23    1154.60       0.46     937.97 
    938.50      28.46      350.5        9.2        197       2227    4318.03    1154.60       0.47     938.47 
    939.00      37.91      350.6        9.2        197       2223    4198.83    1154.60       0.42     938.97 
    939.50      28.02      350.5        9.3        198       2220    3892.94    1154.60       0.48     939.47 
    940.00      24.75      350.2        9.6        196       2250    5351.36    1154.60       0.50     939.97 
    940.50      41.27      350.5        9.3        194       2266    6108.69    1154.60       0.41     940.47 
    941.00      30.99      350.0        9.7        196       2287    5856.30    1154.60       0.46     940.97 
    941.50      19.13      350.3        9.4        197       2271    5322.13    1154.60       0.54     941.47 
    942.00      32.18      350.4        9.4        196       2240    4704.47    1154.60       0.45     941.97 
    942.50      37.12      350.4        9.4        197       2235    4509.26    1154.60       0.43     942.47 
    943.00      25.43      350.1        9.7        197       2246    4848.63    1154.60       0.49     942.97 
    943.50      28.33      350.1        9.7        197       2246    5008.41    1154.60       0.48     943.47 
    944.00      26.88      350.2        9.5        196       2244    5445.98    1154.60       0.48     943.97 
    944.50      29.04      349.7       10.0        194       2297    7393.34    1154.60       0.47     944.47 
    945.00      54.62      349.8        9.9        199       2223    6479.38    1154.60       0.37     944.97 
    945.50      32.30      350.3        9.5        199       2153    6119.17    1154.60       0.45     945.47 
    946.00      24.28      350.2        9.6        199       2138    5994.97    1154.60       0.50     945.97 
    946.50      32.95      350.0        9.7        199       2125    6369.02    1154.60       0.45     946.47 
    947.00      38.07      350.1        9.7        200       2111    5487.51    1154.60       0.43     946.97 
    947.50      35.67      350.5        9.2        200       2075    5133.93    1154.60       0.43     947.47 
    948.00      38.55      350.1        9.6        201       2075    5125.21    1154.60       0.43     947.97 
    948.50      22.04      350.4        9.4        201       2074    5073.72    1157.68       0.52     948.47 
    949.00      13.27      350.2       10.0        200       2086    4028.42    1153.27       0.60     948.97 
    949.50      13.27      350.2       10.0        200       2086    4028.42    1153.27       0.60     949.47 
    950.00      23.80      349.8       12.8        187       2155    5095.59    1113.91       0.52     949.97 
    950.50      23.80      349.8       12.8        187       2155    5095.59    1113.91       0.52     950.47 
    951.00      33.95      349.6       12.9        186       2179    5438.20    1112.33       0.46     950.97 
    951.50      21.14      349.4       13.2        185       2181    5700.25    1114.28       0.54     951.47 
    952.00      32.01      349.0       13.5        188       2190    5730.70    1130.82       0.47     951.97 
    952.50      18.71      349.5       13.0        187       2202    5937.18    1130.82       0.56     952.47 
    953.00      32.63      349.3       13.2        187       2213    6058.64    1130.82       0.47     952.97 
