~VERSION INFORMATION
VERS.    2.0:   CWLS LOG ASCII STANDARD - VERSION 2.0
WRAP.     NO:   ONE LINE PER STEP
~WELL INFORMATION BLOCK
#MNEM.UNIT      DATA                  DESCRIPTION OF MNEMONIC
#----   --------             ---------------
STRT.m  260.00                   :START DEPTH
STOP.m  5139.00                   :STOP DEPTH
STEP.m  0.50                   :STEP VALUE
NULL.   0                   :NULL VALUE
COMP.   SHELL                   :COMPANY NAME
WELL.   PRELUDE P1 ST1                   :WELL NAME
FLD .   PRELUDE                   :FIELD NAME
LOC .   BROWSE BASIN                   :LOCATION
PROV.   NORTH WEST SHELF, W.A.                   :PROVINCE
SRVC.   Geoservices                   :SERVICE COMPANY NAME
DATE.   01-10-2015 15:41:26                   :DATE
UWI .                      :UNIQUE WELL IDENTIFIER
~CURVE INFORMATION
#MNEM.UNIT       API CODE        CURVE DESCRIPTION
#----   -------- ------------------
Tot Depth .m        :Tot Depth
ROP m/hr .m/h        :ROP m/hr
WOH .klbs        :WOH
WOB .klbs        :WOB
RPM .rpm        :RPM
SPP .psi        :SPP
TORQUE .lb*ft        :TORQUE
FLWpmps .gpm        :FLWpmps
D Exp .....        :D Exp
TVD Depth .m        :TVD Depth
#
#-----------------------------------------------------------
# Tot Depth (m)   ROP m/hr (m/h)   WOH (klbs)   WOB (klbs)   RPM (rpm)   SPP (psi)   TORQUE (lb*ft)   FLWpmps (gpm)   D Exp (....)   TVD Depth (m)
#-----------------------------------------------------------
~A
# ...
   3837.00      28.22      416.4        6.0        150       3504   19308.30    1021.59       0.61    3746.24 
   3837.50      28.04      416.7        5.6        149       3506   19880.19    1021.57       0.60    3746.65 
   3838.00      31.97      417.3        5.1        150       3506   19651.75    1021.55       0.57    3747.06 
   3838.50      28.04      416.0        6.4        151       3503   18961.00    1021.54       0.61    3747.47 
   3839.00      32.80      416.8        5.6        151       3505   19297.81    1021.52       0.58    3747.89 
   3839.50      27.18      418.0        4.4        151       3504   19066.29    1021.57       0.58    3748.30 
   3840.00      30.47      418.5        3.9        152       3509   18734.33    1021.61       0.55    3748.71 
   3840.50      31.90      417.7        4.6        152       3507   18828.44    1021.57       0.56    3749.12 
   3841.00      29.88      417.4        5.0        150       3506   19492.54    1021.56       0.58    3749.53 
   3841.50      28.83      418.0        4.4        150       3503   19390.10    1021.43       0.57    3749.94 
   3842.00      21.61      417.6        4.8        148       3504   20532.54    1021.57       0.61    3750.35 
   3842.50      18.78      416.4        6.0        155       3502   17423.92    1021.67       0.66    3750.77 
   3843.00      24.30      419.2        3.3        158       3503   16197.00    1021.88       0.57    3751.18 
   3843.50      29.16      420.5        1.9        156       3500   16875.64    1021.80       0.50    3751.59 
   3844.00      21.44      418.7        3.7        158       3500   16441.37    1021.75       0.59    3752.00 
   3844.50      27.21      419.4        3.0        149       3508   19188.89    1021.60       0.54    3752.41 
   3845.00      33.80      418.4        3.9        151       3507   19151.46    1021.61       0.54    3752.82 
   3845.50      26.80      419.2        3.2        153       3504   18517.31    1021.82       0.55    3753.23 
   3846.00      29.50      419.5        3.0        152       3504   18954.66    1021.65       0.53    3753.65 
   3846.50      31.33      418.0        4.3        153       3503   18669.92    1021.70       0.56    3754.06 
   3847.00      28.80      419.2        3.2        151       3505   18909.31    1021.67       0.54    3754.47 
   3847.50      30.89      420.0        2.4        151       3505   19393.91    1021.71       0.50    3754.88 
   3848.00      30.27      418.5        3.9        150       3503   19637.26    1021.64       0.55    3755.29 
   3848.50      22.48      419.3        3.2        147       3513   20805.33    1021.66       0.56    3755.70 
   3849.00      26.03      417.9        4.5        162       3504   18869.72    1021.85       0.59    3756.11 
   3849.50      21.33      419.1        3.3        165       3504   16961.26    1021.86       0.59    3756.53 
   3850.00      17.32      419.3        3.1        168       3505   15662.33    1021.78       0.61    3756.94 
   3850.50      28.53      420.7        1.7        168       3508   16035.54    1021.72       0.50    3757.35 
   3851.00      21.89      418.6        3.7        166       3498   16442.06    1022.03       0.60    3757.76 
   3851.50      34.47      419.7        2.7        159       3497   19572.67    1021.97       0.51    3758.17 
   3852.00      29.04      419.1        3.3        161       3501   19014.34    1021.86       0.55    3758.58 
   3852.50      29.04      418.3        4.0        160       3503   19301.07    1021.83       0.57    3758.99 
   3853.00      31.97      420.3        2.1        160       3503   19519.16    1021.78       0.49    3759.41 
   3853.50      30.57      419.5        2.8        160       3501   19197.86    1021.79       0.53    3759.82 
   3854.00      37.20      419.9        2.6        160       3501   19082.03    1021.73       0.50    3760.23 
   3854.50      27.75      420.7        1.8        161       3499   18760.13    1021.82       0.50    3760.64 
   3855.00      25.67      420.1        2.3        160       3499   19149.47    1021.77       0.53    3761.05 
   3855.50      31.42      419.4        3.0        156       3501   21322.07    1021.76       0.53    3761.46 
   3856.00      29.88      421.1        1.3        156       3503   21091.61    1021.65       0.46    3761.87 
   3856.50      30.08      420.7        1.8        158       3503   20437.80    1021.68       0.49    3762.29 
   3857.00      19.20      420.7        2.3        162       3400   18435.25    1001.27       0.56    3762.70 
   3857.50       6.28      422.1        3.0        175       3642   12129.21    1048.73       0.73    3763.11 
   3858.00      19.60      423.3        3.5        171       3520   10252.84    1024.51       0.61    3763.52 
   3858.50      23.81      423.9        4.0        162       3513   14368.37    1024.85       0.59    3763.93 
   3859.00      31.82      422.8        5.2        159       3515   15688.27    1024.79       0.58    3764.34 
   3859.50      22.96      421.5        6.5        160       3515   15612.83    1024.92       0.65    3764.75 
   3860.00      20.20      422.0        5.9        158       3512   16061.01    1025.14       0.66    3765.17 
   3860.50      29.29      420.5        7.5        156       3518   17567.45    1024.96       0.63    3765.58 
   3861.00      23.75      423.4        4.6        156       3515   17465.89    1025.00       0.60    3765.99 
   3861.50      25.10      424.0        4.0        155       3513   17772.72    1025.02       0.58    3766.40 
   3862.00      26.41      423.8        4.1        155       3516   17966.16    1025.02       0.58    3766.81 
   3862.50      27.74      424.0        4.0        156       3519   17507.95    1025.16       0.57    3767.22 
   3863.00      26.80      424.7        3.2        156       3514   17296.66    1025.07       0.55    3767.63 
   3863.50      18.57      424.7        3.3        158       3489   16486.35    1016.08       0.60    3768.05 
   3864.00      17.65      415.3        2.8        163       3206   14490.51     973.16       0.59    3768.46 
   3864.50      15.66      413.2        4.7        165       3228   13568.75     975.86       0.67    3768.87 
   3865.00      13.33      421.2        1.4        167       3537   12550.55    1031.74       0.56    3769.28 
   3865.50      28.17      423.2        2.3        160       3511   15897.97    1024.80       0.52    3769.69 
   3866.00      27.70      423.4        3.9        160       3512   15705.53    1024.72       0.57    3770.10 
   3866.50      21.98      423.6        3.7        160       3508   15781.13    1024.81       0.59    3770.51 
   3867.00      27.90      424.1        3.1        158       3515   16393.61    1024.73       0.54    3770.92 
   3867.50      29.88      423.0        4.2        157       3514   17308.35    1024.64       0.57    3771.32 
   3868.00      25.88      420.7        6.5        156       3513   17540.12    1024.59       0.63    3771.72 
   3868.50      28.93      420.5        6.8        155       3515   17815.88    1024.54       0.62    3772.12 
   3869.00      24.46      421.4        5.9        156       3516   17314.50    1024.74       0.63    3772.52 
   3869.50      30.26      422.9        4.3        157       3518   17263.18    1024.72       0.57    3772.92 
   3870.00      26.82      421.6        3.9        155       3518   17516.13    1024.77       0.57    3773.32 
   3870.50      27.75      422.6        2.1        156       3519   17557.05    1024.65       0.51    3773.72 
   3871.00      32.92      424.4        2.0        155       3519   17821.83    1024.59       0.48    3774.12 
   3871.50      24.30      424.3        3.0        155       3515   18202.28    1024.57       0.55    3774.52 
   3872.00      28.93      423.6        3.8        156       3517   17783.09    1024.64       0.56    3774.92 
   3872.50      30.79      426.1        1.7        153       3520   18482.62    1024.72       0.48    3775.32 
   3873.00      26.46      424.9        2.5        155       3519   18223.57    1024.57       0.53    3775.72 
