~VERSION INFORMATION
VERS.    2.0:   CWLS LOG ASCII STANDARD - VERSION 2.0
WRAP.     NO:   ONE LINE PER STEP
~WELL INFORMATION BLOCK
#MNEM.UNIT      DATA                  DESCRIPTION OF MNEMONIC
#----   --------             ---------------
STRT.m  260.00                   :START DEPTH
STOP.m  5139.00                   :STOP DEPTH
STEP.m  0.50                   :STEP VALUE
NULL.   0                   :NULL VALUE
COMP.   SHELL                   :COMPANY NAME
WELL.   PRELUDE P1 ST1                   :WELL NAME
FLD .   PRELUDE                   :FIELD NAME
LOC .   BROWSE BASIN                   :LOCATION
PROV.   NORTH WEST SHELF, W.A.                   :PROVINCE
SRVC.   Geoservices                   :SERVICE COMPANY NAME
DATE.   01-10-2015 15:41:26                   :DATE
UWI .                      :UNIQUE WELL IDENTIFIER
~CURVE INFORMATION
#MNEM.UNIT       API CODE        CURVE DESCRIPTION
#----   -------- ------------------
Tot Depth .m        :Tot Depth
ROP m/hr .m/h        :ROP m/hr
WOH .klbs        :WOH
WOB .klbs        :WOB
RPM .rpm        :RPM
SPP .psi        :SPP
TORQUE .lb*ft        :TORQUE
FLWpmps .gpm        :FLWpmps
D Exp .....        :D Exp
TVD Depth .m        :TVD Depth
#
#-----------------------------------------------------------
# Tot Depth (m)   ROP m/hr (m/h)   WOH (klbs)   WOB (klbs)   RPM (rpm)   SPP (psi)   TORQUE (lb*ft)   FLWpmps (gpm)   D Exp (....)   TVD Depth (m)
#-----------------------------------------------------------
~A
# ...
   1537.50      35.74      330.4       17.0         89       1205          0     806.05       0.78    1537.19 
   1538.00      36.45      330.5       16.9         89       1209          0     806.04       0.78    1537.69 
   1538.50      37.94      330.6       16.8         89       1200          0     806.17       0.77    1538.19 
   1539.00      35.28      331.0       16.4         89       1209          0     806.09       0.78    1538.68 
   1539.50      37.17      330.9       16.4         89       1208          0     806.13       0.77    1539.18 
   1540.00      48.31      331.0       16.4         89       1206          0     806.13       0.71    1539.68 
   1540.50      35.58      330.7       16.7         89       1212          0     805.98       0.78    1540.18 
   1541.00      37.94      331.6       15.8         89       1207          0     806.26       0.76    1540.68 
   1541.50      35.72      331.3       16.1         89       1212          0     806.23       0.77    1541.17 
   1542.00      35.73      330.9       16.5         89       1212          0     806.25       0.78    1541.67 
   1542.50      37.19      331.8       15.6         88       1232          0     800.44       0.76    1542.17 
   1543.00      35.75      331.8       15.5         88       1198          0     800.98       0.77    1542.67 
   1543.50      35.71      331.7       15.7         88       1204          0     800.89       0.77    1543.17 
   1544.00      35.74      331.7       15.7         88       1190          0     801.02       0.77    1543.67 
   1544.50      38.00      331.3       16.1         88       1204          0     800.82       0.76    1544.16 
   1545.00      34.43      332.0       15.4         88       1234          0     800.23       0.77    1544.66 
   1545.50      37.19      332.0       15.4         88       1208          0     800.90       0.76    1545.16 
   1546.00      34.39      332.1       15.3         88       1229          0     800.38       0.77    1545.66 
   1546.50      27.91      332.7       14.7         88       1206          0     800.72       0.81    1546.16 
   1547.00      27.20      332.2       15.2         88       1194          0     801.05       0.82    1546.65 
   1547.50      31.97      332.1       15.3         88       1193          0     800.93       0.79    1547.15 
   1548.00      31.42      332.1       15.3         88       1189          0     800.98       0.79    1547.65 
   1548.50      18.58      332.2       15.2         88       1200          0     800.98       0.90    1548.15 
   1549.00      28.81      336.9       10.5        129       1512    2335.76     909.86       0.82    1548.65 
   1549.50      41.41      339.9        7.5        145       1623    3511.29     949.04       0.72    1549.15 
   1550.00      40.50      339.6        7.8        145       1619    3659.74     948.92       0.73    1549.64 
   1550.50      39.49      339.7        7.7        145       1617    3151.26     948.97       0.74    1550.14 
   1551.00      47.66      339.5        7.9        145       1612    3787.71     949.01       0.71    1550.64 
   1551.50      50.39      339.4        7.9        145       1606    3403.61     948.93       0.70    1551.14 
   1552.00      55.21      339.0        8.4        145       1614    3688.86     948.78       0.69    1551.64 
   1552.50      56.83      339.3        8.1        145       1623    4073.73     948.87       0.68    1552.13 
   1553.00      50.63      339.8        7.5        145       1619    3566.18     948.94       0.69    1552.63 
   1553.50      48.93      339.8        7.6        145       1614    3749.05     949.04       0.70    1553.13 
   1554.00      50.63      339.7        7.7        145       1617    3756.41     948.85       0.69    1553.63 
   1554.50      50.24      340.0        7.4        145       1622    4015.74     948.89       0.69    1554.13 
   1555.00      51.63      339.7        7.7        144       1641    4803.99     948.08       0.69    1554.63 
   1555.50      50.63      339.2        8.1        143       1662    4981.76     947.24       0.70    1555.12 
   1556.00      49.98      338.3        9.0        139       1740    8698.64     942.73       0.71    1555.62 
   1556.50      46.47      338.8        8.6        140       1707    7085.95     941.85       0.72    1556.12 
   1557.00      48.60      339.6        7.8        142       1667    5598.87     943.26       0.70    1556.62 
   1557.50      45.08      338.3        9.1        139       1709    7914.88     941.72       0.73    1557.12 
   1558.00      43.23      336.7       10.7        135       1802   11134.39     938.08       0.75    1557.61 
   1558.50      11.43      337.9        9.5        142       1727    5562.29     941.28       0.99    1558.11 
   1559.00      26.94      339.5        7.9        145       1624    3298.44     950.34       0.81    1558.61 
   1559.50      29.28      339.6        7.8        146       1621    3242.44     950.20       0.79    1559.11 
   1560.00      35.05      339.3        8.0        145       1636    3666.94     949.86       0.76    1559.61 
   1560.50      43.23      340.0        7.4        146       1627    3307.19     950.04       0.71    1560.11 
   1561.00      47.00      339.3        8.1        143       1669    5980.87     949.22       0.71    1560.60 
   1561.50      17.36      338.2        9.2        142       1745    6339.75     945.21       0.91    1561.10 
   1562.00      18.98      338.5        8.9        143       1696    5471.65     947.10       0.89    1561.60 
   1562.50       7.59      334.9       12.5        139       1785    8241.38     943.63       1.12    1562.10 
   1563.00      11.89      335.2       12.1        140       1764    7525.85     944.38       1.03    1562.60 
   1563.50      24.29      334.8       12.6        139       1794    7699.71     943.58       0.90    1563.09 
   1564.00      38.55      335.8       11.6        140       1775    8070.93     943.86       0.79    1563.59 
   1564.50      18.83      336.9       10.5        141       1736    6671.11     945.05       0.91    1564.09 
   1565.00      33.13      342.2        4.9        146       1661    4154.75     950.95       0.70    1564.59 
   1565.50      32.05      345.7        1.2        145       1666    4877.21     947.32       0.57    1565.09 
   1566.00      37.94      345.8        1.1        146       1662    4073.52     947.21       0.54    1565.59 
   1566.50      39.76      345.9        2.3        144       1659    5329.20     947.42       0.59    1566.08 
   1567.00      28.94      345.5        0.3        144       1685    5483.31     946.35       0.48    1566.58 
   1567.50      37.94      345.8        0.1        145       1666    4946.62     946.76       0.42    1567.08 
   1568.00      28.81      345.7        0.2        144       1662    4855.83     947.17       0.46    1567.58 
   1568.50      30.89      345.1        0.6        142       1706    7292.80     945.51       0.52    1568.08 
   1569.00      56.89      345.0        0.7        143       1722    6578.37     944.80       0.46    1568.57 
   1569.50      40.50      345.8        0.1        147       1631    2980.26     947.85       0.40    1569.07 
   1570.00      42.25      346.1        0.0        146       1627    3283.32     948.15       0.33    1569.57 
   1570.50      43.23      345.8        0.1        146       1649    3962.57     947.43       0.37    1570.07 
   1571.00      42.47      345.6        0.3        143       1695    5836.74     946.20       0.43    1570.57 
   1571.50      51.00      345.4        0.3        144       1697    5493.93     946.04       0.42    1571.06 
   1572.00      36.44      345.5        0.3        144       1680    5570.95     946.62       0.45    1571.56 
   1572.50      46.86      345.5        0.3        145       1696    5773.64     945.86       0.44    1572.06 
   1573.00      42.25      345.7        0.1        146       1630    3547.13     947.83       0.40    1572.56 
   1573.50      48.27      345.2        0.5        145       1655    4454.93     947.34       0.46    1573.06 
