~VERSION INFORMATION
VERS.    2.0:   CWLS LOG ASCII STANDARD - VERSION 2.0
WRAP.     NO:   ONE LINE PER STEP
~WELL INFORMATION BLOCK
#MNEM.UNIT      DATA                  DESCRIPTION OF MNEMONIC
#----   --------             ---------------
STRT.m  260.00                   :START DEPTH
STOP.m  5139.00                   :STOP DEPTH
STEP.m  0.50                   :STEP VALUE
NULL.   0                   :NULL VALUE
COMP.   SHELL                   :COMPANY NAME
WELL.   PRELUDE P1 ST1                   :WELL NAME
FLD .   PRELUDE                   :FIELD NAME
LOC .   BROWSE BASIN                   :LOCATION
PROV.   NORTH WEST SHELF, W.A.                   :PROVINCE
SRVC.   Geoservices                   :SERVICE COMPANY NAME
DATE.   01-10-2015 15:41:26                   :DATE
UWI .                      :UNIQUE WELL IDENTIFIER
~CURVE INFORMATION
#MNEM.UNIT       API CODE        CURVE DESCRIPTION
#----   -------- ------------------
Tot Depth .m        :Tot Depth
ROP m/hr .m/h        :ROP m/hr
WOH .klbs        :WOH
WOB .klbs        :WOB
RPM .rpm        :RPM
SPP .psi        :SPP
TORQUE .lb*ft        :TORQUE
FLWpmps .gpm        :FLWpmps
D Exp .....        :D Exp
TVD Depth .m        :TVD Depth
#
#-----------------------------------------------------------
# Tot Depth (m)   ROP m/hr (m/h)   WOH (klbs)   WOB (klbs)   RPM (rpm)   SPP (psi)   TORQUE (lb*ft)   FLWpmps (gpm)   D Exp (....)   TVD Depth (m)
#-----------------------------------------------------------
~A
# ...
   2851.50      47.20      396.1        1.2        140       2903   14782.24     981.16       0.41    2816.73 
   2852.00      42.59      395.1        1.2        141       2907   14261.63     981.12       0.42    2817.21 
   2852.50      36.45      394.9        0.1        137       2901   16229.44     981.22       0.32    2817.69 
   2853.00      40.15      396.5        0.9        137       2903   15997.37     981.11       0.40    2818.16 
   2853.50      58.33      394.7        5.3        135       2910   16589.13     981.00       0.49    2818.64 
   2854.00      32.73      395.9        4.1        139       2896   15379.68     981.16       0.54    2819.12 
   2854.50      42.25      395.2        4.8        138       2903   15950.53     981.11       0.53    2819.60 
   2855.00      54.16      394.3        5.7        138       2902   15715.25     981.04       0.51    2820.07 
   2855.50      36.45      395.5        4.5        137       2904   15981.92     981.06       0.54    2820.55 
   2856.00      30.36      393.2        6.8        138       2907   15567.79     980.99       0.61    2821.03 
   2856.50      43.31      395.1        4.9        139       2902   15791.46     981.16       0.53    2821.51 
   2857.00      53.10      394.6        5.4        140       2901   15379.24     981.17       0.51    2821.98 
   2857.50      38.01      395.3        4.6        141       2905   14469.71     981.11       0.54    2822.46 
   2858.00      44.45      394.9        5.1        140       2901   15048.07     981.22       0.53    2822.94 
   2858.50      51.59      395.7        4.3        139       2905   15315.40     981.12       0.49    2823.42 
   2859.00      46.58      394.9        5.1        139       2909   15627.37     981.03       0.52    2823.89 
   2859.50      38.91      393.9        6.1        140       2904   15527.27     981.10       0.56    2824.37 
   2860.00      50.79      395.5        4.4        138       2903   16371.79     981.00       0.50    2824.85 
   2860.50      40.35      395.5        4.5        137       2909   16344.54     981.06       0.53    2825.33 
   2861.00      40.40      393.2        7.5        144       2904   14252.58     981.09       0.49    2825.80 
   2861.50      39.36      394.5        6.1        142       2900   14652.68     980.90       0.47    2826.28 
   2862.00      48.10      393.0        5.3        141       2896   14876.27     981.11       0.45    2826.76 
   2862.50      40.35      395.5        4.5        137       2909   16344.54     981.06       0.53    2827.24 
   2863.00      50.79      395.5        4.4        138       2903   16371.79     981.00       0.50    2827.71 
   2863.50      41.36      394.5        6.1        142       2900   14652.68     980.90       0.47    2828.19 
   2864.00      38.40      393.2        7.5        144       2904   14252.58     981.09       0.49    2828.67 
   2864.50      42.67      393.7        5.3        141       2897   14556.92     981.00       0.47    2829.15 
   2865.00      40.10      393.0        5.3        141       2896   14876.27     981.11       0.46    2829.63 
   2865.50      35.22      393.6        4.7        138       2904   16583.25     981.06       0.45    2830.10 
   2866.00      46.82      394.6        3.8        139       2908   15732.82     981.16       0.45    2830.58 
   2866.50      59.59      394.3        4.1        139       2901   16049.37     981.19       0.45    2831.06 
   2867.00      43.77      394.0        4.3        139       2902   15787.45     981.16       0.45    2831.54 
   2867.50      41.40      394.3        4.1        141       2904   15330.67     980.99       0.45    2832.01 
   2868.00      35.14      392.7        5.6        140       2903   15379.00     980.93       0.45    2832.49 
   2868.50      42.48      393.8        4.5        138       2906   16024.24     980.91       0.45    2832.97 
   2869.00      46.33      392.8        5.5        139       2908   15617.88     980.79       0.46    2833.45 
   2869.50      57.83      394.4        3.9        137       2908   16207.90     980.78       0.42    2833.92 
   2870.00      48.25      394.2        4.4        131       2895   17285.09     980.93       0.42    2834.40 
   2870.50      55.98      393.8        4.8        137       2910   16941.59     980.95       0.45    2834.88 
   2871.00      53.08      392.7        6.1        137       2902   17243.95     981.04       0.46    2835.36 
   2871.50      43.21      393.7        5.0        133       2903   17554.99     980.94       0.43    2835.83 
   2872.00      56.78      393.5        5.1        137       2909   16777.78     980.80       0.47    2836.31 
   2872.50      35.43      393.1        2.3        135       2907   17598.54     980.91       0.48    2836.79 
   2873.00      26.10      393.6        3.0        136       2905   16976.04     980.82       0.54    2837.27 
   2873.50      35.49      393.9        4.9        137       2906   16847.37     980.72       0.55    2837.74 
   2874.00      28.96      393.1        5.4        138       2914   16124.74     980.64       0.59    2838.22 
   2874.50      53.63      394.4        0.0        138       2913   16601.68     980.68       0.25    2838.70 
   2875.00      43.30      393.7        0.1        127       2905   12484.41     980.73       0.30    2839.18 
   2875.50      35.26      385.5        6.3        133       2929   10566.57     983.43       0.58    2839.65 
   2876.00      43.74      388.9        2.5        133       2941   14505.02     986.58       0.46    2840.13 
   2876.50      43.14      390.1        1.3        131       2944   14770.12     986.64       0.42    2840.61 
   2877.00      29.89      387.9        3.4        132       2946   15362.35     986.60       0.53    2841.09 
   2877.50      56.92      389.0        2.3        130       2942   15960.88     986.66       0.42    2841.56 
   2878.00      32.51      388.9        2.5        128       2943   16509.09     986.69       0.49    2842.04 
   2878.50      38.13      387.5        3.8        135       2943   17128.09     986.76       0.52    2842.52 
   2879.00      34.86      388.0        3.6        142       2940   17500.66     986.80       0.53    2843.00 
   2879.50      46.10      386.6        4.7        143       2937   16999.48     986.80       0.52    2843.47 
   2880.00      43.92      386.5        4.8        145       2936   16765.25     986.95       0.53    2843.95 
   2880.50      35.67      386.8        4.5        144       2935   16800.62     987.04       0.55    2844.43 
   2881.00      34.42      386.5        4.8        145       2934   16458.63     986.95       0.56    2844.91 
   2881.50      34.30      386.8        4.4        145       2938   16358.83     986.90       0.55    2845.38 
   2882.00      40.08      386.2        5.1        144       2931   16669.28     986.99       0.55    2845.86 
   2882.50      38.95      386.3        5.0        146       2931   16380.04     986.92       0.55    2846.34 
   2883.00      32.58      387.1        4.1        144       2930   16571.81     986.85       0.55    2846.82 
   2883.50      36.45      386.3        5.0        145       2932   16635.74     987.09       0.56    2847.29 
   2884.00      52.28      386.7        4.6        147       2931   15568.45     986.98       0.50    2847.77 
   2884.50      41.76      385.9        5.4        148       2932   15732.96     987.01       0.55    2848.25 
   2885.00      28.57      385.8        5.4        150       2933   14444.28     987.08       0.60    2848.72 
   2885.50      37.12      385.3        5.9        150       2928   14513.32     987.13       0.58    2849.20 
   2886.00      34.83      384.5        6.8        150       2928   14804.23     987.18       0.60    2849.68 
   2886.50      45.89      385.9        5.4        149       2928   14744.85     987.19       0.54    2850.16 
   2887.00      31.36      384.7        6.6        148       2931   15363.31     987.13       0.61    2850.63 
   2887.50      34.65      385.9        5.4        147       2930   15953.78     987.15       0.57    2851.11 
