~VERSION INFORMATION
VERS.    2.0:   CWLS LOG ASCII STANDARD - VERSION 2.0
WRAP.     NO:   ONE LINE PER STEP
~WELL INFORMATION BLOCK
#MNEM.UNIT      DATA                  DESCRIPTION OF MNEMONIC
#----   --------             ---------------
STRT.m  260.00                   :START DEPTH
STOP.m  5139.00                   :STOP DEPTH
STEP.m  0.50                   :STEP VALUE
NULL.   0                   :NULL VALUE
COMP.   SHELL                   :COMPANY NAME
WELL.   PRELUDE P1 ST1                   :WELL NAME
FLD .   PRELUDE                   :FIELD NAME
LOC .   BROWSE BASIN                   :LOCATION
PROV.   NORTH WEST SHELF, W.A.                   :PROVINCE
SRVC.   Geoservices                   :SERVICE COMPANY NAME
DATE.   01-10-2015 15:41:26                   :DATE
UWI .                      :UNIQUE WELL IDENTIFIER
~CURVE INFORMATION
#MNEM.UNIT       API CODE        CURVE DESCRIPTION
#----   -------- ------------------
Tot Depth .m        :Tot Depth
ROP m/hr .m/h        :ROP m/hr
WOH .klbs        :WOH
WOB .klbs        :WOB
RPM .rpm        :RPM
SPP .psi        :SPP
TORQUE .lb*ft        :TORQUE
FLWpmps .gpm        :FLWpmps
D Exp .....        :D Exp
TVD Depth .m        :TVD Depth
#
#-----------------------------------------------------------
# Tot Depth (m)   ROP m/hr (m/h)   WOH (klbs)   WOB (klbs)   RPM (rpm)   SPP (psi)   TORQUE (lb*ft)   FLWpmps (gpm)   D Exp (....)   TVD Depth (m)
#-----------------------------------------------------------
~A
# ...
    588.50      27.17      293.7        0.7         74       2177    6400.06    1182.50       0.32     588.49 
    589.00      38.36      293.3        1.1         74       2172    5905.67    1182.50       0.29     588.99 
    589.50      31.14      292.9        1.5         76       2170    4596.47    1182.50       0.50     589.49 
    590.00      29.32      293.1        1.2         77       2165    3797.60    1182.50       0.43     589.99 
    590.50      27.55      293.1        1.2         77       2165    3797.60    1182.50       0.43     590.49 
    591.00      35.12      293.1        1.2         77       2165    3797.60    1182.50       0.43     590.99 
    591.50      34.11      293.1        1.2         77       2165    3797.60    1182.50       0.43     591.49 
    592.00      31.21      293.1        1.2         77       2165    3797.60    1182.50       0.43     591.99 
    592.50      31.77      293.1        1.2         77       2165    3797.60    1182.50       0.43     592.49 
    593.00      37.66      293.1        1.2         77       2165    3797.60    1182.50       0.43     592.99 
    593.50      36.21      293.1        1.2         77       2165    3797.60    1182.50       0.43     593.49 
    594.00      32.45      293.1        1.2         77       2165    3797.60    1182.50       0.43     593.99 
    594.50      35.12      293.1        1.2         77       2165    3797.60    1182.50       0.43     594.49 
    595.00      26.45      297.8        0.3         77       2174    4062.81    1182.50       0.27     594.99 
    595.50      22.54      297.6        0.2         76       2158    5453.62    1182.50       0.32     595.49 
    596.00      25.65      297.6        0.3         77       2179    4774.50    1182.50       0.36     595.99 
    596.50      32.12      301.1        0.5         80       2174    2110.07    1183.52       0.51     596.49 
    597.00      42.90      301.1        0.4         78       2175    4404.34    1183.80       0.25     596.99 
    597.50      26.74      301.3        0.5         77       2168    4179.41    1183.69       0.31     597.49 
    598.00      37.11      302.7        0.4         77       2166    3914.12    1183.76       0.26     597.99 
    598.50      29.24      302.7        0.7         78       2165    4621.64    1184.03       0.31     598.49 
    599.00      25.36      304.1        0.8         77       2169    4468.44    1183.78       0.34     598.99 
    599.50      31.96      304.4        0.5         77       2164    4877.62    1183.71       0.29     599.49 
    600.00      37.94      305.1        0.6         78       2168    4436.50    1184.02       0.27     599.99 
    600.50      34.72      305.3        0.5         78       2175    3911.19    1183.80       0.28     600.49 
    601.00      34.02      305.3        0.7         78       2175    3911.19    1183.80       0.29     600.99 
    601.50      33.11      305.3        0.6         78       2175    3911.19    1183.80       0.28     601.49 
    602.00      32.13      305.3        0.5         78       2175    3911.19    1183.80       0.28     601.99 
    602.50      35.72      305.3        0.4         78       2175    3911.19    1183.80       0.27     602.49 
    603.00      37.15      304.3        0.7         77       2170    4879.36    1183.91       0.28     602.99 
    603.50      28.27      305.2        0.2         77       2175    4122.50    1183.86       0.27     603.49 
    604.00      28.27      305.2        0.2         77       2175    4122.50    1183.86       0.27     603.99 
    604.50      32.54      307.2        0.3         81       2174    1743.12    1183.42       0.48     604.49 
    605.00      32.37      309.1        0.1         76       2155    4932.17    1184.90       0.24     604.99 
    605.50      36.43      308.7        0.2         77       2156    5349.30    1184.88       0.24     605.49 
    606.00      35.00      308.3        0.2         77       2203    4596.65    1181.56       0.25     605.99 
    606.50      27.19      308.9        0.1         77       2239    4503.29    1178.29       0.26     606.49 
    607.00      42.22      308.5        0.1         76       2230    5217.87    1179.11       0.21     606.99 
    607.50      25.87      308.8        0.1         77       2145    4342.62    1186.63       0.26     607.49 
    608.00      29.36      309.0        0.2         76       2119    5276.76    1190.51       0.27     607.99 
    608.50      35.11      308.5        0.1         76       2123    5741.90    1189.68       0.23     608.49 
    609.00      27.81      308.7        0.1         77       2131    5727.24    1188.26       0.26     608.99 
    609.50      37.70      308.6        0.2         77       2140    4466.03    1187.44       0.24     609.49 
    610.00      40.39      308.9        0.2         78       2120    4334.25    1190.51       0.21     609.99 
    610.50      29.25      308.8        0.1         77       2133    4851.02    1188.30       0.22     610.49 
    611.00      30.24      308.2        0.1         75       2127    6210.23    1189.47       0.21     610.99 
    611.50      31.73      308.5        0.1         77       2105    4968.47    1191.90       0.20     611.49 
    612.00      34.74      308.8        0.5         79       2109    5368.91    1192.44       0.18     611.99 
    612.50      26.86      308.7        0.7         76       2098    5640.95    1192.78       0.29     612.49 
    613.00      32.86      308.8        0.6         76       2089    5357.26    1194.08       0.25     612.99 
    613.50      42.12      308.4        1.0         78       2138    4300.87    1188.29       0.25     613.49 
    614.00      40.46      308.5        0.8         76       2129    4734.54    1188.91       0.24     613.99 
    614.50      17.05      308.6        0.8         80       2138    2944.52    1187.88       0.35     614.49 
    615.00      38.75      308.3        1.1         77       2133    5026.69    1188.64       0.26     614.99 
    615.50      47.70      308.5        0.9         77       2138    4161.59    1187.83       0.22     615.49 
    616.00      32.30      309.0        0.4         77       2143    4705.85    1187.63       0.25     615.99 
    616.50      55.77      308.1        1.2         76       2127    5981.63    1189.40       0.21     616.49 
    617.00      47.26      308.7        0.7         77       2139    4914.61    1187.87       0.22     616.99 
    617.50      44.92      308.1        1.3         78       2133    4139.37    1188.65       0.25     617.49 
    618.00      29.48      308.2        1.1         78       2125    4626.50    1189.12       0.30     617.99 
    618.50      43.37      308.1        1.3         75       2127    5499.85    1189.32       0.25     618.49 
    619.00      50.99      308.3        1.1         79       2118    4029.24    1190.60       0.23     618.99 
    619.50      38.70      307.5        1.9         76       2119    4818.50    1191.29       0.28     619.49 
    620.00      44.40      305.1        2.3         76       2134    5519.42    1189.39       0.27     619.99 
    620.50      10.32      318.3        5.0        108        673    1130.89     629.77       0.56     620.49 
    621.00      13.70      317.1        5.8        113        779    1380.07     678.97       0.54     620.99 
    621.50       9.11      314.4        7.0        111        812    2970.97     670.20       0.62     621.49 
    622.00       6.61      314.8        2.8        112        786    1839.58     672.55       0.58     621.99 
    622.50      13.70      315.4        2.3        111        802    2346.67     669.51       0.46     622.49 
    623.00      15.31      315.1        2.5        113        782    1828.55     672.48       0.46     622.99 
    623.50      15.99      316.0        1.6        112        801    2309.40     670.81       0.42     623.49 
    624.00      18.79      316.0        1.6        111        803    2429.06     669.74       0.40     623.99 
    624.50      22.95      315.2        2.5        111        809    3014.65     668.44       0.40     624.49 
