~VERSION INFORMATION 
VERS  .    2.0                                     :CWLS Log ASCII Standard - VERSION 2.0
WRAP  .    NO                                      :One Line per Depth step
PROD  .    Schlumberger Technology Corp.           :LAS Producer
PROG  .    Horizon LASWriter 7.0.78557.3100        :LAS Program name and version
SOURCE.    17.5in Run-Drilling                     :Run&Pass Information
CREA  .    10/06/2017                              :LAS Creation date {MM/DD/YYYY}
#--------------------------------------------------
~WELL INFORMATION 
#MNEM           .UNIT                      DATA            :DESCRIPTION
#----            ------          --------------            -----------------------------
STRT            .m                    309.98160            :START DEPTH
STOP            .m                   2714.09160            :STOP DEPTH
STEP            .m                       0.1524            :STEP
NULL            .                       -999.25            :NULL VALUE
COMP            .                Woodside Energy Ltd       :COMPANY
WELL            .                         SRA01            :WELL NAME
FLD             .                      Sculptor            :FIELD NAME
RIGN            .                    Ocean Apex            :Rig Name
RIGTYP          .                Semi-Submersible          :Rig Type
SON             .                     17AWA0007            :Service Order Number
SRVC            .                  Schlumberger            :SERVICE COMPANY
DATE            .                    01/13/2017            :LOG DATE(Composite Date for Composite LAP) (MM/DD/YYYY)
CLAB            .                       County:            :County Label
CNTY            .                                          :COUNTY
SLAB            .                        State:            :State/Province Label
STAT            .                Western Australia         :STATE or PROVINCE
PROV            .                Western Australia         :STATE or PROVINCE
CTRY            .                     Australia            :COUNTRY
CONT_REGION     .                   Australasia            :Continent Region
SECT            .                                          :Section
TOWN            .                                          :Township
RANG            .                                          :Range
API             .                                          :API NUMBER
UWI             .                     17AWA0007            :UNIQUE WELL ID
LUL             .                Forward Port Deck         :Logging Unit Location
LUN             .                   OLU-MA-5088            :Logging Unit Number
LOC             .                         GWF-2            :FIELD LOCATION
FL1             .                N 7,810,790.200 m         :Field Location Line 1
FL2             .                E 366,341.060 m           :Field Location Line 2
LATI            .deg             19° 47' 39.055" S         :LATITUDE
LONG            .deg             115° 43' 26.349" E        :LONGITUDE
PDAT            .                         OTHER            :Local Permanent Datum
LMF             .                            DF            :Logging Measured From
APD             .m                     23.85000            :Elevation of Depth Reference (LMF) Above Permanent Datum
EPD             .m                     -1.60000            :Elevation of Permanent Datum (PDAT) above Mean Sea Level
EKB             .m                      -999.25            :Elevation of Kelly Bushing Above Permanent Datum
EDF             .m                     23.85000            :Elevation of Drill Floor Above Permanent Datum
EGL             .m                    -93.16000            :Elevation of Ground Level Above Permanent Datum
ECF             .m                      -999.25            :Elevation of Casing Flange above Permanent Datum
#--------------------------------------------------
~CURVE INFORMATION
#MNEM           .UNIT                  API CODE            :DESCRIPTION
#----            ------          --------------            -----------------------------
DEPT            .m                                         :                                                        Depth Index
TVD             .m                                         :(RT)    (DnMWorkflow)           (6in)                   True Vertical Depth
ROP5            .m/h                                       :(RT)    (DRILLING_SURFACE)      (6in)                   Rate of penetration averaged over the last 5 ft (1.5 m)
GR              .gAPI                                      :(RM)    (ARC9)                  (6in)                   Gamma Ray
GR_CAL          .gAPI                                      :(RM)    (ARC9)                  (6in)                   Calibrated Gamma Ray
GRR             .1/s                                       :(RM)    (ARC9)                  (6in)                   Raw Gamma Ray
TAB_RES         .h                                         :        (ARC9)                  (6in)                   Resistivity Time After Bit
P16H            .ohm.m                                     :(RM)    (ARC9)                  (6in)                   Phase Shift Resistivity 16 inch Spacing at 2 MHz, Environmentally Corrected.
P28H            .ohm.m                                     :(RM)    (ARC9)                  (6in)                   Phase Shift Resistivity 28 inch Spacing at 2 MHz, Environmentally Corrected.
P40H            .ohm.m                                     :(RM)    (ARC9)                  (6in)                   Phase Shift Resistivity 40 inch Spacing at 2 MHz, Environmentally Corrected.
A40H            .ohm.m                                     :(RM)    (ARC9)                  (6in)                   Attenuation Resistivity 40 inch Spacing at 2 MHz, Environmentally Corrected.
ECD             .g/cm3                                     :(RM)    (ARC9)                  (6in)                   Equivalent Circulating Density
DHAT            .degC                                      :(RM)    (ARC9)                  (6in)                   Downhole Annulus Temperature
DHAP            .psi                                       :(RM)    (ARC9)                  (6in)                   Downhole Annulus Pressure
#-------------------------------------------------------------
#            DEPT          TVD         ROP5           GR       GR_CAL          GRR      TAB_RES         P16H         P28H         P40H         A40H          ECD         DHAT         DHAP 
#                  (DnMWorkfl)  (DRILLING_)       (ARC9)       (ARC9)       (ARC9)       (ARC9)       (ARC9)       (ARC9)       (ARC9)       (ARC9)       (ARC9)       (ARC9)       (ARC9) 
#                         (RT)         (RT)         (RM)         (RM)         (RM)                      (RM)         (RM)         (RM)         (RM)         (RM)         (RM)         (RM) 
#                        (6in)        (6in)        (6in)        (6in)        (6in)        (6in)        (6in)        (6in)        (6in)        (6in)        (6in)        (6in)        (6in) 
~ASCII
# ...
       2216.96280   1836.31191     48.81863     18.95401     73.07188      6.52500      0.58654      1.38184      1.37088      1.57297      1.56882      1.28590     68.00000   3354.12532
       2217.11520   1836.40993     48.39879     20.31168     73.89133      6.56500      0.58585      1.41167      1.34991      1.61877      1.49111      1.28542     68.00000   3352.99983
       2217.26760   1836.50796     50.10591     20.28827     73.87720      6.49500      0.58640      1.30405      1.28530      1.44945      1.54342      1.28497     68.00000   3352.00052
       2217.42000   1836.60598     49.93892     21.02173     74.31989      6.59000      0.58607      1.36003      1.31352      1.44541      1.54909      1.28563     68.00000   3354.00059
       2217.57240   1836.70400     47.18429     22.59788     75.27119      6.62667      0.58418      1.27620      1.24219      1.41425      1.53804      1.28556     68.00000   3354.00059
       2217.72480   1836.80202     45.82494     23.41716     75.76569      6.79500      0.58404      1.31141      1.25766      1.40807      1.47814      1.28435     68.00000   3350.99975
       2217.87720   1836.90005     46.28615     24.61097     76.48623      6.59667      0.58404      1.40190      1.20251      1.33469      1.43650      1.28466     68.00000   3352.00052
       2218.02960   1836.99807     45.18062     27.83352     78.43124      7.08000      0.58238      1.27199      1.20226      1.36115      1.43879      1.28420     68.00000   3350.99975
       2218.18200   1837.09609     44.66859     27.81791     78.42182      7.00000      0.58252      1.22136      1.21018      1.36776      1.43626      1.28416     68.00000   3350.99975
       2218.33440   1837.19411     44.88218     22.71492     75.34184      6.67333      0.58459      1.21921      1.22062      1.31973      1.44549      1.28444     68.00000   3352.00052
       2218.48680   1837.29213     48.15186     20.10880     73.76888      6.31667      0.58529      1.27853      1.23086      1.36738      1.47433      1.28439     68.00000   3352.00052
       2218.63920   1837.39016     50.15774     21.76299     74.76729      6.80000      0.58655      1.33377      1.19859      1.35121      1.53028      1.28507     68.00000   3354.00059
       2218.79160   1837.48818     48.99442     22.73053     75.35126      6.54333      0.58779      1.31092      1.20571      1.30386      1.54318      1.28500     68.00000   3354.00059
       2218.94400   1837.58620     49.45331     22.05949     74.94624      6.78000      0.58834      1.29833      1.33102      1.36477      1.54275      1.28609     68.00000   3356.99997
       2219.09640   1837.68422     56.85042     19.37536     73.32619      6.42000      0.58986      1.48122      1.37757      1.52939      1.42293      1.28487     68.00000   3354.00059
       2219.24880   1837.78225     57.30035     15.65346     71.07979      6.33000      0.58959      1.20664      1.20381      1.31123      1.61783      1.28480     68.00000   3354.00059
       2219.40120   1837.88027     57.87776     13.81981     69.97306      6.07500      0.59181      1.31764      1.26306      1.45987      1.49518      1.28629     68.00000   3358.00073
       2219.55360   1837.97829     60.84071     13.46088     69.75642      6.28333      0.59251      1.61303      1.50388      1.66958      1.39465      1.28508     68.00000   3354.99990
       2219.70600   1838.07631     63.88095     11.83011     68.77215      6.04500      0.59390      1.30450      1.34504      1.42649      1.53253      1.28462     68.00000   3354.00059
       2219.85840   1838.17433     61.32524     10.17594     67.77375      5.96500      0.59321      1.20124      1.28829      1.39871      1.52079      1.28571     68.00000   3356.99997
       2220.01080   1838.27236     56.03955     11.32295     68.46604      6.01000      0.59043      1.40604      1.34027      1.53353      1.45255      1.28526     68.00000   3355.99921
       2220.16320   1838.37038     52.02736     17.56513     72.23360      6.24500      0.59015      1.26699      1.40855      1.48298      1.54356      1.28597     68.00000   3358.00073
       2220.31560   1838.46840     50.97042     24.67340     76.52391      7.06333      0.59015      1.49029      1.41540      1.62274      1.48724      1.28553     68.00000   3356.99997
       2220.46800   1838.56642     50.21909     24.25986     76.27431      6.71000      0.58932      1.55319      1.41650      1.49915      1.55709      1.28466     68.00000   3354.99990
       2220.62040   1838.66445     47.30991     20.35849     73.91958      6.51000      0.58946      1.63099      1.58206      1.74612      1.49287      1.28498     68.00000   3355.99921
       2220.77280   1838.76247     47.05614     18.34539     72.70454      6.43000      0.58751      1.49651      1.39697      1.54395      1.45140      1.28493     68.00000   3355.99921
       2220.92520   1838.86049     46.43995     19.04764     73.12840      6.36000      0.58716      1.23803      1.21818      1.41721      1.45157      1.28370     68.00000   3352.99983
       2221.07760   1838.95851     45.21009     23.12067     75.58673      6.73000      0.58667      1.39840      1.26560      1.41782      1.47730      1.28550     68.00000   3358.00073
       2221.23000   1839.05653     43.47809     27.59163     78.28525      6.93000      0.58419      1.26835      1.20764      1.40694      1.45374      1.28543     68.00000   3358.00073
       2221.38240   1839.15456     44.74627     32.13281     81.02615      7.11500      0.58418      1.28707      1.21673      1.25296      1.46647      1.28614     68.00000   3359.99935
       2221.53480   1839.25258     45.51596     36.65839     83.75763      7.51500      0.58404      1.34140      1.24155      1.37782      1.43347      1.28609     68.00000   3359.99935
       2221.68720   1839.35060     47.45628     35.56601     83.09830      7.49667      0.58210      1.41937      1.20942      1.36381      1.31016      1.28604     68.00000   3359.99935
       2221.83960   1839.44862     46.47413     26.28856     77.49876      6.90000      0.58098      1.41937      1.20942      1.36381      1.31016      1.28442     68.00000   3355.99921
       2221.99200   1839.54664     47.19511     16.82386     71.78620      6.13000      0.58140      1.35820      1.21710      1.37846      1.30108      1.28516     68.00000   3358.09645
       2222.14440   1839.64467     47.20882     16.03579     71.31055      6.24500      0.58140      1.26150      1.16240      1.32042      1.31504      1.28583     68.00000   3359.99935
       2222.29680   1839.74269     46.89247     20.72522     74.14092      6.61667      0.58113      1.29257      1.13829      1.19905      1.37856      1.28691     68.00000   3363.00018
       2222.44920   1839.84071     47.00176     22.87098     75.43603      6.76000      0.58000      1.23823      1.13914      1.30607      1.35486      1.28759     68.00000   3365.00025
       2222.60160   1839.93873     46.65473     20.59258     74.06087      6.56000      0.57968      1.31743      1.09794      1.26726      1.31867      1.28635     68.00000   3361.99942
       2222.75400   1840.03676     45.15688     19.91375     73.65115      6.33000      0.57862      1.30825      1.10648      1.29365      1.25365      1.28617     68.00000   3361.63102
       2222.90640   1840.13478     45.27126     24.99333     76.71700      6.84500      0.57807      1.31512      1.14474      1.25680      1.26801      1.28587     68.00000   3361.00011
       2223.05880   1840.23280     47.81833     28.80885     79.01992      7.13000      0.58056      1.41863      1.15019      1.21918      1.30332      1.28538     68.00000   3359.99935
       2223.21120   1840.33082     47.92007     29.01953     79.14708      6.86000      0.57876      1.27564      1.16589      1.31577      1.32583      1.28534     68.00000   3359.99935
       2223.36360   1840.42884     48.23037     31.73488     80.78597      7.16000      0.57876      1.34261      1.17832      1.28423      1.34565      1.28528     68.00000   3359.99935
