~VERSION INFORMATION 
VERS  .    2.0                                     :CWLS Log ASCII Standard - VERSION 2.0
WRAP  .    NO                                      :One Line per Depth step
PROD  .    Schlumberger Technology Corp.           :LAS Producer
PROG  .    Horizon LASWriter 7.0.78557.3100        :LAS Program name and version
SOURCE.    17.5in Run-Drilling                     :Run&Pass Information
CREA  .    10/06/2017                              :LAS Creation date {MM/DD/YYYY}
#--------------------------------------------------
~WELL INFORMATION 
#MNEM           .UNIT                      DATA            :DESCRIPTION
#----            ------          --------------            -----------------------------
STRT            .m                    309.98160            :START DEPTH
STOP            .m                   2714.09160            :STOP DEPTH
STEP            .m                       0.1524            :STEP
NULL            .                       -999.25            :NULL VALUE
COMP            .                Woodside Energy Ltd       :COMPANY
WELL            .                         SRA01            :WELL NAME
FLD             .                      Sculptor            :FIELD NAME
RIGN            .                    Ocean Apex            :Rig Name
RIGTYP          .                Semi-Submersible          :Rig Type
SON             .                     17AWA0007            :Service Order Number
SRVC            .                  Schlumberger            :SERVICE COMPANY
DATE            .                    01/13/2017            :LOG DATE(Composite Date for Composite LAP) (MM/DD/YYYY)
CLAB            .                       County:            :County Label
CNTY            .                                          :COUNTY
SLAB            .                        State:            :State/Province Label
STAT            .                Western Australia         :STATE or PROVINCE
PROV            .                Western Australia         :STATE or PROVINCE
CTRY            .                     Australia            :COUNTRY
CONT_REGION     .                   Australasia            :Continent Region
SECT            .                                          :Section
TOWN            .                                          :Township
RANG            .                                          :Range
API             .                                          :API NUMBER
UWI             .                     17AWA0007            :UNIQUE WELL ID
LUL             .                Forward Port Deck         :Logging Unit Location
LUN             .                   OLU-MA-5088            :Logging Unit Number
LOC             .                         GWF-2            :FIELD LOCATION
FL1             .                N 7,810,790.200 m         :Field Location Line 1
FL2             .                E 366,341.060 m           :Field Location Line 2
LATI            .deg             19° 47' 39.055" S         :LATITUDE
LONG            .deg             115° 43' 26.349" E        :LONGITUDE
PDAT            .                         OTHER            :Local Permanent Datum
LMF             .                            DF            :Logging Measured From
APD             .m                     23.85000            :Elevation of Depth Reference (LMF) Above Permanent Datum
EPD             .m                     -1.60000            :Elevation of Permanent Datum (PDAT) above Mean Sea Level
EKB             .m                      -999.25            :Elevation of Kelly Bushing Above Permanent Datum
EDF             .m                     23.85000            :Elevation of Drill Floor Above Permanent Datum
EGL             .m                    -93.16000            :Elevation of Ground Level Above Permanent Datum
ECF             .m                      -999.25            :Elevation of Casing Flange above Permanent Datum
#--------------------------------------------------
~CURVE INFORMATION
#MNEM           .UNIT                  API CODE            :DESCRIPTION
#----            ------          --------------            -----------------------------
DEPT            .m                                         :                                                        Depth Index
TVD             .m                                         :(RT)    (DnMWorkflow)           (6in)                   True Vertical Depth
ROP5            .m/h                                       :(RT)    (DRILLING_SURFACE)      (6in)                   Rate of penetration averaged over the last 5 ft (1.5 m)
GR              .gAPI                                      :(RM)    (ARC9)                  (6in)                   Gamma Ray
GR_CAL          .gAPI                                      :(RM)    (ARC9)                  (6in)                   Calibrated Gamma Ray
GRR             .1/s                                       :(RM)    (ARC9)                  (6in)                   Raw Gamma Ray
TAB_RES         .h                                         :        (ARC9)                  (6in)                   Resistivity Time After Bit
P16H            .ohm.m                                     :(RM)    (ARC9)                  (6in)                   Phase Shift Resistivity 16 inch Spacing at 2 MHz, Environmentally Corrected.
P28H            .ohm.m                                     :(RM)    (ARC9)                  (6in)                   Phase Shift Resistivity 28 inch Spacing at 2 MHz, Environmentally Corrected.
P40H            .ohm.m                                     :(RM)    (ARC9)                  (6in)                   Phase Shift Resistivity 40 inch Spacing at 2 MHz, Environmentally Corrected.
A40H            .ohm.m                                     :(RM)    (ARC9)                  (6in)                   Attenuation Resistivity 40 inch Spacing at 2 MHz, Environmentally Corrected.
ECD             .g/cm3                                     :(RM)    (ARC9)                  (6in)                   Equivalent Circulating Density
DHAT            .degC                                      :(RM)    (ARC9)                  (6in)                   Downhole Annulus Temperature
DHAP            .psi                                       :(RM)    (ARC9)                  (6in)                   Downhole Annulus Pressure
#-------------------------------------------------------------
#            DEPT          TVD         ROP5           GR       GR_CAL          GRR      TAB_RES         P16H         P28H         P40H         A40H          ECD         DHAT         DHAP 
#                  (DnMWorkfl)  (DRILLING_)       (ARC9)       (ARC9)       (ARC9)       (ARC9)       (ARC9)       (ARC9)       (ARC9)       (ARC9)       (ARC9)       (ARC9)       (ARC9) 
#                         (RT)         (RT)         (RM)         (RM)         (RM)                      (RM)         (RM)         (RM)         (RM)         (RM)         (RM)         (RM) 
#                        (6in)        (6in)        (6in)        (6in)        (6in)        (6in)        (6in)        (6in)        (6in)        (6in)        (6in)        (6in)        (6in) 
~ASCII
# ...
       2695.34640   2143.59684      3.79879     19.13003     72.82699      6.65000      3.37799      3.78791      2.73601      3.00503      2.94415      1.24349     74.00000   3787.00060
       2695.49880   2143.69462      3.52113     15.16464     70.41929      6.01000      3.60023      3.57526      2.64253      2.92140      2.93857      1.24345     74.00000   3787.00060
       2695.65120   2143.79241      3.49189     14.05576     69.74600      6.25125      3.58550      3.32814      2.59538      2.97345      2.91283      1.24306     75.00000   3785.99984
       2695.80360   2143.89020      3.60204     14.83398     70.21852      6.17048      3.58536      2.78058      2.46736      2.83375      3.01807      1.24268     75.00000   3785.00053
       2695.95600   2143.98799      3.85431     14.24973     69.86378      6.25800      3.58008      3.12720      2.78296      2.99535      3.01453      1.24296     75.00000   3785.99984
       2696.10840   2144.08580      3.96259     12.71683     68.93304      6.03818      3.58021      3.02698      3.02058      2.96733      3.00363      1.24286     75.00000   3785.99984
       2696.26080   2144.18360      4.00049     11.67622     68.30120      6.06091      3.55091      3.44456      2.49516      2.74458      2.90696      1.24216     75.00000   3783.99977
       2696.41320   2144.28141      3.76455     12.52589     68.81710      6.01167      3.53009      3.47601      2.45437      2.33493      3.10088      1.24308     75.00000   3787.00060
       2696.56560   2144.37923      3.58400     13.52081     69.42120      6.27000      3.49702      2.60554      2.17606      2.58850      3.10132      1.24270     75.00000   3785.99984
       2696.71800   2144.47705      3.63831     14.32452     69.90919      6.01636      3.48771      2.47851      2.15506      2.37575      3.15265      1.24265     75.00000   3785.99984
       2696.87040   2144.57488      4.06438     15.01566     70.32883      6.43800      3.48021      2.30867      2.23894      2.51124      2.97374      1.24326     75.00000   3787.99991
       2697.02280   2144.67272      4.54219     12.10476     68.56140      5.99688      3.46938      2.51310      2.39543      2.52820      2.84114      1.24252     75.00000   3785.99984
       2697.17520   2144.77055      4.29375      8.45048     66.34261      5.83200      3.44758      2.71192      2.55135      2.68002      2.79544      1.24282     75.00000   3787.00060
       2697.32760   2144.86840      4.01025      7.18438     65.57385      5.81765      3.42092      2.89838      2.32763      2.60989      2.78232      1.24209     75.00000   3785.00053
       2697.48000   2144.96625      3.74424      7.94226     66.03402      5.73917      3.38647      2.41737      2.34019      2.66693      2.90551      1.24237     75.00000   3785.99984
       2697.63240   2145.06410      3.78815     12.86329     69.02197      6.07333      3.37688      2.47219      2.27012      2.59499      2.90631      1.24395     75.00000   3791.00074
       2697.78480   2145.16196      3.98081     16.07124     70.96976      6.54091      3.35605      2.48820      2.25148      2.47743      2.87028      1.24224     75.00000   3785.99984
       2697.93720   2145.25982      4.15270     14.16318     69.81123      5.96091      3.33716      2.28838      2.25739      2.41258      2.94192      1.24284     75.00000   3787.99991
       2698.08960   2145.35769      4.18699     14.73799     70.16024      6.24333      3.31868      2.76051      2.61651      2.78159      2.86221      1.24311     75.00000   3789.00067
       2698.24200   2145.45557      4.18359     18.78152     72.61538      6.38200      3.30966      2.47539      2.71462      2.95372      2.81980      1.24372     75.00000   3791.00074
       2698.39440   2145.55345      4.10142     23.36911     75.40086      6.69111      3.28993      2.41400      2.66327      3.05887      2.79815      1.24235     75.00000   3787.00060
       2698.54680   2145.65133      3.91644     23.50422     75.48289      6.92000      3.26119      2.40809      2.60246      2.87185      2.82939      1.24196     75.00000   3785.99984
       2698.69920   2145.74922      4.03325     17.68145     71.94744      6.18214      3.24632      2.55307      2.49749      2.79165      2.91544      1.24289     75.00000   3789.00067
       2698.85160   2145.84712      4.33053     14.18668     69.82549      6.17778      3.24147      2.66362      2.40002      2.59375      2.79956      1.24185     75.00000   3785.99984
       2699.00400   2145.94502      4.66248      -999.25      -999.25      -999.25      3.22688      -999.25      -999.25      -999.25      -999.25      1.24213      -999.25   3787.00060
       2699.15640   2146.04293      4.45161      -999.25      -999.25      -999.25      -999.25      -999.25      -999.25      -999.25      -999.25      1.24271      -999.25   3789.00067
       2699.30880   2146.14084      4.48532      -999.25      -999.25      -999.25      -999.25      -999.25      -999.25      -999.25      -999.25      1.24234      -999.25   3787.99991
       2699.46120   2146.23876      4.45458      -999.25      -999.25      -999.25      -999.25      -999.25      -999.25      -999.25      -999.25      1.24227      -999.25   3787.99991
       2699.61360   2146.33668      4.44199      -999.25      -999.25      -999.25      -999.25      -999.25      -999.25      -999.25      -999.25      1.24224      -999.25   3787.99991
       2699.76600   2146.43460      4.51653      -999.25      -999.25      -999.25      -999.25      -999.25      -999.25      -999.25      -999.25      -999.25      -999.25      -999.25
       2699.91840   2146.53254      4.49505      -999.25      -999.25      -999.25      -999.25      -999.25      -999.25      -999.25      -999.25      -999.25      -999.25      -999.25
       2700.07080   2146.63047      4.74443      -999.25      -999.25      -999.25      -999.25      -999.25      -999.25      -999.25      -999.25      -999.25      -999.25      -999.25
       2700.22320   2146.72842      4.70444      -999.25      -999.25      -999.25      -999.25      -999.25      -999.25      -999.25      -999.25      -999.25      -999.25      -999.25
       2700.37560   2146.82637      4.62807      -999.25      -999.25      -999.25      -999.25      -999.25      -999.25      -999.25      -999.25      -999.25      -999.25      -999.25
       2700.52800   2146.92432      4.49110      -999.25      -999.25      -999.25      -999.25      -999.25      -999.25      -999.25      -999.25      -999.25      -999.25      -999.25
       2700.68040   2147.02228      4.82320      -999.25      -999.25      -999.25      -999.25      -999.25      -999.25      -999.25      -999.25      -999.25      -999.25      -999.25
       2700.83280   2147.12024      4.75727      -999.25      -999.25      -999.25      -999.25      -999.25      -999.25      -999.25      -999.25      -999.25      -999.25      -999.25
       2700.98520   2147.21821      4.84235      -999.25      -999.25      -999.25      -999.25      -999.25      -999.25      -999.25      -999.25      -999.25      -999.25      -999.25
       2701.13760   2147.31618      5.32537      -999.25      -999.25      -999.25      -999.25      -999.25      -999.25      -999.25      -999.25      -999.25      -999.25      -999.25
       2701.29000   2147.41416      4.96584      -999.25      -999.25      -999.25      -999.25      -999.25      -999.25      -999.25      -999.25      -999.25      -999.25      -999.25
       2701.44240   2147.51215      4.63144      -999.25      -999.25      -999.25      -999.25      -999.25      -999.25      -999.25      -999.25      -999.25      -999.25      -999.25
       2701.59480   2147.61014      4.72280      -999.25      -999.25      -999.25      -999.25      -999.25      -999.25      -999.25      -999.25      -999.25      -999.25      -999.25
       2701.74720   2147.70813      4.50692      -999.25      -999.25      -999.25      -999.25      -999.25      -999.25      -999.25      -999.25      -999.25      -999.25      -999.25
