~VERSION INFORMATION 
VERS  .    2.0                                     :CWLS Log ASCII Standard - VERSION 2.0
WRAP  .    NO                                      :One Line per Depth step
PROD  .    Schlumberger Technology Corp.           :LAS Producer
PROG  .    Horizon LASWriter 7.0.78557.3100        :LAS Program name and version
SOURCE.    17.5in Run-Drilling                     :Run&Pass Information
CREA  .    10/06/2017                              :LAS Creation date {MM/DD/YYYY}
#--------------------------------------------------
~WELL INFORMATION 
#MNEM           .UNIT                      DATA            :DESCRIPTION
#----            ------          --------------            -----------------------------
STRT            .m                    309.98160            :START DEPTH
STOP            .m                   2714.09160            :STOP DEPTH
STEP            .m                       0.1524            :STEP
NULL            .                       -999.25            :NULL VALUE
COMP            .                Woodside Energy Ltd       :COMPANY
WELL            .                         SRA01            :WELL NAME
FLD             .                      Sculptor            :FIELD NAME
RIGN            .                    Ocean Apex            :Rig Name
RIGTYP          .                Semi-Submersible          :Rig Type
SON             .                     17AWA0007            :Service Order Number
SRVC            .                  Schlumberger            :SERVICE COMPANY
DATE            .                    01/13/2017            :LOG DATE(Composite Date for Composite LAP) (MM/DD/YYYY)
CLAB            .                       County:            :County Label
CNTY            .                                          :COUNTY
SLAB            .                        State:            :State/Province Label
STAT            .                Western Australia         :STATE or PROVINCE
PROV            .                Western Australia         :STATE or PROVINCE
CTRY            .                     Australia            :COUNTRY
CONT_REGION     .                   Australasia            :Continent Region
SECT            .                                          :Section
TOWN            .                                          :Township
RANG            .                                          :Range
API             .                                          :API NUMBER
UWI             .                     17AWA0007            :UNIQUE WELL ID
LUL             .                Forward Port Deck         :Logging Unit Location
LUN             .                   OLU-MA-5088            :Logging Unit Number
LOC             .                         GWF-2            :FIELD LOCATION
FL1             .                N 7,810,790.200 m         :Field Location Line 1
FL2             .                E 366,341.060 m           :Field Location Line 2
LATI            .deg             19° 47' 39.055" S         :LATITUDE
LONG            .deg             115° 43' 26.349" E        :LONGITUDE
PDAT            .                         OTHER            :Local Permanent Datum
LMF             .                            DF            :Logging Measured From
APD             .m                     23.85000            :Elevation of Depth Reference (LMF) Above Permanent Datum
EPD             .m                     -1.60000            :Elevation of Permanent Datum (PDAT) above Mean Sea Level
EKB             .m                      -999.25            :Elevation of Kelly Bushing Above Permanent Datum
EDF             .m                     23.85000            :Elevation of Drill Floor Above Permanent Datum
EGL             .m                    -93.16000            :Elevation of Ground Level Above Permanent Datum
ECF             .m                      -999.25            :Elevation of Casing Flange above Permanent Datum
#--------------------------------------------------
~CURVE INFORMATION
#MNEM           .UNIT                  API CODE            :DESCRIPTION
#----            ------          --------------            -----------------------------
DEPT            .m                                         :                                                        Depth Index
TVD             .m                                         :(RT)    (DnMWorkflow)           (6in)                   True Vertical Depth
ROP5            .m/h                                       :(RT)    (DRILLING_SURFACE)      (6in)                   Rate of penetration averaged over the last 5 ft (1.5 m)
GR              .gAPI                                      :(RM)    (ARC9)                  (6in)                   Gamma Ray
GR_CAL          .gAPI                                      :(RM)    (ARC9)                  (6in)                   Calibrated Gamma Ray
GRR             .1/s                                       :(RM)    (ARC9)                  (6in)                   Raw Gamma Ray
TAB_RES         .h                                         :        (ARC9)                  (6in)                   Resistivity Time After Bit
P16H            .ohm.m                                     :(RM)    (ARC9)                  (6in)                   Phase Shift Resistivity 16 inch Spacing at 2 MHz, Environmentally Corrected.
P28H            .ohm.m                                     :(RM)    (ARC9)                  (6in)                   Phase Shift Resistivity 28 inch Spacing at 2 MHz, Environmentally Corrected.
P40H            .ohm.m                                     :(RM)    (ARC9)                  (6in)                   Phase Shift Resistivity 40 inch Spacing at 2 MHz, Environmentally Corrected.
A40H            .ohm.m                                     :(RM)    (ARC9)                  (6in)                   Attenuation Resistivity 40 inch Spacing at 2 MHz, Environmentally Corrected.
ECD             .g/cm3                                     :(RM)    (ARC9)                  (6in)                   Equivalent Circulating Density
DHAT            .degC                                      :(RM)    (ARC9)                  (6in)                   Downhole Annulus Temperature
DHAP            .psi                                       :(RM)    (ARC9)                  (6in)                   Downhole Annulus Pressure
#-------------------------------------------------------------
#            DEPT          TVD         ROP5           GR       GR_CAL          GRR      TAB_RES         P16H         P28H         P40H         A40H          ECD         DHAT         DHAP 
#                  (DnMWorkfl)  (DRILLING_)       (ARC9)       (ARC9)       (ARC9)       (ARC9)       (ARC9)       (ARC9)       (ARC9)       (ARC9)       (ARC9)       (ARC9)       (ARC9) 
#                         (RT)         (RT)         (RM)         (RM)         (RM)                      (RM)         (RM)         (RM)         (RM)         (RM)         (RM)         (RM) 
#                        (6in)        (6in)        (6in)        (6in)        (6in)        (6in)        (6in)        (6in)        (6in)        (6in)        (6in)        (6in)        (6in) 
~ASCII
# ...
       2538.06960   2042.47941     32.53783     21.23975     74.10796      6.49333      0.52585      1.80223      1.43041      1.52736      1.76391      1.25791     71.00000   3649.99940
       2538.22200   2042.57772     31.46607     18.91285     72.69512      6.38000      0.52473      1.69998      1.43644      1.58786      1.74930      1.25715     71.00000   3647.99933
       2538.37440   2042.67603     34.35701     23.46192     75.45721      6.47333      0.52362      1.59935      1.38573      1.48928      1.78691      1.25709     71.00000   3647.99933
       2538.52680   2042.77434     32.65425     31.92793     80.59759      7.37750      0.52098      1.42268      1.23553      1.32785      1.88561      1.25806     71.00000   3651.00016
       2538.67920   2042.87265     36.25595     34.11909     81.92801      7.29500      0.52195      1.41736      1.29811      1.43026      1.93329      1.25768     71.00000   3649.99940
       2538.83160   2042.97096     39.15917     29.69411     79.24126      7.02667      0.52196      1.81181      1.50341      1.66027      1.70822      1.25761     71.00000   3649.99940
       2538.98400   2043.06926     40.56487     26.56367     77.34053      6.69500      0.52293      1.65528      1.58114      1.71186      1.63842      1.25790     71.00000   3651.00016
       2539.13640   2043.16757     43.20405     28.69976     78.63751      6.95400      0.52709      1.93749      1.65294      1.81494      1.60595      1.25819     71.00000   3651.99947
       2539.28880   2043.26587     40.49480     29.82442     79.32038      7.22667      0.52766      1.99247      1.67922      1.70273      1.76454      1.25810     71.00000   3651.99947
       2539.44120   2043.36418     37.08535     22.58004     74.92175      6.66400      0.52876      1.63842      1.61816      1.97250      1.80240      1.25735     71.00000   3649.99940
       2539.59360   2043.46248     37.46604     11.05882     67.92633      5.96000      0.52890      1.70522      1.76887      2.01690      1.86837      1.25765     71.00000   3651.00016
       2539.74600   2043.56078     38.76528      7.53824     65.78871      5.45500      0.53210      1.71719      2.04452      2.10561      1.96856      1.25794     71.00000   3651.99947
       2539.89840   2043.65908     38.55846     17.04358     71.56014      6.41250      0.53113      1.77186      2.15359      2.18271      2.00522      1.25856     71.00000   3653.99954
       2540.05080   2043.75738     41.27481     24.36942     76.00822      7.04500      0.53362      2.08287      2.09731      2.33650      2.04488      1.25883     71.00000   3655.00030
       2540.20320   2043.85568     39.45064     20.27021     73.51928      6.39667      0.53265      1.91696      1.97991      2.23537      2.11539      1.25809     71.00000   3653.00023
       2540.35560   2043.95398     36.00368     16.86519     71.45183      6.18000      0.52974      1.91031      1.91013      2.17607      2.10478      1.25840     71.00000   3653.99954
       2540.50800   2044.05228     34.64957     23.00819     75.18172      6.53000      0.52807      2.05897      1.92334      1.93478      2.22352      1.25901     71.00000   3655.99961
       2540.66040   2044.15057     30.41178     28.31351     78.40299      7.36667      0.52599      2.26944      1.86315      1.78304      2.29593      1.25824     71.00000   3653.99954
       2540.81280   2044.24887     30.22309     23.37662     75.40542      6.48333      0.52196      1.97156      1.85795      1.91845      2.20164      1.25786     71.00000   3653.00023
       2540.96520   2044.34716     30.17508     16.85434     71.44524      6.35250      0.52737      2.03079      1.98834      2.14591      2.13992      1.25851     71.00000   3655.00030
       2541.11760   2044.44546     28.48682     14.88501     70.24950      6.09600      0.52862      2.04857      2.04198      2.22998      2.17044      1.25845     71.00000   3655.00030
       2541.27000   2044.54375     27.52090     16.02829     70.94368      6.31667      0.53293      1.80172      1.95912      2.00374      2.21754      1.25872     71.00000   3655.99961
       2541.42240   2044.64204     26.58867     19.19983     72.86937      6.37750      0.53210      1.83623      1.74465      1.97391      2.05297      1.25932     71.00000   3657.99968
       2541.57480   2044.74033     26.52173     21.18352     74.07382      6.71667      0.53168      2.02136      1.76940      1.93100      2.07872      1.25891     71.00000   3657.00037
       2541.72720   2044.83862     27.90468     21.26535     74.12350      6.40375      0.53432      1.72603      1.71944      1.96317      2.04547      1.25819     71.00000   3655.00030
       2541.87960   2044.93691     29.92593     21.91726     74.51933      6.70800      0.54182      1.68937      1.70004      1.85294      1.99831      1.25984     71.00000   3659.99975
       2542.03200   2045.03520     28.82739     23.47201     75.46334      6.55250      0.54475      1.82183      1.75091      1.80685      2.00272      1.26047     71.00000   3661.99982
       2542.18440   2045.13349     29.61789     26.55669     77.33629      6.89333      0.54459      1.78976      1.84177      2.01551      1.93246      1.25970     71.00000   3659.99975
       2542.33680   2045.23178     29.95542     28.55395     78.54898      7.03000      0.54447      1.56642      1.67826      1.76531      2.03480      1.25828     71.00000   3655.99961
       2542.48920   2045.33006     30.52725     27.86363     78.12984      6.84500      0.54182      1.63723      1.63644      1.86635      1.94782      1.25923     71.00000   3659.00044
       2542.64160   2045.42835     30.61506     26.53730     77.32452      6.93000      0.53806      1.48670      1.50048      1.81818      1.97425      1.25884     71.00000   3657.99968
       2542.79400   2045.52663     31.20585     24.73396     76.22957      6.66000      0.53432      1.34951      1.47947      1.64645      1.93073      1.25844     71.00000   3657.00037
       2542.94640   2045.62492     32.19084     26.66529     77.40223      6.72750      0.53056      1.56511      1.57279      1.80586      1.86373      1.25803     71.00000   3655.99961
       2543.09880   2045.72320     31.10630     30.48138     79.71928      7.27750      0.53071      1.81091      1.75734      1.97396      1.73857      1.25837     71.00000   3657.10770
       2543.25120   2045.82148     28.85995     31.43541     80.29854      6.93000      0.53042      1.75563      1.77647      1.96686      1.68319      1.25864     71.00000   3657.99968
       2543.40360   2045.91976     28.30699     30.00437     79.42964      7.28000      0.53058      1.79934      1.69156      1.94844      1.48406      1.25925     71.00000   3659.99975
       2543.55600   2046.01804     28.44318     25.12721     76.46834      6.62000      0.53085      1.71758      1.61994      1.83905      1.54612      1.25916     71.00000   3659.99975
       2543.70840   2046.11632     29.06679     18.78410     72.61694      6.54200      0.53321      1.44345      1.47157      1.69180      1.45630      1.25845     71.00000   3657.99968
       2543.86080   2046.21460     24.50859     18.92605     72.70313      5.99500      0.52390      1.33507      1.36961      1.52016      1.37553      1.25937     71.00000   3661.00051
       2544.01320   2046.31288     24.46194     31.74488     80.48644      7.19750      0.52529      1.19429      1.25450      1.30989      1.37023      1.25795     71.00000   3657.00037
       2544.16560   2046.41115     24.38594     45.38745     88.76991      8.09400      0.52237      1.08611      1.09408      1.19239      1.29954      1.25790     71.00000   3657.00037
       2544.31800   2046.50943     23.92972     51.38384     92.41078      8.03000      0.52572      0.97101      0.96515      1.04512      1.23766      1.25782     71.00000   3657.00037
       2544.47040   2046.60770     24.94650     56.56816     95.55859      8.55000      0.52973      0.94073      0.91155      0.97770      1.22503      1.25810     71.00000   3657.99968
