~VERSION INFORMATION 
VERS  .    2.0                                     :CWLS Log ASCII Standard - VERSION 2.0
WRAP  .    NO                                      :One Line per Depth step
PROD  .    Schlumberger Technology Corp.           :LAS Producer
PROG  .    Horizon LASWriter 7.0.78557.3100        :LAS Program name and version
SOURCE.    17.5in Run-Drilling                     :Run&Pass Information
CREA  .    10/06/2017                              :LAS Creation date {MM/DD/YYYY}
#--------------------------------------------------
~WELL INFORMATION 
#MNEM           .UNIT                      DATA            :DESCRIPTION
#----            ------          --------------            -----------------------------
STRT            .m                    309.98160            :START DEPTH
STOP            .m                   2714.09160            :STOP DEPTH
STEP            .m                       0.1524            :STEP
NULL            .                       -999.25            :NULL VALUE
COMP            .                Woodside Energy Ltd       :COMPANY
WELL            .                         SRA01            :WELL NAME
FLD             .                      Sculptor            :FIELD NAME
RIGN            .                    Ocean Apex            :Rig Name
RIGTYP          .                Semi-Submersible          :Rig Type
SON             .                     17AWA0007            :Service Order Number
SRVC            .                  Schlumberger            :SERVICE COMPANY
DATE            .                    01/13/2017            :LOG DATE(Composite Date for Composite LAP) (MM/DD/YYYY)
CLAB            .                       County:            :County Label
CNTY            .                                          :COUNTY
SLAB            .                        State:            :State/Province Label
STAT            .                Western Australia         :STATE or PROVINCE
PROV            .                Western Australia         :STATE or PROVINCE
CTRY            .                     Australia            :COUNTRY
CONT_REGION     .                   Australasia            :Continent Region
SECT            .                                          :Section
TOWN            .                                          :Township
RANG            .                                          :Range
API             .                                          :API NUMBER
UWI             .                     17AWA0007            :UNIQUE WELL ID
LUL             .                Forward Port Deck         :Logging Unit Location
LUN             .                   OLU-MA-5088            :Logging Unit Number
LOC             .                         GWF-2            :FIELD LOCATION
FL1             .                N 7,810,790.200 m         :Field Location Line 1
FL2             .                E 366,341.060 m           :Field Location Line 2
LATI            .deg             19° 47' 39.055" S         :LATITUDE
LONG            .deg             115° 43' 26.349" E        :LONGITUDE
PDAT            .                         OTHER            :Local Permanent Datum
LMF             .                            DF            :Logging Measured From
APD             .m                     23.85000            :Elevation of Depth Reference (LMF) Above Permanent Datum
EPD             .m                     -1.60000            :Elevation of Permanent Datum (PDAT) above Mean Sea Level
EKB             .m                      -999.25            :Elevation of Kelly Bushing Above Permanent Datum
EDF             .m                     23.85000            :Elevation of Drill Floor Above Permanent Datum
EGL             .m                    -93.16000            :Elevation of Ground Level Above Permanent Datum
ECF             .m                      -999.25            :Elevation of Casing Flange above Permanent Datum
#--------------------------------------------------
~CURVE INFORMATION
#MNEM           .UNIT                  API CODE            :DESCRIPTION
#----            ------          --------------            -----------------------------
DEPT            .m                                         :                                                        Depth Index
TVD             .m                                         :(RT)    (DnMWorkflow)           (6in)                   True Vertical Depth
ROP5            .m/h                                       :(RT)    (DRILLING_SURFACE)      (6in)                   Rate of penetration averaged over the last 5 ft (1.5 m)
GR              .gAPI                                      :(RM)    (ARC9)                  (6in)                   Gamma Ray
GR_CAL          .gAPI                                      :(RM)    (ARC9)                  (6in)                   Calibrated Gamma Ray
GRR             .1/s                                       :(RM)    (ARC9)                  (6in)                   Raw Gamma Ray
TAB_RES         .h                                         :        (ARC9)                  (6in)                   Resistivity Time After Bit
P16H            .ohm.m                                     :(RM)    (ARC9)                  (6in)                   Phase Shift Resistivity 16 inch Spacing at 2 MHz, Environmentally Corrected.
P28H            .ohm.m                                     :(RM)    (ARC9)                  (6in)                   Phase Shift Resistivity 28 inch Spacing at 2 MHz, Environmentally Corrected.
P40H            .ohm.m                                     :(RM)    (ARC9)                  (6in)                   Phase Shift Resistivity 40 inch Spacing at 2 MHz, Environmentally Corrected.
A40H            .ohm.m                                     :(RM)    (ARC9)                  (6in)                   Attenuation Resistivity 40 inch Spacing at 2 MHz, Environmentally Corrected.
ECD             .g/cm3                                     :(RM)    (ARC9)                  (6in)                   Equivalent Circulating Density
DHAT            .degC                                      :(RM)    (ARC9)                  (6in)                   Downhole Annulus Temperature
DHAP            .psi                                       :(RM)    (ARC9)                  (6in)                   Downhole Annulus Pressure
#-------------------------------------------------------------
#            DEPT          TVD         ROP5           GR       GR_CAL          GRR      TAB_RES         P16H         P28H         P40H         A40H          ECD         DHAT         DHAP 
#                  (DnMWorkfl)  (DRILLING_)       (ARC9)       (ARC9)       (ARC9)       (ARC9)       (ARC9)       (ARC9)       (ARC9)       (ARC9)       (ARC9)       (ARC9)       (ARC9) 
#                         (RT)         (RT)         (RM)         (RM)         (RM)                      (RM)         (RM)         (RM)         (RM)         (RM)         (RM)         (RM) 
#                        (6in)        (6in)        (6in)        (6in)        (6in)        (6in)        (6in)        (6in)        (6in)        (6in)        (6in)        (6in)        (6in) 
~ASCII
# ...
        788.36520    783.35796     75.01026     68.97807     42.89370      3.93000      0.45210      0.49240      0.47295      0.46223      0.47960      1.24605     44.00000   1384.02087
        788.51760    783.50209     76.34022     64.79758     40.29408      3.26000      0.45266      0.49142      0.47109      0.46028      0.47216      1.24674     44.00000   1385.00002
        788.67000    783.64620     65.42341     67.29678     41.84820      3.81000      0.44890      0.48679      0.46901      0.46536      0.48114      1.24643     44.00000   1385.00002
        788.82240    783.79030     66.87611     71.63632     44.54672      3.93000      0.44751      0.49118      0.47820      0.47065      0.47323      1.24538     44.00000   1383.99999
        788.97480    783.93439     62.12957     74.74897     46.48231      4.09500      0.44613      0.49509      0.47152      0.46610      0.47455      1.24567     44.00000   1384.62234
        789.12720    784.07846     62.17572     75.27152     46.80726      4.33000      0.44667      0.48651      0.46063      0.45685      0.48158      1.24585     44.00000   1385.00002
        789.27960    784.22252     57.52847     70.18224     43.64251      3.81000      0.44502      0.48443      0.45824      0.45290      0.47609      1.24562     44.00000   1385.00002
        789.43200    784.36656     56.05990     64.20686     39.92675      3.49500      0.44598      0.48237      0.47439      0.46696      0.48945      1.24620     44.00000   1386.00006
        789.58440    784.51059     53.54515     63.22990     39.31923      3.33000      0.44375      0.50741      0.49372      0.48652      0.49435      1.24599     44.00000   1386.00006
        789.73680    784.65461     52.41560     67.22863     41.80582      3.76000      0.44500      0.51080      0.48704      0.47842      0.49352      1.24584     44.00000   1386.00006
        789.88920    784.79861     52.01818     70.18224     43.64251      3.94500      0.44405      0.47685      0.47110      0.45190      0.48567      1.24652     44.00000   1386.99995
        790.04160    784.94260     51.61029     68.04655     42.31444      3.79500      0.44349      0.47332      0.45902      0.45198      0.47505      1.24626     44.00000   1386.99995
        790.19400    785.08658     57.69362     66.25924     41.20301      3.44000      0.44474      0.47145      0.46080      0.44444      0.47091      1.24499     44.00000   1386.00006
        790.34640    785.23054     57.58205     68.92506     42.86074      3.90667      0.44417      0.47356      0.46458      0.45654      0.47218      1.24533     44.00000   1386.54511
        790.49880    785.37449     55.88778     71.97712     44.75865      3.91500      0.44417      0.49473      0.47520      0.46998      0.48212      1.24562     44.00000   1386.99995
        790.65120    785.51842     58.10317     74.40816     46.27038      4.10333      0.44696      0.49902      0.47950      0.47127      0.48878      1.24618     44.00000   1387.99998
        790.80360    785.66235     58.92689     76.86950     47.80095      4.25333      0.44695      0.50030      0.47911      0.46602      0.48515      1.24687     44.00000   1389.00002
        790.95600    785.80625     59.29852     77.82375     48.39434      4.30667      0.44890      0.49880      0.47799      0.46641      0.48141      1.24671     44.00000   1389.00002
        791.10840    785.95015     58.93122     76.64230     47.65967      4.26000      0.44849      0.50025      0.48189      0.46651      0.48230      1.24718     44.00000   1390.00005
        791.26080    786.09403     55.20197     74.61264     46.39753      4.04000      0.44916      0.50307      0.48367      0.47220      0.48072      1.24620     44.00000   1389.00002
        791.41320    786.23789     52.80414     73.63569     45.79002      4.08000      0.44833      0.49486      0.47679      0.46427      0.47115      1.24503     44.00000   1387.99998
        791.56560    786.38174     55.19768     73.44635     45.67228      4.00500      0.44904      0.47469      0.45550      0.44401      0.46020      1.24567     44.00000   1389.00002
        791.71800    786.52558     51.69608     73.36304     45.62048      4.07333      0.44932      0.46479      0.44564      0.43630      0.45646      1.24538     44.00000   1389.00002
        791.87040    786.66941     53.18168     75.38513     46.87790      3.99333      0.45432      0.47156      0.45386      0.44145      0.45582      1.24700     44.00000   1390.99994
        792.02280    786.81322     58.44986     78.37660     48.73814      4.53000      0.45751      0.48084      0.46266      0.45431      0.46540      1.24687     44.00000   1390.99994
        792.17520    786.95701     55.71481     78.11153     48.57330      4.19500      0.45973      0.48990      0.46941      0.45860      0.46625      1.24568     44.00000   1390.00005
        792.32760    787.10080     57.17422     78.67953     48.92651      4.27000      0.46432      0.49446      0.47223      0.46342      0.47626      1.24714     44.00000   1391.99998
        792.48000    787.24456     56.72352     81.97394     50.97512      4.58000      0.46710      0.49879      0.47655      0.46190      0.47384      1.24611     44.00000   1390.99994
        792.63240    787.38832     60.48557     83.95058     52.20429      4.61000      0.46807      0.49190      0.47186      0.46041      0.46594      1.24502     44.00000   1390.00005
        792.78480    787.53206     62.20806     83.10995     51.68155      4.67500      0.46847      0.47464      0.45594      0.44161      0.46135      1.24470     44.00000   1390.00005
        792.93720    787.67579     67.88160     77.86161     48.41789      4.33000      0.46821      0.46112      0.44683      0.43580      0.45332      1.24545     44.00000   1390.99994
        793.08960    787.81950     63.45380     71.15920     44.25003      3.80000      0.46821      0.46435      0.45310      0.44157      0.46300      1.24516     44.00000   1390.99994
        793.24200    787.96320     66.33065     65.97903     41.02876      3.73000      0.46723      0.46875      0.45669      0.45137      0.46555      1.24491     44.00000   1390.99994
        793.39440    788.10689     71.66242     61.84398     38.45740      3.26000      0.46849      0.48416      0.46691      0.46554      0.47149      1.24561     44.00000   1391.99998
        793.54680    788.25056     65.55615     61.16238     38.03355      3.36000      0.46627      0.48335      0.46876      0.45680      0.47385      1.24359     44.00000   1390.00005
        793.69920    788.39422     68.63217     65.07023     40.46363      3.48000      0.46696      0.48682      0.47628      0.46350      0.47113      1.24341     44.00000   1390.00005
        793.85160    788.53786     65.84329     68.34192     42.49811      4.00000      0.46502      0.49114      0.47659      0.46626      0.47764      1.24320     44.00000   1390.00005
        794.00400    788.68149     65.76517     67.02415     41.67867      3.56000      0.46460      0.49210      0.47569      0.46716      0.47750      1.24385     44.00000   1390.99994
        794.15640    788.82510     64.08791     65.59279     40.78858      3.63000      0.46459      0.48886      0.48058      0.47827      0.48046      1.24363     44.00000   1390.99994
        794.30880    788.96870     63.05327     64.93391     40.37886      3.61500      0.46278      0.49177      0.47736      0.47139      0.48031      1.24349     44.00000   1390.99994
        794.46120    789.11229     63.59812     62.86638     39.09317      3.43000      0.46362      0.49177      0.47736      0.47139      0.48031      1.24308     44.00000   1390.99994
        794.61360    789.25587     62.87443     62.43470     38.82473      3.36000      0.46167      0.49056      0.47315      0.46997      0.47672      1.24333     44.00000   1391.43390
        794.76600    789.39943     66.17700     64.20686     39.92675      3.59000      0.46293      0.48504      0.46987      0.46402      0.47845      1.24366     44.00000   1391.99998
