~VERSION INFORMATION 
VERS  .    2.0                                     :CWLS Log ASCII Standard - VERSION 2.0
WRAP  .    NO                                      :One Line per Depth step
PROD  .    Schlumberger Technology Corp.           :LAS Producer
PROG  .    Horizon LASWriter 7.0.78557.3100        :LAS Program name and version
SOURCE.    17.5in Run-Drilling                     :Run&Pass Information
CREA  .    10/06/2017                              :LAS Creation date {MM/DD/YYYY}
#--------------------------------------------------
~WELL INFORMATION 
#MNEM           .UNIT                      DATA            :DESCRIPTION
#----            ------          --------------            -----------------------------
STRT            .m                    309.98160            :START DEPTH
STOP            .m                   2714.09160            :STOP DEPTH
STEP            .m                       0.1524            :STEP
NULL            .                       -999.25            :NULL VALUE
COMP            .                Woodside Energy Ltd       :COMPANY
WELL            .                         SRA01            :WELL NAME
FLD             .                      Sculptor            :FIELD NAME
RIGN            .                    Ocean Apex            :Rig Name
RIGTYP          .                Semi-Submersible          :Rig Type
SON             .                     17AWA0007            :Service Order Number
SRVC            .                  Schlumberger            :SERVICE COMPANY
DATE            .                    01/13/2017            :LOG DATE(Composite Date for Composite LAP) (MM/DD/YYYY)
CLAB            .                       County:            :County Label
CNTY            .                                          :COUNTY
SLAB            .                        State:            :State/Province Label
STAT            .                Western Australia         :STATE or PROVINCE
PROV            .                Western Australia         :STATE or PROVINCE
CTRY            .                     Australia            :COUNTRY
CONT_REGION     .                   Australasia            :Continent Region
SECT            .                                          :Section
TOWN            .                                          :Township
RANG            .                                          :Range
API             .                                          :API NUMBER
UWI             .                     17AWA0007            :UNIQUE WELL ID
LUL             .                Forward Port Deck         :Logging Unit Location
LUN             .                   OLU-MA-5088            :Logging Unit Number
LOC             .                         GWF-2            :FIELD LOCATION
FL1             .                N 7,810,790.200 m         :Field Location Line 1
FL2             .                E 366,341.060 m           :Field Location Line 2
LATI            .deg             19° 47' 39.055" S         :LATITUDE
LONG            .deg             115° 43' 26.349" E        :LONGITUDE
PDAT            .                         OTHER            :Local Permanent Datum
LMF             .                            DF            :Logging Measured From
APD             .m                     23.85000            :Elevation of Depth Reference (LMF) Above Permanent Datum
EPD             .m                     -1.60000            :Elevation of Permanent Datum (PDAT) above Mean Sea Level
EKB             .m                      -999.25            :Elevation of Kelly Bushing Above Permanent Datum
EDF             .m                     23.85000            :Elevation of Drill Floor Above Permanent Datum
EGL             .m                    -93.16000            :Elevation of Ground Level Above Permanent Datum
ECF             .m                      -999.25            :Elevation of Casing Flange above Permanent Datum
#--------------------------------------------------
~CURVE INFORMATION
#MNEM           .UNIT                  API CODE            :DESCRIPTION
#----            ------          --------------            -----------------------------
DEPT            .m                                         :                                                        Depth Index
TVD             .m                                         :(RT)    (DnMWorkflow)           (6in)                   True Vertical Depth
ROP5            .m/h                                       :(RT)    (DRILLING_SURFACE)      (6in)                   Rate of penetration averaged over the last 5 ft (1.5 m)
GR              .gAPI                                      :(RM)    (ARC9)                  (6in)                   Gamma Ray
GR_CAL          .gAPI                                      :(RM)    (ARC9)                  (6in)                   Calibrated Gamma Ray
GRR             .1/s                                       :(RM)    (ARC9)                  (6in)                   Raw Gamma Ray
TAB_RES         .h                                         :        (ARC9)                  (6in)                   Resistivity Time After Bit
P16H            .ohm.m                                     :(RM)    (ARC9)                  (6in)                   Phase Shift Resistivity 16 inch Spacing at 2 MHz, Environmentally Corrected.
P28H            .ohm.m                                     :(RM)    (ARC9)                  (6in)                   Phase Shift Resistivity 28 inch Spacing at 2 MHz, Environmentally Corrected.
P40H            .ohm.m                                     :(RM)    (ARC9)                  (6in)                   Phase Shift Resistivity 40 inch Spacing at 2 MHz, Environmentally Corrected.
A40H            .ohm.m                                     :(RM)    (ARC9)                  (6in)                   Attenuation Resistivity 40 inch Spacing at 2 MHz, Environmentally Corrected.
ECD             .g/cm3                                     :(RM)    (ARC9)                  (6in)                   Equivalent Circulating Density
DHAT            .degC                                      :(RM)    (ARC9)                  (6in)                   Downhole Annulus Temperature
DHAP            .psi                                       :(RM)    (ARC9)                  (6in)                   Downhole Annulus Pressure
#-------------------------------------------------------------
#            DEPT          TVD         ROP5           GR       GR_CAL          GRR      TAB_RES         P16H         P28H         P40H         A40H          ECD         DHAT         DHAP 
#                  (DnMWorkfl)  (DRILLING_)       (ARC9)       (ARC9)       (ARC9)       (ARC9)       (ARC9)       (ARC9)       (ARC9)       (ARC9)       (ARC9)       (ARC9)       (ARC9) 
#                         (RT)         (RT)         (RM)         (RM)         (RM)                      (RM)         (RM)         (RM)         (RM)         (RM)         (RM)         (RM) 
#                        (6in)        (6in)        (6in)        (6in)        (6in)        (6in)        (6in)        (6in)        (6in)        (6in)        (6in)        (6in)        (6in) 
~ASCII
# ...
        467.25840    466.97771    147.07920     52.34720     33.73853      3.06000      0.13528      0.43916      0.41781      0.41119      0.41702      1.18811     37.00000    784.99993
        467.41080    467.12935    145.29770     50.15510     32.32569      2.76000      0.13556      0.43916      0.41781      0.41119      0.41702      1.18844     37.00000    785.49190
        467.56320    467.28098    141.20080     51.03194     32.89082      2.86000      0.13556      0.44759      0.42510      0.41738      0.42141      1.18877     37.00000    785.99997
        467.71560    467.43262    144.05200     53.22404     34.30366      3.16000      0.13619      0.44759      0.42510      0.41738      0.42141      1.18977     37.00000    786.88426
        467.86800    467.58425    140.87970     53.53093     34.50146      2.96000      0.13625      0.45322      0.43302      0.42385      0.42358      1.19102     37.00000    788.00004
        468.02040    467.73588    135.71570     56.02992     36.11209      3.13000      0.13667      0.46027      0.44118      0.43111      0.43815      1.19068     37.00000    788.00004
        468.17280    467.88752    139.50290     60.54562     39.02253      3.56000      0.13708      0.46027      0.44118      0.43111      0.43815      1.19020     37.00000    788.00004
        468.32520    468.03915    133.04870     63.39535     40.85922      3.56000      0.13639      0.46383      0.44031      0.43457      0.43177      1.18990     37.00000    788.00004
        468.47760    468.19078    131.11240     64.79829     41.76343      3.78000      0.13680      0.44965      0.42934      0.41752      0.42506      1.18944     37.00000    788.00004
        468.63000    468.34241    133.52180     64.00913     41.25481      3.66000      0.13639      0.44291      0.42577      0.41575      0.41694      1.19186     37.00000    789.81098
        468.78240    468.49404    130.05270     62.08009     40.01152      3.50000      0.13709      0.43922      0.41903      0.41101      0.41052      1.19478     37.00000    792.00003
        468.93480    468.64567    131.05000     60.32642     38.88125      3.50000      0.13695      0.42754      0.40660      0.39623      0.41125      1.19439     37.00000    792.00003
        469.08720    468.79730    130.68750     58.09048     37.44016      3.26000      0.13736      0.41384      0.39644      0.39121      0.40189      1.19400     37.00000    792.00003
        469.23960    468.94893    129.13750     55.32844     35.65998      3.23000      0.13723      0.41576      0.39837      0.39063      0.40475      1.19377     37.00000    792.00003
        469.39200    469.10056    126.72550     53.00483     34.16238      2.90000      0.13750      0.41435      0.39465      0.38601      0.39744      1.19322     37.00000    792.00003
        469.54440    469.25219    129.42030     53.96934     34.78402      3.06000      0.13763      0.41244      0.39289      0.38743      0.39205      1.19295     37.00000    792.00003
        469.69680    469.40381    125.33520     56.29297     36.28163      3.29000      0.13750      0.40859      0.38692      0.37436      0.39478      1.19429     37.00000    793.22212
        469.84920    469.55544    128.81790     56.77523     36.59246      3.20000      0.13751      0.40915      0.38847      0.38279      0.40180      1.19514     37.00000    794.00010
        470.00160    469.70707    128.30300     55.32845     35.65998      3.26000      0.13778      0.42124      0.39976      0.38697      0.39959      1.19558     37.00000    794.59896
        470.15400    469.85869    125.85370     52.56641     33.87981      2.90000      0.13792      0.42124      0.39976      0.38697      0.39959      1.19588     37.00000    794.99999
        470.30640    470.01032    128.54100     51.25115     33.03211      2.93000      0.13807      0.42524      0.40257      0.38972      0.39290      1.19541     37.00000    794.99999
        470.45880    470.16195    127.27760     51.38268     33.11688      2.93000      0.13778      0.42206      0.39682      0.38062      0.40399      1.19502     37.00000    794.99999
        470.61120    470.31357    127.38210     50.19895     32.35395      2.93000      0.13833      0.41537      0.39425      0.38288      0.40590      1.19620     37.00000    796.04412
        470.76360    470.46519    129.54330     50.33047     32.43872      2.66000      0.13847      0.42331      0.40420      0.39448      0.39943      1.19729     37.00000    797.00006
        470.91600    470.61682    127.42130     54.71466     35.26439      3.23000      0.13806      0.42302      0.40446      0.39442      0.40000      1.19618     37.00000    796.54145
        471.06840    470.76844    126.14940     59.36190     38.25960      3.36000      0.13820      0.42299      0.40276      0.39177      0.39821      1.19487     37.00000    796.00003
        471.22080    470.92006    131.69490     62.12393     40.03977      3.59000      0.13890      0.42558      0.40335      0.39745      0.41025      1.19551     37.00000    796.61078
        471.37320    471.07168    127.96800     64.35988     41.48087      3.63000      0.13847      0.42539      0.40931      0.40048      0.41983      1.19640     37.00000    797.46317
        471.52560    471.22331    130.72120     67.03423     43.20453      3.83000      0.13875      0.42539      0.40931      0.40048      0.41983      1.19696     37.00000    797.99995
        471.67800    471.37493    136.00890     69.40169     44.73039      4.00000      0.13875      0.43668      0.41490      0.40205      0.42242      1.19744     37.00000    798.67438
        471.83040    471.52655    130.31750     69.09480     44.53259      4.00000      0.13875      0.43467      0.41248      0.40408      0.41995      1.19767     37.00000    798.99999
        471.98280    471.67817    133.62700     66.85886     43.09150      3.76000      0.13888      0.43177      0.41235      0.39791      0.41981      1.19798     37.00000    799.55302
        472.13520    471.82979    136.65120     64.22835     41.39610      3.73000      0.13917      0.43963      0.42364      0.41317      0.41400      1.19823     37.00000    800.00002
        472.28760    471.98140    132.53550     61.33478     39.53115      3.43000      0.13888      0.43900      0.42104      0.40841      0.41331      1.19915     37.00000    800.85024
        472.44000    472.13302    141.03750     59.44958     38.31611      3.40000      0.13944      0.43543      0.41784      0.40760      0.42357      1.20039     37.00000    801.99995
        472.59240    472.28464    137.12060     57.95896     37.35538      3.33000      0.13932      0.44267      0.42622      0.41646      0.42099      1.20010     37.00000    801.99995
        472.74480    472.43626    133.68100     55.59150     35.82952      3.16000      0.14000      0.43702      0.42012      0.40865      0.42664      1.19971     37.00000    801.99995
        472.89720    472.58787    142.93240     53.26788     34.33192      3.03000      0.14028      0.42962      0.41531      0.41427      0.42116      1.19939     37.00000    801.99995
        473.04960    472.73949    135.22270     53.55285     34.51558      2.93000      0.14042      0.43293      0.41552      0.40435      0.41106      1.20056     37.00000    803.08469
        473.20200    472.89111    130.66180     56.42449     36.36640      3.32500      0.14029      0.43902      0.41720      0.40284      0.41404      1.20155     37.00000    804.00002
        473.35440    473.04272    126.33860     58.24393     37.53905      3.29000      0.14041      0.43249      0.41202      0.40282      0.40821      1.20115     37.00000    804.00002
        473.50680    473.19434    116.86120     58.48506     37.69447      3.38000      0.13959      0.42876      0.40806      0.40138      0.40938      1.20084     37.00000    804.00002
        473.65920    473.34595     85.73481     58.83579     37.92052      3.29000      0.13528      0.41925      0.40282      0.39410      0.40655      1.20038     37.00000    804.00002
