~VERSION INFORMATION 
VERS  .    2.0                                     :CWLS Log ASCII Standard - VERSION 2.0
WRAP  .    NO                                      :One Line per Depth step
PROD  .    Schlumberger Technology Corp.           :LAS Producer
PROG  .    Horizon LASWriter 7.0.78557.3100        :LAS Program name and version
SOURCE.    17.5in Run-Drilling                     :Run&Pass Information
CREA  .    10/06/2017                              :LAS Creation date {MM/DD/YYYY}
#--------------------------------------------------
~WELL INFORMATION 
#MNEM           .UNIT                      DATA            :DESCRIPTION
#----            ------          --------------            -----------------------------
STRT            .m                    309.98160            :START DEPTH
STOP            .m                   2714.09160            :STOP DEPTH
STEP            .m                       0.1524            :STEP
NULL            .                       -999.25            :NULL VALUE
COMP            .                Woodside Energy Ltd       :COMPANY
WELL            .                         SRA01            :WELL NAME
FLD             .                      Sculptor            :FIELD NAME
RIGN            .                    Ocean Apex            :Rig Name
RIGTYP          .                Semi-Submersible          :Rig Type
SON             .                     17AWA0007            :Service Order Number
SRVC            .                  Schlumberger            :SERVICE COMPANY
DATE            .                    01/13/2017            :LOG DATE(Composite Date for Composite LAP) (MM/DD/YYYY)
CLAB            .                       County:            :County Label
CNTY            .                                          :COUNTY
SLAB            .                        State:            :State/Province Label
STAT            .                Western Australia         :STATE or PROVINCE
PROV            .                Western Australia         :STATE or PROVINCE
CTRY            .                     Australia            :COUNTRY
CONT_REGION     .                   Australasia            :Continent Region
SECT            .                                          :Section
TOWN            .                                          :Township
RANG            .                                          :Range
API             .                                          :API NUMBER
UWI             .                     17AWA0007            :UNIQUE WELL ID
LUL             .                Forward Port Deck         :Logging Unit Location
LUN             .                   OLU-MA-5088            :Logging Unit Number
LOC             .                         GWF-2            :FIELD LOCATION
FL1             .                N 7,810,790.200 m         :Field Location Line 1
FL2             .                E 366,341.060 m           :Field Location Line 2
LATI            .deg             19° 47' 39.055" S         :LATITUDE
LONG            .deg             115° 43' 26.349" E        :LONGITUDE
PDAT            .                         OTHER            :Local Permanent Datum
LMF             .                            DF            :Logging Measured From
APD             .m                     23.85000            :Elevation of Depth Reference (LMF) Above Permanent Datum
EPD             .m                     -1.60000            :Elevation of Permanent Datum (PDAT) above Mean Sea Level
EKB             .m                      -999.25            :Elevation of Kelly Bushing Above Permanent Datum
EDF             .m                     23.85000            :Elevation of Drill Floor Above Permanent Datum
EGL             .m                    -93.16000            :Elevation of Ground Level Above Permanent Datum
ECF             .m                      -999.25            :Elevation of Casing Flange above Permanent Datum
#--------------------------------------------------
~CURVE INFORMATION
#MNEM           .UNIT                  API CODE            :DESCRIPTION
#----            ------          --------------            -----------------------------
DEPT            .m                                         :                                                        Depth Index
TVD             .m                                         :(RT)    (DnMWorkflow)           (6in)                   True Vertical Depth
ROP5            .m/h                                       :(RT)    (DRILLING_SURFACE)      (6in)                   Rate of penetration averaged over the last 5 ft (1.5 m)
GR              .gAPI                                      :(RM)    (ARC9)                  (6in)                   Gamma Ray
GR_CAL          .gAPI                                      :(RM)    (ARC9)                  (6in)                   Calibrated Gamma Ray
GRR             .1/s                                       :(RM)    (ARC9)                  (6in)                   Raw Gamma Ray
TAB_RES         .h                                         :        (ARC9)                  (6in)                   Resistivity Time After Bit
P16H            .ohm.m                                     :(RM)    (ARC9)                  (6in)                   Phase Shift Resistivity 16 inch Spacing at 2 MHz, Environmentally Corrected.
P28H            .ohm.m                                     :(RM)    (ARC9)                  (6in)                   Phase Shift Resistivity 28 inch Spacing at 2 MHz, Environmentally Corrected.
P40H            .ohm.m                                     :(RM)    (ARC9)                  (6in)                   Phase Shift Resistivity 40 inch Spacing at 2 MHz, Environmentally Corrected.
A40H            .ohm.m                                     :(RM)    (ARC9)                  (6in)                   Attenuation Resistivity 40 inch Spacing at 2 MHz, Environmentally Corrected.
ECD             .g/cm3                                     :(RM)    (ARC9)                  (6in)                   Equivalent Circulating Density
DHAT            .degC                                      :(RM)    (ARC9)                  (6in)                   Downhole Annulus Temperature
DHAP            .psi                                       :(RM)    (ARC9)                  (6in)                   Downhole Annulus Pressure
#-------------------------------------------------------------
#            DEPT          TVD         ROP5           GR       GR_CAL          GRR      TAB_RES         P16H         P28H         P40H         A40H          ECD         DHAT         DHAP 
#                  (DnMWorkfl)  (DRILLING_)       (ARC9)       (ARC9)       (ARC9)       (ARC9)       (ARC9)       (ARC9)       (ARC9)       (ARC9)       (ARC9)       (ARC9)       (ARC9) 
#                         (RT)         (RT)         (RM)         (RM)         (RM)                      (RM)         (RM)         (RM)         (RM)         (RM)         (RM)         (RM) 
#                        (6in)        (6in)        (6in)        (6in)        (6in)        (6in)        (6in)        (6in)        (6in)        (6in)        (6in)        (6in)        (6in) 
~ASCII
# ...
       2059.68600   1735.10460     43.92918     15.76994     81.15331      7.08000      0.21750      1.44542      1.16989      1.24782      1.30485      1.27900     66.00000   3152.00073
       2059.83840   1735.20236     53.94169     15.53725     81.01202      7.13000      0.21903      1.26613      1.14958      1.28211      1.24017      1.27896     66.00000   3152.00073
       2059.99080   1735.30011     61.72944     17.30569     82.08578      7.33000      0.21668      1.22438      1.13350      1.25286      1.33650      1.28007     66.00000   3155.00011
       2060.14320   1735.39787     62.62904     17.60818     82.26945      7.26000      0.21624      1.08866      1.12475      1.31563      1.24118      1.28038     66.00000   3155.99942
       2060.29560   1735.49563     68.79568     16.97992     81.88798      7.26500      0.21640      1.14805      1.13295      1.22881      1.29152      1.27990     66.00000   3155.00011
       2060.44800   1735.59338     66.68346     17.09626     81.95862      7.19000      0.21612      1.16426      1.11376      1.20671      1.25258      1.28025     66.00000   3155.99942
       2060.60040   1735.69115     65.09694     17.72453     82.34009      7.36000      0.21468      1.24949      1.16706      1.20280      1.26386      1.28019     66.00000   3155.99942
       2060.75280   1735.78891     70.34713     15.90954     81.23807      7.23000      0.21556      1.43729      1.12006      1.22494      1.23533      1.28014     66.00000   3155.99942
       2060.90520   1735.88667     65.28323     13.90842     80.02303      6.93000      0.21376      1.20440      1.12197      1.15480      1.34136      1.28004     66.00000   3155.99942
       2061.05760   1735.98444     64.39687     15.76994     81.15331      7.23000      0.21237      1.21673      1.11920      1.23729      1.33231      1.28000     66.00000   3155.99942
       2061.21000   1736.08221     69.24146     18.09684     82.56615      7.33000      0.21277      1.25589      1.12419      1.26350      1.33281      1.27988     66.00000   3155.99942
       2061.36240   1736.17997     66.02125     16.07244     81.33698      7.33000      0.21147      1.25589      1.12419      1.26350      1.33281      1.28001     66.00000   3156.44468
       2061.51480   1736.27774     72.83577     10.46462     77.93204      6.79500      0.21125      1.23654      1.18813      1.28775      1.31545      1.28017     66.00000   3157.00018
       2061.66720   1736.37552     74.49709      7.43966     76.09534      6.66000      0.21056      1.23654      1.18813      1.28775      1.31545      1.28009     66.00000   3157.00018
       2061.81960   1736.47329     74.17415      6.78813     75.69975      6.81500      0.21028      1.40100      1.19501      1.28281      1.35272      1.28002     66.00000   3157.00018
       2061.97200   1736.57106     73.59082      3.22799     73.53812      6.50000      0.20903      1.37441      1.27743      1.42195      1.39774      1.27994     66.00000   3157.00018
       2062.12440   1736.66884     78.94965      0.22630     71.71555      6.21000      0.20917      1.55335      1.28608      1.39097      1.29722      1.27987     66.00000   3157.00018
       2062.27680   1736.76662     70.36488      1.29666     72.36546      6.46000      0.20723      1.45268      1.21099      1.31366      1.43581      1.27983     66.00000   3157.00018
       2062.42920   1736.86440     72.19612      5.20585     74.73903      6.48000      0.20751      1.53587      1.26321      1.34924      1.39429      1.28029     66.00000   3158.39834
       2062.58160   1736.96218     76.94024      9.65021     77.43755      7.03000      0.20889      1.46543      1.25470      1.37197      1.38972      1.28049     66.00000   3159.00025
       2062.73400   1737.05996     69.59011     10.51117     77.96030      6.86500      0.20821      1.46543      1.25470      1.37197      1.38972      1.28077     66.00000   3159.99956
       2062.88640   1737.15775     67.46723      9.55714     77.38103      6.83000      0.20625      1.44648      1.23807      1.29410      1.37552      1.28030     66.00000   3159.00025
       2063.03880   1737.25553     61.42766      9.31669     77.23504      6.86000      0.20583      1.25870      1.15576      1.21542      1.37923      1.28025     66.00000   3159.00025
       2063.19120   1737.35332     59.83257      9.26240     77.20207      6.78333      0.20569      1.26429      1.11817      1.19382      1.41663      1.28020     66.00000   3159.00025
       2063.34360   1737.45111     57.13190     10.24745     77.80017      6.89500      0.20625      1.47128      1.23507      1.26265      1.33149      1.28051     66.00000   3159.99956
       2063.49600   1737.54890     59.77862     11.60479     78.62432      6.96000      0.20598      1.98569      1.33275      1.37132      1.19530      1.28082     66.00000   3161.00032
       2063.64840   1737.64669     56.06989     12.76824     79.33074      7.01000      0.20578      1.32644      1.12821      1.19403      1.36327      1.28143     66.00000   3162.63634
       2063.80080   1737.74448     60.80585     13.36547     79.69337      7.09500      0.20709      1.32644      1.12821      1.19403      1.36327      1.28194     66.00000   3163.99970
       2063.95320   1737.84228     60.37301     12.70619     79.29307      7.00333      0.20543      1.18957      1.04771      1.16847      1.34238      1.28222     66.00000   3165.00046
       2064.10560   1737.94007     61.29622     10.89897     78.19576      6.96000      0.20750      1.20072      1.09961      1.16163      1.32035      1.28094     66.00000   3161.99963
       2064.25800   1738.03787     63.35195      8.46351     76.71700      6.75000      0.20861      1.26651      1.10167      1.18744      1.28897      1.28107     66.00000   3162.45360
       2064.41040   1738.13567     69.86754      6.46238     75.50196      6.69000      0.21098      1.37886      1.17978      1.20951      1.24641      1.28123     66.00000   3163.00039
       2064.56280   1738.23347     72.52560      5.57815     74.96508      6.59000      0.20986      1.43513      1.23355      1.33990      1.22217      1.28153     66.00000   3163.99970
       2064.71520   1738.33128     81.16336      7.02082     75.84103      6.66000      0.21134      1.39397      1.23829      1.32670      1.23790      1.28145     66.00000   3163.99970
       2064.86760   1738.42908     79.49595      9.13829     77.12672      6.93000      0.21139      1.39134      1.18644      1.29138      1.25974      1.28107     66.00000   3163.15848
       2065.02000   1738.52689     81.38821      7.67235     76.23663      6.77500      0.21250      1.39134      1.18644      1.29138      1.25974      1.28055     66.00000   3161.99963
       2065.17240   1738.62469     81.86768      5.62469     74.99334      6.50000      0.21085      1.29361      1.15347      1.19932      1.33775      1.28126     66.00000   3163.99970
       2065.32480   1738.72250     76.65423      7.84298     76.34023      6.76500      0.21112      1.22041      1.06014      1.09183      1.32988      1.28119     66.00000   3163.99970
       2065.47720   1738.82031     79.09714     11.89954     78.80328      6.98667      0.21251      1.17833      1.07857      1.15493      1.32180      1.28115     66.00000   3163.99970
       2065.62960   1738.91812     76.28121     13.75329     79.92884      7.15000      0.21376      1.22978      1.12147      1.20196      1.35480      1.28187     66.00000   3165.99977
       2065.78200   1739.01594     78.59384     11.76769     78.72323      7.00000      0.21348      1.18844      1.16549      1.28248      1.32952      1.28299     66.00000   3169.00060
       2065.93440   1739.11375     76.25170      9.92944     77.60709      6.71000      0.21417      1.17274      1.17510      1.29745      1.27008      1.28212     66.00000   3167.00053
       2066.08680   1739.21157     82.51755     11.62807     78.63846      7.04500      0.21515      1.17274      1.17510      1.29745      1.27008      1.28126     66.00000   3165.00046
