~VERSION INFORMATION 
VERS  .    2.0                                     :CWLS Log ASCII Standard - VERSION 2.0
WRAP  .    NO                                      :One Line per Depth step
PROD  .    Schlumberger Technology Corp.           :LAS Producer
PROG  .    Horizon LASWriter 7.0.78557.3100        :LAS Program name and version
SOURCE.    17.5in Run-Drilling                     :Run&Pass Information
CREA  .    10/06/2017                              :LAS Creation date {MM/DD/YYYY}
#--------------------------------------------------
~WELL INFORMATION 
#MNEM           .UNIT                      DATA            :DESCRIPTION
#----            ------          --------------            -----------------------------
STRT            .m                    309.98160            :START DEPTH
STOP            .m                   2714.09160            :STOP DEPTH
STEP            .m                       0.1524            :STEP
NULL            .                       -999.25            :NULL VALUE
COMP            .                Woodside Energy Ltd       :COMPANY
WELL            .                         SRA01            :WELL NAME
FLD             .                      Sculptor            :FIELD NAME
RIGN            .                    Ocean Apex            :Rig Name
RIGTYP          .                Semi-Submersible          :Rig Type
SON             .                     17AWA0007            :Service Order Number
SRVC            .                  Schlumberger            :SERVICE COMPANY
DATE            .                    01/13/2017            :LOG DATE(Composite Date for Composite LAP) (MM/DD/YYYY)
CLAB            .                       County:            :County Label
CNTY            .                                          :COUNTY
SLAB            .                        State:            :State/Province Label
STAT            .                Western Australia         :STATE or PROVINCE
PROV            .                Western Australia         :STATE or PROVINCE
CTRY            .                     Australia            :COUNTRY
CONT_REGION     .                   Australasia            :Continent Region
SECT            .                                          :Section
TOWN            .                                          :Township
RANG            .                                          :Range
API             .                                          :API NUMBER
UWI             .                     17AWA0007            :UNIQUE WELL ID
LUL             .                Forward Port Deck         :Logging Unit Location
LUN             .                   OLU-MA-5088            :Logging Unit Number
LOC             .                         GWF-2            :FIELD LOCATION
FL1             .                N 7,810,790.200 m         :Field Location Line 1
FL2             .                E 366,341.060 m           :Field Location Line 2
LATI            .deg             19° 47' 39.055" S         :LATITUDE
LONG            .deg             115° 43' 26.349" E        :LONGITUDE
PDAT            .                         OTHER            :Local Permanent Datum
LMF             .                            DF            :Logging Measured From
APD             .m                     23.85000            :Elevation of Depth Reference (LMF) Above Permanent Datum
EPD             .m                     -1.60000            :Elevation of Permanent Datum (PDAT) above Mean Sea Level
EKB             .m                      -999.25            :Elevation of Kelly Bushing Above Permanent Datum
EDF             .m                     23.85000            :Elevation of Drill Floor Above Permanent Datum
EGL             .m                    -93.16000            :Elevation of Ground Level Above Permanent Datum
ECF             .m                      -999.25            :Elevation of Casing Flange above Permanent Datum
#--------------------------------------------------
~CURVE INFORMATION
#MNEM           .UNIT                  API CODE            :DESCRIPTION
#----            ------          --------------            -----------------------------
DEPT            .m                                         :                                                        Depth Index
TVD             .m                                         :(RT)    (DnMWorkflow)           (6in)                   True Vertical Depth
ROP5            .m/h                                       :(RT)    (DRILLING_SURFACE)      (6in)                   Rate of penetration averaged over the last 5 ft (1.5 m)
GR              .gAPI                                      :(RM)    (ARC9)                  (6in)                   Gamma Ray
GR_CAL          .gAPI                                      :(RM)    (ARC9)                  (6in)                   Calibrated Gamma Ray
GRR             .1/s                                       :(RM)    (ARC9)                  (6in)                   Raw Gamma Ray
TAB_RES         .h                                         :        (ARC9)                  (6in)                   Resistivity Time After Bit
P16H            .ohm.m                                     :(RM)    (ARC9)                  (6in)                   Phase Shift Resistivity 16 inch Spacing at 2 MHz, Environmentally Corrected.
P28H            .ohm.m                                     :(RM)    (ARC9)                  (6in)                   Phase Shift Resistivity 28 inch Spacing at 2 MHz, Environmentally Corrected.
P40H            .ohm.m                                     :(RM)    (ARC9)                  (6in)                   Phase Shift Resistivity 40 inch Spacing at 2 MHz, Environmentally Corrected.
A40H            .ohm.m                                     :(RM)    (ARC9)                  (6in)                   Attenuation Resistivity 40 inch Spacing at 2 MHz, Environmentally Corrected.
ECD             .g/cm3                                     :(RM)    (ARC9)                  (6in)                   Equivalent Circulating Density
DHAT            .degC                                      :(RM)    (ARC9)                  (6in)                   Downhole Annulus Temperature
DHAP            .psi                                       :(RM)    (ARC9)                  (6in)                   Downhole Annulus Pressure
#-------------------------------------------------------------
#            DEPT          TVD         ROP5           GR       GR_CAL          GRR      TAB_RES         P16H         P28H         P40H         A40H          ECD         DHAT         DHAP 
#                  (DnMWorkfl)  (DRILLING_)       (ARC9)       (ARC9)       (ARC9)       (ARC9)       (ARC9)       (ARC9)       (ARC9)       (ARC9)       (ARC9)       (ARC9)       (ARC9) 
#                         (RT)         (RT)         (RM)         (RM)         (RM)                      (RM)         (RM)         (RM)         (RM)         (RM)         (RM)         (RM) 
#                        (6in)        (6in)        (6in)        (6in)        (6in)        (6in)        (6in)        (6in)        (6in)        (6in)        (6in)        (6in)        (6in) 
~ASCII
        309.98160    309.97389    105.77610     53.47681     21.15487      2.00667      1.83240      9.93147     10.00766      5.46791      0.49300      1.10419     34.00000    483.00003
        310.13400    310.12628    135.68210     47.81008     18.91316      1.66333      1.83559   1000.00000     14.79354      0.72390      0.52370      1.10141     34.00000    482.00000
        310.28640    310.27868    140.86650     41.02429     16.22878      1.36000      1.83851      6.85982     11.37486      5.20906      0.42526      1.10567     34.00000    484.00007
        310.43880    310.43107    124.30480     38.75045     15.32927      1.36000      1.83884      3.18827    236.01660     14.14194      0.40294      1.10272     34.00000    483.00003
        310.59120    310.58346    128.39830     39.14331     15.48468      1.34500      1.84111      5.73071     12.04507   1000.00000      0.31220      1.10446     34.00000    484.00007
        310.74360    310.73586    147.43210     39.03617     15.44230      1.43000      1.84212    153.37600     10.06285      9.57210      0.42933      1.10579     34.00000    484.99996
        310.89600    310.88825    132.09590     36.89329     14.59460      1.26000      1.84248      5.50050     18.53836      7.53463      0.10717      1.10987     34.00000    487.00003
        311.04840    311.04065    136.54450     36.07185     14.26964      1.21500      1.84491   1000.00000     13.17823     26.57490    200.00000      1.10925     34.00000    487.00003
        311.20080    311.19304    127.11820     38.07187     15.06083      1.36000      1.84365    134.01130     12.36384      6.34100      0.47051      1.10896     34.00000    487.00003
        311.35320    311.34543    129.15670     39.85760     15.76725      1.39500      1.84606   1000.00000     11.26251      7.95879      0.44298      1.10860     34.00000    487.00003
        311.50560    311.49783    135.34170     41.32191     16.34651      1.43000      1.84587      6.34873     30.95605      8.09682      0.58141      1.10800     34.00000    487.00003
        311.65800    311.65022    128.34830     42.66716     16.87868      1.53000      1.84663   1000.00000     13.45224      6.77306      0.45954      1.10972     34.00000    488.00006
        311.81040    311.80261    128.39590     41.33381     16.35122      1.48333      1.84772   1000.00000     13.89918      5.73533      0.48362      1.11117     34.00000    488.99995
        311.96280    311.95501    152.51080     38.23854     15.12676      1.29000      1.84920     46.00639     24.01134      5.70975      0.49624      1.11077     34.00000    488.99995
        312.11520    312.10740     33.40091     37.25043     14.73588      1.29000      1.42863   1000.00000     11.95120      7.61101      0.44044      1.11037     34.00000    488.99995
        312.26760    312.25980     29.42922     38.39330     15.18799      1.34500      1.42530   1000.00000     12.65230      5.73500      0.49327      1.11127     34.00000    489.70179
        312.42000    312.41219     27.32083     39.46474     15.61184      1.39500      1.42197   1000.00000     13.95513      8.24097      0.54135      1.11165     34.00000    489.99999
        312.57240    312.56458     21.52822     40.14333     15.88028      1.39000      1.40586   1000.00000     14.04260      6.58233      0.48138      1.11738     34.00000    492.99995
        312.72480    312.71698     18.79657     41.14333     16.27587      1.44500      1.39795   1000.00000     16.03201      7.86341      0.49015      1.11615     34.00000    492.57978
        312.87720    312.86937     16.99436     41.51238     16.42186      1.48000      1.39003   1000.00000     15.43592      7.63048      0.40896      1.11445     34.00000    492.00006
        313.02960    313.02176     15.60707     40.02427     15.83318      1.40667      1.38406   1000.00000     14.48436      6.80358      0.47116      1.11382     34.00000    492.00006
        313.18200    313.17416     14.32632     40.40523     15.98389      1.31000      1.37766   1000.00000     14.09172      8.73651      0.45646      1.11552     34.00000    492.99995
        313.33440    313.32655     13.37726     44.28623     17.51917      1.63000      1.37392   1000.00000     14.78344      7.19893      0.44879      1.11739     34.00000    493.99999
        313.48680    313.47894     12.54807     45.35767     17.94302      1.63000      1.36808   1000.00000     14.26604      7.05988      0.47992      1.11645     34.00000    493.99999
        313.63920    313.63134     16.18524     43.17908     17.08119      1.46000      1.36197   1000.00000     14.26604      7.05988      0.47992      1.12035     34.00000    496.00006
        313.79160    313.78373     15.26562     42.21478     16.69972      1.49500      1.35003   1000.00000     16.00412      7.37367      0.43662      1.11771     34.00000    495.00002
        313.94400    313.93612     13.14322     42.29811     16.73269      1.46000      1.33099   1000.00000     14.84941      7.10180      0.43612      1.11963     34.00000    496.00006
        314.09640    314.08851     11.51991     42.96716     16.99736      1.50667      1.30114   1000.00000     11.74838      6.15680      0.42789      1.11898     34.00000    496.00006
        314.24880    314.24091      9.52303     43.93385     17.37977      1.54200      1.26335   1000.00000     14.24204      6.96902      0.43511      1.11834     34.00000    496.00006
        314.40120    314.39330      8.95843     43.26479     17.11510      1.56000      1.25155   1000.00000     15.96665      7.35083      0.45871      1.11897     34.00000    496.48941
        314.55360    314.54569      8.86925     42.01240     16.61966      1.39500      1.24378   1000.00000     14.44892      6.92828      0.45146      1.11962     34.00000    496.99995
        314.70600    314.69809      8.95080     43.97075     17.39437      1.53167      1.23766   1000.00000     13.83868      6.71248      0.43408      1.12101     34.00000    497.99998
        314.85840    314.85048      8.88824     45.54815     18.01837      1.69750      1.23364   1000.00000     14.79026      6.88946      0.43903      1.12276     34.00000    499.00002
        315.01080    315.00287      8.83018     44.73266     17.69577      1.45000      1.22919   1000.00000     16.99487      7.66284      0.44879      1.12219     34.00000    499.00002
        315.16320    315.15526      8.79884     47.42912     18.76246      1.66500      1.22545   1000.00000     12.48267      6.15737      0.42784      1.12303     34.00000    499.51156
        315.31560    315.30766      8.77525     50.92916     20.14704      1.86000      1.21836   1000.00000      6.77163      4.42797      0.41127      1.12384     34.00000    500.00005
        315.46800    315.46005      9.31373     49.75058     19.68081      1.74500      1.20739   1000.00000      6.43991      3.87470      0.41701      1.12063     34.00000    499.00002
        315.62040    315.61244     10.83902     46.67911     18.46577      1.61500      1.20030   1000.00000      5.49814      3.50128      0.44774      1.12222     34.00000    500.00005
        315.77280    315.76483     13.62641     46.96483     18.57879      1.56000      1.19058     32.41397      4.87870      3.48165      0.42023      1.12189     34.00000    500.00005
        315.92520    315.91723     14.48371     52.76252     20.87230      1.84000      1.18086     82.32355      4.36542      2.99433      0.42150      1.12365     34.00000    500.99994
        316.07760    316.06962     14.08975     56.92923     22.52061      2.14667      1.17017     32.62677      4.06369      2.79824      0.41758      1.12168     34.00000    500.36584
        316.23000    316.22201     13.73625     53.69110     21.23964      1.83667      1.16434    240.25160      4.79648      3.07987      0.40233      1.12054     34.00000    500.00005
        316.38240    316.37440     13.73555     49.50058     19.58191      1.69667      1.15850   1000.00000      6.14991      3.60790      0.42516      1.11982     34.00000    500.00005
