~VERSION INFORMATION 
VERS  .    2.0                                     :CWLS Log ASCII Standard - VERSION 2.0
WRAP  .    NO                                      :One Line per Depth step
PROD  .    Schlumberger Technology Corp.           :LAS Producer
PROG  .    Horizon LASWriter 7.0.78557.3100        :LAS Program name and version
SOURCE.    17.5in Run-Drilling                     :Run&Pass Information
CREA  .    10/06/2017                              :LAS Creation date {MM/DD/YYYY}
#--------------------------------------------------
~WELL INFORMATION 
#MNEM           .UNIT                      DATA            :DESCRIPTION
#----            ------          --------------            -----------------------------
STRT            .m                    309.98160            :START DEPTH
STOP            .m                   2714.09160            :STOP DEPTH
STEP            .m                       0.1524            :STEP
NULL            .                       -999.25            :NULL VALUE
COMP            .                Woodside Energy Ltd       :COMPANY
WELL            .                         SRA01            :WELL NAME
FLD             .                      Sculptor            :FIELD NAME
RIGN            .                    Ocean Apex            :Rig Name
RIGTYP          .                Semi-Submersible          :Rig Type
SON             .                     17AWA0007            :Service Order Number
SRVC            .                  Schlumberger            :SERVICE COMPANY
DATE            .                    01/13/2017            :LOG DATE(Composite Date for Composite LAP) (MM/DD/YYYY)
CLAB            .                       County:            :County Label
CNTY            .                                          :COUNTY
SLAB            .                        State:            :State/Province Label
STAT            .                Western Australia         :STATE or PROVINCE
PROV            .                Western Australia         :STATE or PROVINCE
CTRY            .                     Australia            :COUNTRY
CONT_REGION     .                   Australasia            :Continent Region
SECT            .                                          :Section
TOWN            .                                          :Township
RANG            .                                          :Range
API             .                                          :API NUMBER
UWI             .                     17AWA0007            :UNIQUE WELL ID
LUL             .                Forward Port Deck         :Logging Unit Location
LUN             .                   OLU-MA-5088            :Logging Unit Number
LOC             .                         GWF-2            :FIELD LOCATION
FL1             .                N 7,810,790.200 m         :Field Location Line 1
FL2             .                E 366,341.060 m           :Field Location Line 2
LATI            .deg             19° 47' 39.055" S         :LATITUDE
LONG            .deg             115° 43' 26.349" E        :LONGITUDE
PDAT            .                         OTHER            :Local Permanent Datum
LMF             .                            DF            :Logging Measured From
APD             .m                     23.85000            :Elevation of Depth Reference (LMF) Above Permanent Datum
EPD             .m                     -1.60000            :Elevation of Permanent Datum (PDAT) above Mean Sea Level
EKB             .m                      -999.25            :Elevation of Kelly Bushing Above Permanent Datum
EDF             .m                     23.85000            :Elevation of Drill Floor Above Permanent Datum
EGL             .m                    -93.16000            :Elevation of Ground Level Above Permanent Datum
ECF             .m                      -999.25            :Elevation of Casing Flange above Permanent Datum
#--------------------------------------------------
~CURVE INFORMATION
#MNEM           .UNIT                  API CODE            :DESCRIPTION
#----            ------          --------------            -----------------------------
DEPT            .m                                         :                                                        Depth Index
TVD             .m                                         :(RT)    (DnMWorkflow)           (6in)                   True Vertical Depth
ROP5            .m/h                                       :(RT)    (DRILLING_SURFACE)      (6in)                   Rate of penetration averaged over the last 5 ft (1.5 m)
GR              .gAPI                                      :(RM)    (ARC9)                  (6in)                   Gamma Ray
GR_CAL          .gAPI                                      :(RM)    (ARC9)                  (6in)                   Calibrated Gamma Ray
GRR             .1/s                                       :(RM)    (ARC9)                  (6in)                   Raw Gamma Ray
TAB_RES         .h                                         :        (ARC9)                  (6in)                   Resistivity Time After Bit
P16H            .ohm.m                                     :(RM)    (ARC9)                  (6in)                   Phase Shift Resistivity 16 inch Spacing at 2 MHz, Environmentally Corrected.
P28H            .ohm.m                                     :(RM)    (ARC9)                  (6in)                   Phase Shift Resistivity 28 inch Spacing at 2 MHz, Environmentally Corrected.
P40H            .ohm.m                                     :(RM)    (ARC9)                  (6in)                   Phase Shift Resistivity 40 inch Spacing at 2 MHz, Environmentally Corrected.
A40H            .ohm.m                                     :(RM)    (ARC9)                  (6in)                   Attenuation Resistivity 40 inch Spacing at 2 MHz, Environmentally Corrected.
ECD             .g/cm3                                     :(RM)    (ARC9)                  (6in)                   Equivalent Circulating Density
DHAT            .degC                                      :(RM)    (ARC9)                  (6in)                   Downhole Annulus Temperature
DHAP            .psi                                       :(RM)    (ARC9)                  (6in)                   Downhole Annulus Pressure
#-------------------------------------------------------------
#            DEPT          TVD         ROP5           GR       GR_CAL          GRR      TAB_RES         P16H         P28H         P40H         A40H          ECD         DHAT         DHAP 
#                  (DnMWorkfl)  (DRILLING_)       (ARC9)       (ARC9)       (ARC9)       (ARC9)       (ARC9)       (ARC9)       (ARC9)       (ARC9)       (ARC9)       (ARC9)       (ARC9) 
#                         (RT)         (RT)         (RM)         (RM)         (RM)                      (RM)         (RM)         (RM)         (RM)         (RM)         (RM)         (RM) 
#                        (6in)        (6in)        (6in)        (6in)        (6in)        (6in)        (6in)        (6in)        (6in)        (6in)        (6in)        (6in)        (6in) 
~ASCII
# ...
        631.08840    629.68897     65.78589     48.83282     30.73107      2.56200      0.19792      0.50296      0.48442      0.47697      0.48248      1.24305     42.00000   1109.00002
        631.24080    629.84007     72.04357     51.74988     32.56681      2.94500      0.20501      0.49840      0.47708      0.46993      0.47906      1.24374     42.00000   1110.00006
        631.39320    629.99117     76.19274     52.09263     32.78251      3.07333      0.20820      0.48499      0.46703      0.45805      0.47479      1.24357     42.00000   1110.00006
        631.54560    630.14227     90.02462     46.77935     29.43880      2.51000      0.21084      0.48718      0.47022      0.46463      0.47789      1.24313     42.00000   1110.00006
        631.69800    630.29337     92.31787     42.99269     27.05581      2.32500      0.21320      0.50496      0.48944      0.48507      0.48283      1.24293     42.00000   1110.00006
        631.85040    630.44447     88.76524     44.83364     28.21434      2.41500      0.21306      0.51106      0.49034      0.47784      0.49194      1.24367     42.00000   1110.99995
        632.00280    630.59556     87.74953     50.11699     31.53921      2.83000      0.21403      0.52483      0.50585      0.49840      0.51467      1.24337     42.00000   1110.99995
        632.15520    630.74666     84.90422     54.97378     34.59565      3.08667      0.21571      0.55381      0.53705      0.52831      0.52290      1.24432     42.00000   1111.99998
        632.30760    630.89776     84.27981     56.43680     35.51635      3.24000      0.21777      0.56208      0.54436      0.53131      0.52488      1.24303     42.00000   1110.99995
        632.46000    631.04885     87.40224     53.90364     33.92220      3.00250      0.21973      0.54923      0.52676      0.51534      0.51958      1.24489     42.00000   1113.00002
        632.61240    631.19995     91.75232     51.36299     32.32333      2.76000      0.22250      0.53709      0.51328      0.50041      0.50394      1.24458     42.00000   1113.00002
        632.76480    631.35104     92.77129     53.41122     33.61231      2.91667      0.22543      0.52268      0.50364      0.48819      0.50064      1.24321     42.00000   1111.99998
        632.91720    631.50214     95.71152     60.08051     37.80938      3.30200      0.22779      0.51655      0.49977      0.48813      0.49910      1.24609     42.00000   1114.99994
        633.06960    631.65323     87.19745     64.99567     40.90255      3.86000      0.23126      0.51585      0.49617      0.48840      0.49572      1.24585     42.00000   1114.99994
        633.22200    631.80432     86.56902     62.26271     39.18266      3.45333      0.23501      0.51897      0.49969      0.48643      0.49724      1.24551     42.00000   1114.99994
        633.37440    631.95542     86.82360     58.36380     36.72903      3.10000      0.23736      0.51967      0.49747      0.48672      0.49027      1.24526     42.00000   1114.99994
        633.52680    632.10651     89.67875     59.67342     37.55318      3.34500      0.23944      0.51425      0.49088      0.48459      0.48935      1.24604     42.00000   1115.99998
        633.67920    632.25760     86.44922     61.85111     38.92363      3.50000      0.23889      0.51004      0.49026      0.48335      0.48253      1.24570     42.00000   1115.99998
        633.83160    632.40869     87.07857     62.95119     39.61592      3.43000      0.24029      0.50540      0.48514      0.47801      0.48922      1.24538     42.00000   1115.99998
        633.98400    632.55978     84.56782     63.53489     39.98326      3.66000      0.24016      0.49386      0.47852      0.47070      0.47597      1.24639     42.00000   1117.00002
        634.13640    632.71086     84.04803     62.05317     39.05079      3.40000      0.24043      0.48587      0.47043      0.46468      0.47158      1.24611     42.00000   1117.00002
        634.28880    632.86195     81.77483     60.01017     37.76511      3.36000      0.24015      0.47608      0.46135      0.45939      0.46407      1.24578     42.00000   1117.00002
        634.44120    633.01304     78.26886     58.86520     37.04456      3.24500      0.23972      0.45947      0.44637      0.44184      0.45238      1.24660     42.00000   1118.00005
        634.59360    633.16413     84.04224     58.32638     36.70548      3.26000      0.23917      0.45255      0.43959      0.43328      0.44868      1.24613     42.00000   1118.00005
        634.74600    633.31521     80.53336     59.22440     37.27061      3.22500      0.23889      0.44236      0.43142      0.42111      0.43880      1.24638     42.00000   1118.39513
        634.89840    633.46630     82.79251     60.81839     38.27373      3.48000      0.23987      0.44437      0.43141      0.42971      0.44136      1.24675     42.00000   1118.99994
        635.05080    633.61738     79.80309     59.92037     37.70860      3.36000      0.24043      0.44970      0.43232      0.42642      0.44034      1.24645     42.00000   1118.99994
        635.20320    633.76846     82.85052     57.20386     35.99906      3.14500      0.24223      0.46174      0.44257      0.43742      0.44142      1.24620     42.00000   1118.99994
        635.35560    633.91955     78.51845     55.02616     34.62861      3.09000      0.24252      0.46571      0.44162      0.42722      0.44067      1.24804     42.00000   1121.00001
        635.50800    634.07063     77.47082     55.19828     34.73693      2.93000      0.24209      0.45912      0.43768      0.42739      0.44510      1.24879     42.00000   1121.99990
        635.66040    634.22171     79.94576     58.10936     36.56891      3.34333      0.24320      0.46624      0.44512      0.43812      0.44441      1.24852     42.00000   1121.99990
        635.81280    634.37279     79.33194     59.64348     37.53434      3.32500      0.24418      0.46455      0.44495      0.43226      0.45275      1.24938     42.00000   1123.00008
        635.96520    634.52387     81.75227     59.35910     37.35538      3.29000      0.24681      0.46700      0.45073      0.43755      0.45718      1.25129     42.00000   1125.00001
        636.11760    634.67495     82.25394     57.69777     36.30989      3.31500      0.24722      0.48166      0.46094      0.44763      0.46105      1.25045     42.00000   1124.46569
        636.27000    634.82603     87.19176     55.74458     35.08072      2.93000      0.24779      0.48867      0.47173      0.46274      0.46904      1.24971     42.00000   1123.99997
        636.42240    634.97711     88.02557     55.94663     35.20787      3.24000      0.24835      0.49373      0.47287      0.46297      0.47325      1.25035     42.00000   1125.00001
        636.57480    635.12819     88.32256     55.22821     34.75577      3.05000      0.24918      0.49759      0.48027      0.47117      0.48233      1.25009     42.00000   1125.00001
        636.72720    635.27926     88.18529     54.21046     34.11528      2.96000      0.25098      0.50537      0.48517      0.48091      0.48261      1.25050     42.00000   1125.58828
        636.87960    635.43034     89.84366     55.31802     34.81228      3.10333      0.25446      0.50791      0.48954      0.47979      0.48804      1.25078     42.00000   1126.00004
        637.03200    635.58142     82.88927     55.37190     34.84619      3.15333      0.25418      0.50545      0.48776      0.47735      0.48905      1.25145     42.00000   1127.00008
        637.18440    635.73249     71.52815     53.94405     33.94762      2.92200      0.25501      0.51249      0.49359      0.48578      0.49279      1.25115     42.00000   1127.00008
        637.33680    635.88356     72.24613     55.13991     34.70020      3.01667      0.25737      0.51629      0.49678      0.48873      0.49255      1.25076     42.00000   1127.00008
        637.48920    636.03464     72.50695     58.71552     36.95037      3.32500      0.26279      0.52635      0.50444      0.49853      0.49708      1.25065     42.00000   1127.00008
