~VERSION INFORMATION 
VERS  .    2.0                                     :CWLS Log ASCII Standard - VERSION 2.0
WRAP  .    NO                                      :One Line per Depth step
PROD  .    Schlumberger Technology Corp.           :LAS Producer
PROG  .    Horizon LASWriter 7.0.78557.3100        :LAS Program name and version
SOURCE.    17.5in Run-Drilling                     :Run&Pass Information
CREA  .    10/06/2017                              :LAS Creation date {MM/DD/YYYY}
#--------------------------------------------------
~WELL INFORMATION 
#MNEM           .UNIT                      DATA            :DESCRIPTION
#----            ------          --------------            -----------------------------
STRT            .m                    309.98160            :START DEPTH
STOP            .m                   2714.09160            :STOP DEPTH
STEP            .m                       0.1524            :STEP
NULL            .                       -999.25            :NULL VALUE
COMP            .                Woodside Energy Ltd       :COMPANY
WELL            .                         SRA01            :WELL NAME
FLD             .                      Sculptor            :FIELD NAME
RIGN            .                    Ocean Apex            :Rig Name
RIGTYP          .                Semi-Submersible          :Rig Type
SON             .                     17AWA0007            :Service Order Number
SRVC            .                  Schlumberger            :SERVICE COMPANY
DATE            .                    01/13/2017            :LOG DATE(Composite Date for Composite LAP) (MM/DD/YYYY)
CLAB            .                       County:            :County Label
CNTY            .                                          :COUNTY
SLAB            .                        State:            :State/Province Label
STAT            .                Western Australia         :STATE or PROVINCE
PROV            .                Western Australia         :STATE or PROVINCE
CTRY            .                     Australia            :COUNTRY
CONT_REGION     .                   Australasia            :Continent Region
SECT            .                                          :Section
TOWN            .                                          :Township
RANG            .                                          :Range
API             .                                          :API NUMBER
UWI             .                     17AWA0007            :UNIQUE WELL ID
LUL             .                Forward Port Deck         :Logging Unit Location
LUN             .                   OLU-MA-5088            :Logging Unit Number
LOC             .                         GWF-2            :FIELD LOCATION
FL1             .                N 7,810,790.200 m         :Field Location Line 1
FL2             .                E 366,341.060 m           :Field Location Line 2
LATI            .deg             19° 47' 39.055" S         :LATITUDE
LONG            .deg             115° 43' 26.349" E        :LONGITUDE
PDAT            .                         OTHER            :Local Permanent Datum
LMF             .                            DF            :Logging Measured From
APD             .m                     23.85000            :Elevation of Depth Reference (LMF) Above Permanent Datum
EPD             .m                     -1.60000            :Elevation of Permanent Datum (PDAT) above Mean Sea Level
EKB             .m                      -999.25            :Elevation of Kelly Bushing Above Permanent Datum
EDF             .m                     23.85000            :Elevation of Drill Floor Above Permanent Datum
EGL             .m                    -93.16000            :Elevation of Ground Level Above Permanent Datum
ECF             .m                      -999.25            :Elevation of Casing Flange above Permanent Datum
#--------------------------------------------------
~CURVE INFORMATION
#MNEM           .UNIT                  API CODE            :DESCRIPTION
#----            ------          --------------            -----------------------------
DEPT            .m                                         :                                                        Depth Index
TVD             .m                                         :(RT)    (DnMWorkflow)           (6in)                   True Vertical Depth
ROP5            .m/h                                       :(RT)    (DRILLING_SURFACE)      (6in)                   Rate of penetration averaged over the last 5 ft (1.5 m)
GR              .gAPI                                      :(RM)    (ARC9)                  (6in)                   Gamma Ray
GR_CAL          .gAPI                                      :(RM)    (ARC9)                  (6in)                   Calibrated Gamma Ray
GRR             .1/s                                       :(RM)    (ARC9)                  (6in)                   Raw Gamma Ray
TAB_RES         .h                                         :        (ARC9)                  (6in)                   Resistivity Time After Bit
P16H            .ohm.m                                     :(RM)    (ARC9)                  (6in)                   Phase Shift Resistivity 16 inch Spacing at 2 MHz, Environmentally Corrected.
P28H            .ohm.m                                     :(RM)    (ARC9)                  (6in)                   Phase Shift Resistivity 28 inch Spacing at 2 MHz, Environmentally Corrected.
P40H            .ohm.m                                     :(RM)    (ARC9)                  (6in)                   Phase Shift Resistivity 40 inch Spacing at 2 MHz, Environmentally Corrected.
A40H            .ohm.m                                     :(RM)    (ARC9)                  (6in)                   Attenuation Resistivity 40 inch Spacing at 2 MHz, Environmentally Corrected.
ECD             .g/cm3                                     :(RM)    (ARC9)                  (6in)                   Equivalent Circulating Density
DHAT            .degC                                      :(RM)    (ARC9)                  (6in)                   Downhole Annulus Temperature
DHAP            .psi                                       :(RM)    (ARC9)                  (6in)                   Downhole Annulus Pressure
#-------------------------------------------------------------
#            DEPT          TVD         ROP5           GR       GR_CAL          GRR      TAB_RES         P16H         P28H         P40H         A40H          ECD         DHAT         DHAP 
#                  (DnMWorkfl)  (DRILLING_)       (ARC9)       (ARC9)       (ARC9)       (ARC9)       (ARC9)       (ARC9)       (ARC9)       (ARC9)       (ARC9)       (ARC9)       (ARC9) 
#                         (RT)         (RT)         (RM)         (RM)         (RM)                      (RM)         (RM)         (RM)         (RM)         (RM)         (RM)         (RM) 
#                        (6in)        (6in)        (6in)        (6in)        (6in)        (6in)        (6in)        (6in)        (6in)        (6in)        (6in)        (6in)        (6in) 
~ASCII
# ...
       2374.23960   1937.16676     28.09897      2.69479     64.48184      5.59000      0.29084      1.39317      1.31118      1.38596      1.46861      1.30298     70.00000   3585.57944
       2374.39200   1937.26511     28.60106      1.69389     63.88845      5.63000      0.28889      1.33412      1.15728      1.29606      1.44158      1.30272     70.00000   3585.00074
       2374.54440   1937.36345     35.73177      3.45737     64.93394      5.76000      0.28875      1.33412      1.15728      1.29606      1.44158      1.30408     70.00000   3588.99943
       2374.69680   1937.46179     37.86089      6.48393     66.72826      5.83000      0.28902      1.10153      0.98358      1.15609      1.33554      1.30328     70.00000   3586.99936
       2374.84920   1937.56013     44.33897      9.79642     68.69209      6.19500      0.28986      1.10153      0.98358      1.15609      1.33554      1.30393     70.00000   3588.99943
       2375.00160   1937.65847     48.97470     10.28496     68.98172      6.09000      0.29000      1.03846      0.90205      0.92023      1.38192      1.30389     70.00000   3588.99943
       2375.15400   1937.75680     63.26789      8.53338     67.94328      6.03750      0.29195      1.05057      0.89450      0.96602      1.28913      1.30384     70.00000   3588.99943
       2375.30640   1937.85514     70.14471      5.59025     66.19843      5.88000      0.29486      1.18124      0.94007      1.01989      1.24328      1.30351     70.00000   3588.32065
       2375.45880   1937.95347     84.65266      3.74336     65.10349      5.63000      0.29945      1.30277      1.04942      1.10978      1.20071      1.30336     70.00000   3588.00012
       2375.61120   1938.05181     94.26962      5.04612     65.87584      5.90000      0.30167      1.14829      1.08533      1.16753      1.19474      1.30325     70.00000   3588.00012
       2375.76360   1938.15014    102.78550      7.08764     67.08617      5.88333      0.30389      1.14866      1.07614      1.20711      1.24132      1.30390     70.00000   3590.00019
       2375.91600   1938.24847    105.72070      8.62076     67.99509      6.07500      0.30459      1.16604      1.19360      1.35026      1.27658      1.30528     70.00000   3594.00033
       2376.06840   1938.34680    115.54160      8.93852     68.18347      6.03000      0.30598      1.35525      1.25024      1.46050      1.31633      1.30341     70.00000   3588.99943
       2376.22080   1938.44513     98.69128      8.84318     68.12695      5.99500      0.30583      1.18359      1.33461      1.50700      1.35212      1.30406     70.00000   3590.99950
       2376.37320   1938.54346     89.69415      9.74876     68.66383      6.09000      0.30362      1.21005      1.39453      1.72422      1.36899      1.30727     70.00000   3600.00054
       2376.52560   1938.64178     76.39157     12.13187     70.07667      6.12500      0.30180      1.69888      1.68045      1.76495      1.43147      1.30468     70.00000   3592.99957
       2376.67800   1938.74011     72.18024     16.37379     72.59151      6.46000      0.30112      1.46479      1.49601      1.67635      1.55129      1.30572     70.00000   3596.00040
       2376.83040   1938.83843     67.27494     19.80546     74.62600      6.64500      0.30014      1.70113      1.56818      1.74456      1.65066      1.30529     70.00000   3594.99964
       2376.98280   1938.93675     60.65607     17.49386     73.25555      6.66000      0.29987      1.76684      1.59629      1.78152      1.74921      1.30483     70.00000   3594.00033
       2377.13520   1939.03507     55.74252      9.52634     68.53197      5.96000      0.29813      1.67490      1.47199      1.64158      1.78200      1.30447     70.00000   3593.14026
       2377.28760   1939.13339     51.83217      6.61697     66.80713      5.67333      0.29806      1.66927      1.55654      1.69092      1.86329      1.30399     70.00000   3592.00026
       2377.44000   1939.23171     50.36792      9.08547     68.27059      6.33625      0.29778      1.72433      1.64430      1.83617      1.93698      1.30392     70.00000   3592.00026
       2377.59240   1939.33003     48.33331      8.18983     67.73961      5.81500      0.30084      1.98044      1.99493      2.10720      1.95704      1.30389     69.00000   3592.00026
       2377.74480   1939.42834     48.71726      8.00911     67.63247      6.00667      0.51139      2.30343      1.98194      1.94763      1.93699      1.30485     69.00000   3594.99964
       2377.89720   1939.52666     47.77248     12.68793     70.40633      6.10667      0.51056      1.83572      1.69204      2.02768      2.00882      1.30334     69.00000   3590.99950
       2378.04960   1939.62497     48.79049     17.44618     73.22729      6.69667      0.51162      1.78912      1.76441      2.03611      1.95082      1.30437     69.00000   3594.00033
       2378.20200   1939.72328     46.76388     17.62889     73.33561      6.41500      0.51237      1.84292      1.81914      2.08250      1.97497      1.29885     69.00000   3579.00053
       2378.35440   1939.82160     46.29159     16.00839     72.37489      6.42667      0.51320      1.87734      1.85451      2.10351      1.98808      1.29916     69.00000   3579.99984
       2378.50680   1939.91991     45.40141     12.05879     70.03334      6.34500      0.51251      2.04410      1.84717      2.09824      2.03208      1.29910     69.00000   3579.99984
       2378.65920   1940.01821     42.89995      6.46485     66.71694      5.66800      0.51042      2.00744      2.01447      2.13852      2.06582      1.30046     69.00000   3583.99998
       2378.81160   1940.11652     43.10542      5.13190     65.92670      5.93000      0.51334      2.42258      2.02116      2.21106      2.09572      1.30041     69.00000   3583.99998
       2378.96400   1940.21483     42.38241      5.71338     66.27143      5.80333      0.51279      2.13083      2.05195      2.26570      2.17660      1.30072     69.00000   3585.00074
       2379.11640   1940.31313     40.80329      5.99935     66.44097      5.91667      0.51363      2.07633      2.00198      2.31478      2.20988      1.30210     69.00000   3588.99943
       2379.26880   1940.41144     39.83847      4.98256     65.83816      5.87667      0.51349      1.96979      2.11886      2.38108      2.12755      1.30168     69.00000   3588.00012
       2379.42120   1940.50974     40.76077      3.77512     65.12232      5.63000      0.51447      2.22437      2.06104      2.42470      2.10191      1.30164     69.00000   3588.00012
       2379.57360   1940.60804     40.20146      4.45829     65.52734      5.91000      0.51598      2.08743      2.12478      2.43589      2.10248      1.30298     69.00000   3592.00026
       2379.72600   1940.70634     40.22809      4.33912     65.45670      5.74000      0.51631      2.52227      2.21267      2.30442      2.01826      1.30291     69.00000   3592.00026
       2379.87840   1940.80464     39.74962      2.10694     64.13333      5.77500      0.51597      2.07401      1.92413      2.28081      2.04085      1.30322     69.00000   3592.99957
       2380.03080   1940.90294     39.52868      0.00000     61.86338      5.40667      0.51612      1.71654      1.72670      2.11385      1.97860      1.30316     69.00000   3592.99957
       2380.18320   1941.00123     41.33832      0.00000     62.01409      5.30500      0.51612      1.70251      1.59888      1.75446      1.99118      1.30276     69.00000   3592.00026
       2380.33560   1941.09953     41.00903      4.27558     65.41902      5.93000      0.51667      1.63859      1.53892      1.66798      1.89299      1.30160     69.00000   3588.99943
       2380.48800   1941.19782     41.77553      4.42650     65.50850      5.98667      0.51646      1.47251      1.44900      1.61010      1.71178      1.30259     69.00000   3592.00026
       2380.64040   1941.29611     42.39100      0.00000     61.81628      5.28000      0.51640      1.33406      1.38484      1.53700      1.61763      1.30256     69.00000   3592.00026
