~VERSION INFORMATION 
VERS  .    2.0                                     :CWLS Log ASCII Standard - VERSION 2.0
WRAP  .    NO                                      :One Line per Depth step
PROD  .    Schlumberger Technology Corp.           :LAS Producer
PROG  .    Horizon LASWriter 7.0.78557.3100        :LAS Program name and version
SOURCE.    17.5in Run-Drilling                     :Run&Pass Information
CREA  .    10/06/2017                              :LAS Creation date {MM/DD/YYYY}
#--------------------------------------------------
~WELL INFORMATION 
#MNEM           .UNIT                      DATA            :DESCRIPTION
#----            ------          --------------            -----------------------------
STRT            .m                    309.98160            :START DEPTH
STOP            .m                   2714.09160            :STOP DEPTH
STEP            .m                       0.1524            :STEP
NULL            .                       -999.25            :NULL VALUE
COMP            .                Woodside Energy Ltd       :COMPANY
WELL            .                         SRA01            :WELL NAME
FLD             .                      Sculptor            :FIELD NAME
RIGN            .                    Ocean Apex            :Rig Name
RIGTYP          .                Semi-Submersible          :Rig Type
SON             .                     17AWA0007            :Service Order Number
SRVC            .                  Schlumberger            :SERVICE COMPANY
DATE            .                    01/13/2017            :LOG DATE(Composite Date for Composite LAP) (MM/DD/YYYY)
CLAB            .                       County:            :County Label
CNTY            .                                          :COUNTY
SLAB            .                        State:            :State/Province Label
STAT            .                Western Australia         :STATE or PROVINCE
PROV            .                Western Australia         :STATE or PROVINCE
CTRY            .                     Australia            :COUNTRY
CONT_REGION     .                   Australasia            :Continent Region
SECT            .                                          :Section
TOWN            .                                          :Township
RANG            .                                          :Range
API             .                                          :API NUMBER
UWI             .                     17AWA0007            :UNIQUE WELL ID
LUL             .                Forward Port Deck         :Logging Unit Location
LUN             .                   OLU-MA-5088            :Logging Unit Number
LOC             .                         GWF-2            :FIELD LOCATION
FL1             .                N 7,810,790.200 m         :Field Location Line 1
FL2             .                E 366,341.060 m           :Field Location Line 2
LATI            .deg             19° 47' 39.055" S         :LATITUDE
LONG            .deg             115° 43' 26.349" E        :LONGITUDE
PDAT            .                         OTHER            :Local Permanent Datum
LMF             .                            DF            :Logging Measured From
APD             .m                     23.85000            :Elevation of Depth Reference (LMF) Above Permanent Datum
EPD             .m                     -1.60000            :Elevation of Permanent Datum (PDAT) above Mean Sea Level
EKB             .m                      -999.25            :Elevation of Kelly Bushing Above Permanent Datum
EDF             .m                     23.85000            :Elevation of Drill Floor Above Permanent Datum
EGL             .m                    -93.16000            :Elevation of Ground Level Above Permanent Datum
ECF             .m                      -999.25            :Elevation of Casing Flange above Permanent Datum
#--------------------------------------------------
~CURVE INFORMATION
#MNEM           .UNIT                  API CODE            :DESCRIPTION
#----            ------          --------------            -----------------------------
DEPT            .m                                         :                                                        Depth Index
TVD             .m                                         :(RT)    (DnMWorkflow)           (6in)                   True Vertical Depth
ROP5            .m/h                                       :(RT)    (DRILLING_SURFACE)      (6in)                   Rate of penetration averaged over the last 5 ft (1.5 m)
GR              .gAPI                                      :(RM)    (ARC9)                  (6in)                   Gamma Ray
GR_CAL          .gAPI                                      :(RM)    (ARC9)                  (6in)                   Calibrated Gamma Ray
GRR             .1/s                                       :(RM)    (ARC9)                  (6in)                   Raw Gamma Ray
TAB_RES         .h                                         :        (ARC9)                  (6in)                   Resistivity Time After Bit
P16H            .ohm.m                                     :(RM)    (ARC9)                  (6in)                   Phase Shift Resistivity 16 inch Spacing at 2 MHz, Environmentally Corrected.
P28H            .ohm.m                                     :(RM)    (ARC9)                  (6in)                   Phase Shift Resistivity 28 inch Spacing at 2 MHz, Environmentally Corrected.
P40H            .ohm.m                                     :(RM)    (ARC9)                  (6in)                   Phase Shift Resistivity 40 inch Spacing at 2 MHz, Environmentally Corrected.
A40H            .ohm.m                                     :(RM)    (ARC9)                  (6in)                   Attenuation Resistivity 40 inch Spacing at 2 MHz, Environmentally Corrected.
ECD             .g/cm3                                     :(RM)    (ARC9)                  (6in)                   Equivalent Circulating Density
DHAT            .degC                                      :(RM)    (ARC9)                  (6in)                   Downhole Annulus Temperature
DHAP            .psi                                       :(RM)    (ARC9)                  (6in)                   Downhole Annulus Pressure
#-------------------------------------------------------------
#            DEPT          TVD         ROP5           GR       GR_CAL          GRR      TAB_RES         P16H         P28H         P40H         A40H          ECD         DHAT         DHAP 
#                  (DnMWorkfl)  (DRILLING_)       (ARC9)       (ARC9)       (ARC9)       (ARC9)       (ARC9)       (ARC9)       (ARC9)       (ARC9)       (ARC9)       (ARC9)       (ARC9) 
#                         (RT)         (RT)         (RM)         (RM)         (RM)                      (RM)         (RM)         (RM)         (RM)         (RM)         (RM)         (RM) 
#                        (6in)        (6in)        (6in)        (6in)        (6in)        (6in)        (6in)        (6in)        (6in)        (6in)        (6in)        (6in)        (6in) 
~ASCII
# ...
        945.64200    924.68022    111.34940     78.06609     48.54505      4.33000      0.17639      0.37743      0.36603      0.35786      0.36740      1.30687     47.00000   1714.27064
        945.79440    924.81465    111.01180     78.54321     48.84174      4.33000      0.17653      0.37459      0.36323      0.35403      0.37203      1.30727     47.00000   1715.00018
        945.94680    924.94909    103.78160     78.70225     48.94064      4.29500      0.17646      0.37772      0.36580      0.35649      0.37783      1.30705     47.00000   1715.00018
        946.09920    925.08352    103.30510     80.06546     49.78835      4.40000      0.17750      0.38047      0.36906      0.36255      0.38211      1.30689     47.00000   1715.00018
        946.25160    925.21795     95.73080     81.83762     50.89035      4.52500      0.17653      0.39396      0.38048      0.37654      0.39141      1.30737     47.00000   1715.99949
        946.40400    925.35239     92.94348     83.95058     52.20429      4.56000      0.17667      0.40301      0.38921      0.38391      0.40020      1.30762     47.00000   1716.49697
        946.55640    925.48682     86.56735     85.92723     53.43346      4.83000      0.17640      0.41169      0.39592      0.38865      0.39462      1.30787     47.00000   1717.00025
        946.70880    925.62126     85.96925     84.45043     52.51512      4.69000      0.17666      0.41384      0.40157      0.39373      0.40633      1.30761     47.00000   1717.00025
        946.86120    925.75570     81.30139     78.79314     48.99715      4.37500      0.17653      0.42186      0.40895      0.40551      0.41400      1.30743     47.00000   1717.00025
        947.01360    925.89014     81.65179     73.31760     45.59222      3.90000      0.17667      0.42345      0.41228      0.40591      0.41051      1.30728     47.00000   1717.00025
        947.16600    926.02457     76.62702     70.72752     43.98159      3.96000      0.17598      0.43121      0.41723      0.40341      0.42117      1.30781     47.00000   1717.99956
        947.31840    926.15901     73.76639     68.66000     42.69591      3.74500      0.17639      0.43271      0.42157      0.41783      0.42581      1.30758     47.00000   1717.99956
        947.47080    926.29345     76.19389     68.59183     42.65352      3.66000      0.17611      0.43691      0.42530      0.41843      0.42657      1.30743     47.00000   1717.99956
        947.62320    926.42789     71.84626     72.29520     44.95644      4.03000      0.17542      0.43725      0.42731      0.41701      0.43308      1.30726     47.00000   1717.99956
        947.77560    926.56233     72.22350     76.06673     47.30175      4.19000      0.17459      0.43844      0.42713      0.41805      0.43396      1.30776     47.00000   1719.00032
        947.92800    926.69678     73.10442     78.65682     48.91239      4.33000      0.17473      0.43855      0.42998      0.42210      0.43206      1.30848     47.00000   1720.13162
        948.08040    926.83122     75.52540     80.65618     50.15568      4.46000      0.17416      0.44204      0.43100      0.42407      0.44361      1.30903     47.00000   1721.00039
        948.23280    926.96566     78.15551     80.97426     50.35348      4.50000      0.17445      0.44350      0.43328      0.42238      0.43810      1.30870     47.00000   1721.00039
        948.38520    927.10010     78.71100     79.29298     49.30798      4.36000      0.17375      0.45111      0.44116      0.43182      0.46257      1.30857     47.00000   1721.00039
        948.53760    927.23455     80.70668     78.06609     48.54505      4.23000      0.17403      0.45712      0.45297      0.45286      0.45853      1.30835     47.00000   1721.00039
        948.69000    927.36899     85.82463     77.61169     48.26248      4.36000      0.17389      0.45712      0.45297      0.45286      0.45853      1.30854     47.00000   1721.46451
        948.84240    927.50344     88.83201     76.88465     47.81037      4.13000      0.17348      0.47597      0.46997      0.46200      0.47461      1.30877     47.00000   1721.99970
        948.99480    927.63788     87.36769     77.83890     48.40377      4.30000      0.17334      0.47257      0.46379      0.45378      0.46482      1.30857     47.00000   1721.99970
        949.14720    927.77233     95.01360     79.52018     49.44926      4.40000      0.17403      0.46816      0.46098      0.44801      0.47395      1.30839     47.00000   1721.99970
        949.29960    927.90678     97.04433     79.20210     49.25147      4.40000      0.17277      0.46681      0.46184      0.45690      0.47193      1.30855     47.00000   1722.47688
        949.45200    928.04122     95.19728     76.29394     47.44304      4.23000      0.17347      0.47145      0.46683      0.46258      0.47772      1.30872     47.00000   1723.00046
        949.60440    928.17567     95.12640     72.18160     44.88580      3.93000      0.17264      0.47650      0.47370      0.46554      0.47876      1.30857     47.00000   1723.00046
        949.75680    928.31012     94.85474     68.84175     42.80893      3.79500      0.17250      0.47946      0.47129      0.45928      0.48446      1.30841     47.00000   1723.00046
        949.90920    928.44457     96.31645     66.41071     41.29720      3.63000      0.17278      0.47574      0.46959      0.45854      0.47401      1.30906     47.00000   1724.15061
        950.06160    928.57902     98.08325     67.68302     42.08838      3.56000      0.17319      0.48424      0.47613      0.46865      0.49014      1.30954     47.00000   1725.00053
        950.21400    928.71347     96.52811     74.38544     46.25625      4.14500      0.17418      0.48914      0.48500      0.47691      0.48310      1.30933     47.00000   1725.00053
        950.36640    928.84792     97.56372     79.27026     49.29385      4.52000      0.17403      0.50103      0.49237      0.48820      0.48556      1.30919     47.00000   1725.00053
        950.51880    928.98238     99.23923     76.80891     47.76328      4.26000      0.17597      0.48596      0.47177      0.46678      0.47650      1.30966     47.00000   1725.99984
        950.67120    929.11683     96.35777     73.23430     45.54042      3.86333      0.17876      0.45442      0.44372      0.43625      0.46065      1.30912     47.00000   1725.48206
        950.82360    929.25128    103.46230     73.53723     45.72879      4.13000      0.18139      0.44173      0.43641      0.42892      0.44493      1.30862     47.00000   1725.00053
        950.97600    929.38574    101.81990     74.83985     46.53882      4.06000      0.18389      0.44297      0.43654      0.42817      0.44895      1.30986     47.00000   1727.00060
        951.12840    929.52019    106.87230     76.40753     47.51368      4.22000      0.18596      0.45292      0.44397      0.43899      0.45178      1.30963     47.00000   1727.00060
        951.28080    929.65465    108.90300     76.31665     47.45716      4.31500      0.18889      0.45292      0.44397      0.43899      0.45178      1.30945     47.00000   1727.00060
        951.43320    929.78910    108.56750     72.47697     45.06947      3.94500      0.37835      0.46671      0.45025      0.44455      0.45256      1.31003     47.00000   1727.99991
        951.58560    929.92356    106.54230     69.36432     43.13389      3.74500      0.38125      0.47390      0.45817      0.44762      0.45093      1.30905     47.00000   1727.00060
        951.73800    930.05802    107.79670     69.36431     43.13388      3.83000      0.38181      0.47110      0.45419      0.43980      0.45873      1.30894     47.00000   1727.00060
        951.89040    930.19248    105.05810     70.47759     43.82617      3.86000      0.38181      0.46358      0.44571      0.43697      0.44777      1.31028     47.00000   1729.00067
        952.04280    930.32693    106.60950     71.97712     44.75865      3.96000      0.38265      0.45982      0.44950      0.43698      0.44988      1.30090     47.00000   1717.00025
