~VERSION INFORMATION 
VERS  .    2.0                                     :CWLS Log ASCII Standard - VERSION 2.0
WRAP  .    NO                                      :One Line per Depth step
PROD  .    Schlumberger Technology Corp.           :LAS Producer
PROG  .    Horizon LASWriter 7.0.78557.3100        :LAS Program name and version
SOURCE.    17.5in Run-Drilling                     :Run&Pass Information
CREA  .    10/06/2017                              :LAS Creation date {MM/DD/YYYY}
#--------------------------------------------------
~WELL INFORMATION 
#MNEM           .UNIT                      DATA            :DESCRIPTION
#----            ------          --------------            -----------------------------
STRT            .m                    309.98160            :START DEPTH
STOP            .m                   2714.09160            :STOP DEPTH
STEP            .m                       0.1524            :STEP
NULL            .                       -999.25            :NULL VALUE
COMP            .                Woodside Energy Ltd       :COMPANY
WELL            .                         SRA01            :WELL NAME
FLD             .                      Sculptor            :FIELD NAME
RIGN            .                    Ocean Apex            :Rig Name
RIGTYP          .                Semi-Submersible          :Rig Type
SON             .                     17AWA0007            :Service Order Number
SRVC            .                  Schlumberger            :SERVICE COMPANY
DATE            .                    01/13/2017            :LOG DATE(Composite Date for Composite LAP) (MM/DD/YYYY)
CLAB            .                       County:            :County Label
CNTY            .                                          :COUNTY
SLAB            .                        State:            :State/Province Label
STAT            .                Western Australia         :STATE or PROVINCE
PROV            .                Western Australia         :STATE or PROVINCE
CTRY            .                     Australia            :COUNTRY
CONT_REGION     .                   Australasia            :Continent Region
SECT            .                                          :Section
TOWN            .                                          :Township
RANG            .                                          :Range
API             .                                          :API NUMBER
UWI             .                     17AWA0007            :UNIQUE WELL ID
LUL             .                Forward Port Deck         :Logging Unit Location
LUN             .                   OLU-MA-5088            :Logging Unit Number
LOC             .                         GWF-2            :FIELD LOCATION
FL1             .                N 7,810,790.200 m         :Field Location Line 1
FL2             .                E 366,341.060 m           :Field Location Line 2
LATI            .deg             19° 47' 39.055" S         :LATITUDE
LONG            .deg             115° 43' 26.349" E        :LONGITUDE
PDAT            .                         OTHER            :Local Permanent Datum
LMF             .                            DF            :Logging Measured From
APD             .m                     23.85000            :Elevation of Depth Reference (LMF) Above Permanent Datum
EPD             .m                     -1.60000            :Elevation of Permanent Datum (PDAT) above Mean Sea Level
EKB             .m                      -999.25            :Elevation of Kelly Bushing Above Permanent Datum
EDF             .m                     23.85000            :Elevation of Drill Floor Above Permanent Datum
EGL             .m                    -93.16000            :Elevation of Ground Level Above Permanent Datum
ECF             .m                      -999.25            :Elevation of Casing Flange above Permanent Datum
#--------------------------------------------------
~CURVE INFORMATION
#MNEM           .UNIT                  API CODE            :DESCRIPTION
#----            ------          --------------            -----------------------------
DEPT            .m                                         :                                                        Depth Index
TVD             .m                                         :(RT)    (DnMWorkflow)           (6in)                   True Vertical Depth
ROP5            .m/h                                       :(RT)    (DRILLING_SURFACE)      (6in)                   Rate of penetration averaged over the last 5 ft (1.5 m)
GR              .gAPI                                      :(RM)    (ARC9)                  (6in)                   Gamma Ray
GR_CAL          .gAPI                                      :(RM)    (ARC9)                  (6in)                   Calibrated Gamma Ray
GRR             .1/s                                       :(RM)    (ARC9)                  (6in)                   Raw Gamma Ray
TAB_RES         .h                                         :        (ARC9)                  (6in)                   Resistivity Time After Bit
P16H            .ohm.m                                     :(RM)    (ARC9)                  (6in)                   Phase Shift Resistivity 16 inch Spacing at 2 MHz, Environmentally Corrected.
P28H            .ohm.m                                     :(RM)    (ARC9)                  (6in)                   Phase Shift Resistivity 28 inch Spacing at 2 MHz, Environmentally Corrected.
P40H            .ohm.m                                     :(RM)    (ARC9)                  (6in)                   Phase Shift Resistivity 40 inch Spacing at 2 MHz, Environmentally Corrected.
A40H            .ohm.m                                     :(RM)    (ARC9)                  (6in)                   Attenuation Resistivity 40 inch Spacing at 2 MHz, Environmentally Corrected.
ECD             .g/cm3                                     :(RM)    (ARC9)                  (6in)                   Equivalent Circulating Density
DHAT            .degC                                      :(RM)    (ARC9)                  (6in)                   Downhole Annulus Temperature
DHAP            .psi                                       :(RM)    (ARC9)                  (6in)                   Downhole Annulus Pressure
#-------------------------------------------------------------
#            DEPT          TVD         ROP5           GR       GR_CAL          GRR      TAB_RES         P16H         P28H         P40H         A40H          ECD         DHAT         DHAP 
#                  (DnMWorkfl)  (DRILLING_)       (ARC9)       (ARC9)       (ARC9)       (ARC9)       (ARC9)       (ARC9)       (ARC9)       (ARC9)       (ARC9)       (ARC9)       (ARC9) 
#                         (RT)         (RT)         (RM)         (RM)         (RM)                      (RM)         (RM)         (RM)         (RM)         (RM)         (RM)         (RM) 
#                        (6in)        (6in)        (6in)        (6in)        (6in)        (6in)        (6in)        (6in)        (6in)        (6in)        (6in)        (6in)        (6in) 
~ASCII
# ...
       1581.30240   1426.31463     10.83035     22.54269    104.01300      9.26000      0.14490      0.35196      0.30448      0.30987      0.37071      1.25895     55.00000   2549.65320
       1581.45480   1426.40890     10.84593     29.40414    108.27980      9.73000      0.14597      0.32710      0.29455      0.31849      0.34125      1.26197     55.00000   2556.00005
       1581.60720   1426.50317     10.65575     30.35839    108.87320      9.60000      0.14389      0.31039      0.28973      0.29459      0.38562      1.26040     55.00000   2552.99922
       1581.75960   1426.59744     10.67904     27.90462    107.34730      9.60000      0.14472      0.30142      0.27978      0.31275      0.34212      1.26031     55.00000   2552.99922
       1581.91200   1426.69171     10.65908     23.15612    104.39450      9.19000      0.14556      0.30455      0.27526      0.27854      0.34938      1.26027     55.00000   2552.99922
       1582.06440   1426.78598     10.76999     16.95355    100.53740      8.96500      0.14556      0.30708      0.28894      0.30357      0.33702      1.26018     55.00000   2552.99922
       1582.21680   1426.88025     10.81034     13.47739     98.37578      8.46000      0.14723      0.30708      0.28894      0.30357      0.33702      1.26036     55.00000   2553.54021
       1582.36920   1426.97453     11.23381     14.86332     99.23761      8.93000      0.14736      0.31223      0.30384      0.32320      0.35367      1.26052     55.00000   2553.99998
       1582.52160   1427.06882     11.54737     15.81756     99.83100      8.80000      0.14875      0.35292      0.35419      0.36761      0.35445      1.26102     55.00000   2555.19509
       1582.67400   1427.16312    141.18700     16.40829    100.19830      8.80000      0.14973      0.40103      0.38202      0.38827      0.36430      1.26135     55.00000   2556.00005
       1582.82640   1427.25743    135.59730     19.36188    102.03500      9.06000      0.14978      0.40103      0.38202      0.38827      0.36430      1.25976     55.00000   2552.99922
       1582.97880   1427.35174    129.77580     21.72475    103.50440      9.19000      0.14959      0.41052      0.39122      0.41573      0.41569      1.25968     55.00000   2552.99922
       1583.13120   1427.44607    185.96510     24.61020    105.29870      9.19000      0.15100      0.41052      0.39122      0.41573      0.41569      1.25960     55.00000   2552.99922
       1583.28360   1427.54040    157.01820     28.31359    107.60160      9.69500      0.14944      0.42422      0.42610      0.45979      0.44097      1.26065     55.00000   2555.30387
       1583.43600   1427.63474    156.16540     30.79006    109.14160      9.50000      0.14981      0.45102      0.42907      0.46204      0.41981      1.26142     55.00000   2556.99936
       1583.58840   1427.72909    159.54080     34.99327    111.75530      9.93000      0.15037      0.44207      0.45653      0.44989      0.46313      1.26104     55.00000   2556.43226
       1583.74080   1427.82345    148.22550     40.40064    115.11790     10.19000      0.14973      0.51196      0.46695      0.51671      0.50409      1.26075     55.00000   2556.00005
       1583.89320   1427.91781    148.73240     43.58146    117.09590     10.43000      0.14978      0.50874      0.48835      0.56850      0.51377      1.26023     55.00000   2555.12402
       1584.04560   1428.01219    144.94080     41.90018    116.05040     10.39000      0.15097      0.50874      0.48835      0.56850      0.51377      1.25956     55.00000   2553.99998
       1584.19800   1428.10657    126.48830     36.76544    112.85730      9.86000      0.14958      0.52447      0.56955      0.58119      0.48311      1.25918     55.00000   2553.32556
       1584.35040   1428.20096    128.88590     34.08446    111.19020      9.83000      0.15014      0.52447      0.56955      0.58119      0.48311      1.25855     55.00000   2552.22182
       1584.50280   1428.29536    129.55300     31.67614    109.69260      9.83000      0.15041      0.51156      0.52885      0.52092      0.46050      1.25785     55.00000   2551.00060
       1584.65520   1428.38977    113.71980     28.35902    107.62990      9.33000      0.14903      0.48773      0.42748      0.42058      0.50626      1.26051     55.60188   2556.53814
       1584.80760   1428.48419    127.00720     25.04190    105.56710      9.60000      0.14889      0.42837      0.37178      0.39229      0.48331      1.26409     56.00000   2564.00033
       1584.96000   1428.57862    124.07460     18.81660    101.69590      8.83000      0.14958      0.42837      0.37178      0.39229      0.48331      1.26137     56.00000   2558.61943
       1585.11240   1428.67305    119.65430     15.63578     99.71796      8.73000      0.14925      0.36769      0.34611      0.37898      0.51659      1.25701     56.00000   2549.99984
       1585.26480   1428.76750    127.08810     17.63516    100.96130      9.00000      0.15010      0.36769      0.34611      0.37898      0.51659      1.25818     56.00000   2552.49014
       1585.41720   1428.86195    128.73980     19.90716    102.37410      9.00000      0.15035      0.37985      0.36360      0.39369      0.50004      1.25979     56.00000   2555.93333
       1585.56960   1428.95641    129.48750     22.31549    103.87170      9.23000      0.15050      0.49901      0.56313      0.50096      0.49547      1.26076     56.00000   2558.00012
       1585.72200   1429.05088    144.83300     25.17822    105.65190      9.30000      0.15139      0.70447      0.66454      0.67284      0.48715      1.26094     56.00000   2558.59913
       1585.87440   1429.14535    134.92880     31.22175    109.41000      9.56000      0.15084      0.85764      0.66651      0.71370      0.56585      1.26106     56.00000   2558.99943
       1586.02680   1429.23984    128.24010     42.44545    116.38940     10.30000      0.15098      0.82598      0.66736      0.70462      0.59266      1.26059     56.00000   2558.21623
       1586.17920   1429.33433    127.62660     51.21540    121.84300     11.03000      0.14944      0.76875      0.68518      0.72940      0.67257      1.26014     56.00000   2557.48089
       1586.33160   1429.42884    110.43950     52.98755    122.94500     10.76000      0.14792      0.74931      0.70309      0.76787      0.65522      1.25985     56.00000   2556.99936
       1586.48400   1429.52335    106.23120     54.62338    123.96220     10.96000      0.14764      0.73034      0.73541      0.75865      0.69937      1.26008     56.00000   2557.69119
       1586.63640   1429.61787    103.30130     55.82756    124.71100     11.19000      0.14792      0.70861      0.68351      0.69268      0.70775      1.26018     56.00000   2558.00012
       1586.78880   1429.71240     93.87765     51.94242    122.29510     10.79500      0.14667      0.73854      0.65944      0.67632      0.69867      1.25916     56.00000   2556.17700
       1586.94120   1429.80693     84.74129     47.28482    119.39880     10.50000      0.14486      0.79335      0.67068      0.68390      0.72627      1.25851     56.00000   2555.00074
       1587.09360   1429.90148     81.37918     45.44451    118.25440     10.46000      0.14612      0.77230      0.65966      0.68096      0.68738      1.25926     56.00000   2556.71509
       1587.24600   1429.99603     75.37005     43.30883    116.92630     10.43000      0.14473      0.73301      0.60950      0.64006      0.68516      1.25983     56.00000   2558.00012
       1587.39840   1430.09060     71.89513     40.49153    115.17440     10.06000      0.14458      0.69889      0.60267      0.62853      0.68945      1.25973     56.00000   2558.00012
       1587.55080   1430.18517     72.18826     37.21984    113.13990     10.21000      0.14416      0.75540      0.61418      0.64122      0.65815      1.25964     56.00000   2558.00012
       1587.70320   1430.27975     72.51138     35.17504    111.86840      9.56000      0.14431      0.75540      0.61418      0.64122      0.65815      1.26494     56.00000   2568.99978
