~VERSION INFORMATION 
VERS  .    2.0                                     :CWLS Log ASCII Standard - VERSION 2.0
WRAP  .    NO                                      :One Line per Depth step
PROD  .    Schlumberger Technology Corp.           :LAS Producer
PROG  .    Horizon LASWriter 7.0.78557.3100        :LAS Program name and version
SOURCE.    17.5in Run-Drilling                     :Run&Pass Information
CREA  .    10/06/2017                              :LAS Creation date {MM/DD/YYYY}
#--------------------------------------------------
~WELL INFORMATION 
#MNEM           .UNIT                      DATA            :DESCRIPTION
#----            ------          --------------            -----------------------------
STRT            .m                    309.98160            :START DEPTH
STOP            .m                   2714.09160            :STOP DEPTH
STEP            .m                       0.1524            :STEP
NULL            .                       -999.25            :NULL VALUE
COMP            .                Woodside Energy Ltd       :COMPANY
WELL            .                         SRA01            :WELL NAME
FLD             .                      Sculptor            :FIELD NAME
RIGN            .                    Ocean Apex            :Rig Name
RIGTYP          .                Semi-Submersible          :Rig Type
SON             .                     17AWA0007            :Service Order Number
SRVC            .                  Schlumberger            :SERVICE COMPANY
DATE            .                    01/13/2017            :LOG DATE(Composite Date for Composite LAP) (MM/DD/YYYY)
CLAB            .                       County:            :County Label
CNTY            .                                          :COUNTY
SLAB            .                        State:            :State/Province Label
STAT            .                Western Australia         :STATE or PROVINCE
PROV            .                Western Australia         :STATE or PROVINCE
CTRY            .                     Australia            :COUNTRY
CONT_REGION     .                   Australasia            :Continent Region
SECT            .                                          :Section
TOWN            .                                          :Township
RANG            .                                          :Range
API             .                                          :API NUMBER
UWI             .                     17AWA0007            :UNIQUE WELL ID
LUL             .                Forward Port Deck         :Logging Unit Location
LUN             .                   OLU-MA-5088            :Logging Unit Number
LOC             .                         GWF-2            :FIELD LOCATION
FL1             .                N 7,810,790.200 m         :Field Location Line 1
FL2             .                E 366,341.060 m           :Field Location Line 2
LATI            .deg             19° 47' 39.055" S         :LATITUDE
LONG            .deg             115° 43' 26.349" E        :LONGITUDE
PDAT            .                         OTHER            :Local Permanent Datum
LMF             .                            DF            :Logging Measured From
APD             .m                     23.85000            :Elevation of Depth Reference (LMF) Above Permanent Datum
EPD             .m                     -1.60000            :Elevation of Permanent Datum (PDAT) above Mean Sea Level
EKB             .m                      -999.25            :Elevation of Kelly Bushing Above Permanent Datum
EDF             .m                     23.85000            :Elevation of Drill Floor Above Permanent Datum
EGL             .m                    -93.16000            :Elevation of Ground Level Above Permanent Datum
ECF             .m                      -999.25            :Elevation of Casing Flange above Permanent Datum
#--------------------------------------------------
~CURVE INFORMATION
#MNEM           .UNIT                  API CODE            :DESCRIPTION
#----            ------          --------------            -----------------------------
DEPT            .m                                         :                                                        Depth Index
TVD             .m                                         :(RT)    (DnMWorkflow)           (6in)                   True Vertical Depth
ROP5            .m/h                                       :(RT)    (DRILLING_SURFACE)      (6in)                   Rate of penetration averaged over the last 5 ft (1.5 m)
GR              .gAPI                                      :(RM)    (ARC9)                  (6in)                   Gamma Ray
GR_CAL          .gAPI                                      :(RM)    (ARC9)                  (6in)                   Calibrated Gamma Ray
GRR             .1/s                                       :(RM)    (ARC9)                  (6in)                   Raw Gamma Ray
TAB_RES         .h                                         :        (ARC9)                  (6in)                   Resistivity Time After Bit
P16H            .ohm.m                                     :(RM)    (ARC9)                  (6in)                   Phase Shift Resistivity 16 inch Spacing at 2 MHz, Environmentally Corrected.
P28H            .ohm.m                                     :(RM)    (ARC9)                  (6in)                   Phase Shift Resistivity 28 inch Spacing at 2 MHz, Environmentally Corrected.
P40H            .ohm.m                                     :(RM)    (ARC9)                  (6in)                   Phase Shift Resistivity 40 inch Spacing at 2 MHz, Environmentally Corrected.
A40H            .ohm.m                                     :(RM)    (ARC9)                  (6in)                   Attenuation Resistivity 40 inch Spacing at 2 MHz, Environmentally Corrected.
ECD             .g/cm3                                     :(RM)    (ARC9)                  (6in)                   Equivalent Circulating Density
DHAT            .degC                                      :(RM)    (ARC9)                  (6in)                   Downhole Annulus Temperature
DHAP            .psi                                       :(RM)    (ARC9)                  (6in)                   Downhole Annulus Pressure
#-------------------------------------------------------------
#            DEPT          TVD         ROP5           GR       GR_CAL          GRR      TAB_RES         P16H         P28H         P40H         A40H          ECD         DHAT         DHAP 
#                  (DnMWorkfl)  (DRILLING_)       (ARC9)       (ARC9)       (ARC9)       (ARC9)       (ARC9)       (ARC9)       (ARC9)       (ARC9)       (ARC9)       (ARC9)       (ARC9) 
#                         (RT)         (RT)         (RM)         (RM)         (RM)                      (RM)         (RM)         (RM)         (RM)         (RM)         (RM)         (RM) 
#                        (6in)        (6in)        (6in)        (6in)        (6in)        (6in)        (6in)        (6in)        (6in)        (6in)        (6in)        (6in)        (6in) 
~ASCII
# ...
       1102.91880   1064.10791     83.20319     41.51710     25.81722      2.33000      0.49516      0.59826      0.54803      0.53306      0.43757      1.27604     50.00000   1927.00039
       1103.07120   1064.24390     84.41154     45.03114     28.00241      2.46000      0.49627      0.65043      0.57998      0.59349      0.45726      1.27573     50.00000   1926.66825
       1103.22360   1064.37989     81.43693     48.89355     30.40423      2.66000      0.49501      0.66101      0.60079      0.60574      0.44017      1.27512     50.00000   1925.99963
       1103.37600   1064.51589     79.87461     52.10464     32.40104      2.98000      0.49514      0.57656      0.51241      0.50214      0.40153      1.27431     50.00000   1925.00032
       1103.52840   1064.65189     77.60590     49.10863     30.53798      2.84667      0.49682      0.44291      0.41126      0.38778      0.36653      1.27412     50.00000   1925.00032
       1103.68080   1064.78790     80.83190     43.30614     26.92973      2.13400      0.49780      0.37427      0.34607      0.32507      0.30570      1.27435     50.00000   1925.56162
       1103.83320   1064.92391     92.10156     41.75383     25.96443      2.41571      0.50334      0.32158      0.29111      0.27150      0.27548      1.27453     50.00000   1925.99963
       1103.98560   1065.05992    106.07540     41.30451     25.68502      2.22333      0.51397      0.31774      0.28534      0.27159      0.28851      1.27359     50.00000   1925.00032
       1104.13800   1065.19594    103.36080     40.37732     25.10845      2.22750      0.51974      0.36767      0.33326      0.31349      0.32585      1.27411     50.00000   1925.99963
       1104.29040   1065.33196    105.67060     40.18041     24.98601      2.20750      0.52571      0.37823      0.33366      0.31332      0.33636      1.27398     50.00000   1925.99963
       1104.44280   1065.46798    109.22660     40.29401     25.05665      2.20000      0.52932      0.37165      0.32738      0.31052      0.32245      1.27310     50.00000   1925.00032
       1104.59520   1065.60401    101.10900     40.94153     25.45931      2.26000      0.53071      0.35263      0.31240      0.29264      0.30030      1.27164     50.00000   1923.00025
       1104.74760   1065.74004    114.33710     41.60799     25.87374      2.29000      0.53384      0.30542      0.26570      0.24647      0.28178      1.27147     50.00000   1923.00025
       1104.90000   1065.87607    100.31740     42.48649     26.42003      2.31667      0.53363      0.32759      0.28617      0.28117      0.31869      1.27063     50.00000   1921.99949
       1105.05240   1066.01211     81.70538     42.81972     26.62725      2.42667      0.53028      0.39351      0.34895      0.35627      0.39053      1.27045     50.00000   1921.99949
       1105.20480   1066.14815     45.09173     40.36596     25.10139      2.25333      0.31200      0.53273      0.48032      0.49201      0.46832      1.27029     50.00000   1921.99949
       1105.35720   1066.28420     41.97516     36.68531     22.81259      1.95000      0.31181      0.73632      0.62692      0.63111      0.52933      1.26952     50.00000   1921.00018
       1105.50960   1066.42025     30.56126     34.87527     21.68703      1.92000      0.30390      0.79097      0.64895      0.61535      0.54708      1.26938     50.00000   1921.00018
       1105.66200   1066.55630     29.56556     36.30664     22.57712      1.88500      0.30390      0.62296      0.52201      0.48077      0.50676      1.26984     50.00000   1921.99949
       1105.81440   1066.69236     29.69442     42.23658     26.26462      2.30000      0.30875      0.43685      0.38559      0.34879      0.40825      1.26967     50.00000   1921.99949
       1105.96680   1066.82842     30.25560     47.43946     29.50002      2.81000      0.31168      0.39251      0.36036      0.33229      0.38612      1.26951     50.00000   1921.99949
       1106.11920   1066.96448     31.25508     45.54802     28.32383      2.52000      0.31508      0.49620      0.44686      0.42551      0.52079      1.26937     50.00000   1921.99949
       1106.27160   1067.10055     29.97314     39.55939     24.59983      2.17375      0.31598      0.71398      0.62042      0.59559      0.72821      1.26915     50.00000   1921.99949
       1106.42400   1067.23662     31.00472     35.83596     22.28443      1.83833      0.32237      1.03688      0.91173      0.84383      1.00280      1.26833     50.00000   1921.00018
       1106.57640   1067.37269     32.18454     36.18319     22.50035      2.03600      0.32945      1.43542      1.43195      1.30871      1.18489      1.26816     50.00000   1921.00018
       1106.72880   1067.50877     40.60057     38.56047     23.97865      2.05250      0.33083      1.97864      1.94783      1.96681      1.25208      1.26807     50.00000   1921.00018
       1106.88120   1067.64484     35.36272     40.90745     25.43811      2.34500      0.32807      2.14207      1.98011      1.98286      1.30977      1.26662     50.00000   1919.00011
       1107.03360   1067.78091     42.99121     40.34626     25.08914      2.26000      0.32598      1.58173      1.49602      1.44946      1.20584      1.26639     50.00000   1919.00011
       1107.18600   1067.91697     43.96259     38.75132     24.09733      2.01400      0.32445      1.31303      1.27927      1.28008      1.22520      1.26556     50.00000   1917.99935
       1107.33840   1068.05303     41.25656     39.77826     24.73593      2.24000      0.32501      1.16783      1.19727      1.20197      1.19985      1.26477     50.00000   1917.00004
       1107.49080   1068.18909     39.79581     41.23689     25.64297      2.26000      0.32945      1.04505      1.12110      1.14880      1.15720      1.26460     50.00000   1917.00004
       1107.64320   1068.32514     39.71289     41.12329     25.57233      2.31500      0.33306      0.95202      1.02492      1.07957      1.07577      1.26454     50.00000   1917.00004
       1107.79560   1068.46119     40.37403     40.52499     25.20028      2.16000      0.33403      1.00734      1.06485      1.14321      0.99089      1.26368     50.00000   1915.99928
       1107.94800   1068.59723     40.72077     41.38079     25.73245      2.28333      0.33543      1.10370      1.13543      1.21586      0.94230      1.26343     50.00000   1915.99928
       1108.10040   1068.73326     37.49047     43.36500     26.96633      2.38000      0.33293      1.14394      1.11309      1.14103      0.85482      1.26393     50.00000   1917.00004
       1108.25280   1068.86930     37.22686     45.78090     28.46865      2.50000      0.32863      1.06725      1.01066      1.04220      0.76217      1.26384     50.00000   1917.00004
       1108.40520   1069.00532     44.01031     46.89418     29.16094      2.69500      0.32932      0.83513      0.76804      0.74465      0.62164      1.26304     50.00000   1915.99928
       1108.55760   1069.14135     52.00030     45.37194     28.21434      2.43000      0.33001      0.60049      0.55970      0.53359      0.47402      1.26288     50.00000   1915.99928
       1108.71000   1069.27737     56.65551     43.84969     27.26773      2.43000      0.33070      0.60049      0.55970      0.53359      0.47402      1.26200     50.00000   1914.99997
       1108.86240   1069.41338     62.67870     43.37258     26.97104      2.36000      0.33125      0.38765      0.37285      0.36141      0.35630      1.26248     50.00000   1915.99928
       1109.01480   1069.54939     66.94853     43.53162     27.06994      2.39500      0.33284      0.39165      0.36232      0.34142      0.35622      1.26274     50.00000   1916.57653
       1109.16720   1069.68539     67.80619     44.46313     27.64920      2.43000      0.33591      0.52792      0.46375      0.40430      0.45462      1.26293     50.00000   1917.00004
       1109.31960   1069.82139     67.49269     44.24351     27.51263      2.53000      0.33613      0.70320      0.61648      0.58552      0.56072      1.26271     50.00000   1917.00004
