~VERSION INFORMATION 
VERS  .    2.0                                     :CWLS Log ASCII Standard - VERSION 2.0
WRAP  .    NO                                      :One Line per Depth step
PROD  .    Schlumberger Technology Corp.           :LAS Producer
PROG  .    Horizon LASWriter 7.0.78557.3100        :LAS Program name and version
SOURCE.    17.5in Run-Drilling                     :Run&Pass Information
CREA  .    10/06/2017                              :LAS Creation date {MM/DD/YYYY}
#--------------------------------------------------
~WELL INFORMATION 
#MNEM           .UNIT                      DATA            :DESCRIPTION
#----            ------          --------------            -----------------------------
STRT            .m                    309.98160            :START DEPTH
STOP            .m                   2714.09160            :STOP DEPTH
STEP            .m                       0.1524            :STEP
NULL            .                       -999.25            :NULL VALUE
COMP            .                Woodside Energy Ltd       :COMPANY
WELL            .                         SRA01            :WELL NAME
FLD             .                      Sculptor            :FIELD NAME
RIGN            .                    Ocean Apex            :Rig Name
RIGTYP          .                Semi-Submersible          :Rig Type
SON             .                     17AWA0007            :Service Order Number
SRVC            .                  Schlumberger            :SERVICE COMPANY
DATE            .                    01/13/2017            :LOG DATE(Composite Date for Composite LAP) (MM/DD/YYYY)
CLAB            .                       County:            :County Label
CNTY            .                                          :COUNTY
SLAB            .                        State:            :State/Province Label
STAT            .                Western Australia         :STATE or PROVINCE
PROV            .                Western Australia         :STATE or PROVINCE
CTRY            .                     Australia            :COUNTRY
CONT_REGION     .                   Australasia            :Continent Region
SECT            .                                          :Section
TOWN            .                                          :Township
RANG            .                                          :Range
API             .                                          :API NUMBER
UWI             .                     17AWA0007            :UNIQUE WELL ID
LUL             .                Forward Port Deck         :Logging Unit Location
LUN             .                   OLU-MA-5088            :Logging Unit Number
LOC             .                         GWF-2            :FIELD LOCATION
FL1             .                N 7,810,790.200 m         :Field Location Line 1
FL2             .                E 366,341.060 m           :Field Location Line 2
LATI            .deg             19° 47' 39.055" S         :LATITUDE
LONG            .deg             115° 43' 26.349" E        :LONGITUDE
PDAT            .                         OTHER            :Local Permanent Datum
LMF             .                            DF            :Logging Measured From
APD             .m                     23.85000            :Elevation of Depth Reference (LMF) Above Permanent Datum
EPD             .m                     -1.60000            :Elevation of Permanent Datum (PDAT) above Mean Sea Level
EKB             .m                      -999.25            :Elevation of Kelly Bushing Above Permanent Datum
EDF             .m                     23.85000            :Elevation of Drill Floor Above Permanent Datum
EGL             .m                    -93.16000            :Elevation of Ground Level Above Permanent Datum
ECF             .m                      -999.25            :Elevation of Casing Flange above Permanent Datum
#--------------------------------------------------
~CURVE INFORMATION
#MNEM           .UNIT                  API CODE            :DESCRIPTION
#----            ------          --------------            -----------------------------
DEPT            .m                                         :                                                        Depth Index
TVD             .m                                         :(RT)    (DnMWorkflow)           (6in)                   True Vertical Depth
ROP5            .m/h                                       :(RT)    (DRILLING_SURFACE)      (6in)                   Rate of penetration averaged over the last 5 ft (1.5 m)
GR              .gAPI                                      :(RM)    (ARC9)                  (6in)                   Gamma Ray
GR_CAL          .gAPI                                      :(RM)    (ARC9)                  (6in)                   Calibrated Gamma Ray
GRR             .1/s                                       :(RM)    (ARC9)                  (6in)                   Raw Gamma Ray
TAB_RES         .h                                         :        (ARC9)                  (6in)                   Resistivity Time After Bit
P16H            .ohm.m                                     :(RM)    (ARC9)                  (6in)                   Phase Shift Resistivity 16 inch Spacing at 2 MHz, Environmentally Corrected.
P28H            .ohm.m                                     :(RM)    (ARC9)                  (6in)                   Phase Shift Resistivity 28 inch Spacing at 2 MHz, Environmentally Corrected.
P40H            .ohm.m                                     :(RM)    (ARC9)                  (6in)                   Phase Shift Resistivity 40 inch Spacing at 2 MHz, Environmentally Corrected.
A40H            .ohm.m                                     :(RM)    (ARC9)                  (6in)                   Attenuation Resistivity 40 inch Spacing at 2 MHz, Environmentally Corrected.
ECD             .g/cm3                                     :(RM)    (ARC9)                  (6in)                   Equivalent Circulating Density
DHAT            .degC                                      :(RM)    (ARC9)                  (6in)                   Downhole Annulus Temperature
DHAP            .psi                                       :(RM)    (ARC9)                  (6in)                   Downhole Annulus Pressure
#-------------------------------------------------------------
#            DEPT          TVD         ROP5           GR       GR_CAL          GRR      TAB_RES         P16H         P28H         P40H         A40H          ECD         DHAT         DHAP 
#                  (DnMWorkfl)  (DRILLING_)       (ARC9)       (ARC9)       (ARC9)       (ARC9)       (ARC9)       (ARC9)       (ARC9)       (ARC9)       (ARC9)       (ARC9)       (ARC9) 
#                         (RT)         (RT)         (RM)         (RM)         (RM)                      (RM)         (RM)         (RM)         (RM)         (RM)         (RM)         (RM) 
#                        (6in)        (6in)        (6in)        (6in)        (6in)        (6in)        (6in)        (6in)        (6in)        (6in)        (6in)        (6in)        (6in) 
~ASCII
# ...
       1902.40920   1633.49087     72.76216     16.54708     84.86906      7.51000      0.26154      1.03525      0.83077      0.83326      0.86538      1.27288     62.00000   2953.00025
       1902.56160   1633.59106     71.89532     20.48697     87.27560      7.51833      0.26195      0.92554      0.79624      0.82657      0.87236      1.27409     63.00000   2955.99963
       1902.71400   1633.69124     71.75356     29.74686     92.93165      8.34000      0.26292      1.00326      0.80218      0.78636      0.87478      1.27360     61.54478   2954.98727
       1902.86640   1633.79141     66.96127     35.19024     96.25652      8.69000      0.53793      1.07174      0.76694      0.76752      0.83707      1.27312     61.00000   2953.99956
       1903.01880   1633.89157     64.98479     33.19330     95.03677      8.34500      0.53604      1.03121      0.77514      0.75828      0.84838      1.27388     61.00000   2955.99963
       1903.17120   1633.99173     61.18977     28.48241     92.15930      8.25333      0.53612      0.92863      0.78679      0.77833      0.85091      1.27426     61.00000   2957.00039
       1903.32360   1634.09188     62.91928     19.83160     86.87529      7.76333      0.53557      1.07214      0.80776      0.76453      0.84596      1.27502     61.00000   2959.00046
       1903.47600   1634.19203     63.82323      9.69275     80.68236      6.96500      0.53737      1.10362      0.74836      0.71445      0.86758      1.27059     61.00000   2949.00011
       1903.62840   1634.29217     61.47453      3.40898     76.84415      6.86000      0.53890      0.99746      0.74694      0.74219      0.88371      1.27038     61.00000   2948.59835
       1903.78080   1634.39230     66.30261      2.97874     76.58136      6.51000      0.54432      0.85335      0.78181      0.75289      0.88515      1.27006     61.00000   2947.99935
       1903.93320   1634.49243     63.02956      9.23322     80.40167      7.22200      0.54779      0.93540      0.79063      0.79103      0.87291      1.26993     61.00000   2947.99935
       1904.08560   1634.59256     69.00613     14.05054     83.34415      7.50000      0.55542      1.01909      0.81935      0.82286      0.87110      1.27115     61.00000   2951.00018
       1904.23800   1634.69267     72.09534     13.50156     83.00883      7.27333      0.55722      0.88116      0.81828      0.81587      0.85322      1.27022     61.00000   2949.00011
       1904.39040   1634.79278     77.17696     13.57867     83.05592      7.33000      0.55959      0.90598      0.84961      0.92028      0.89702      1.27058     61.00000   2949.99942
       1904.54280   1634.89289     80.98335     16.10761     84.60063      7.46000      0.56057      1.00216      0.95343      0.94501      0.89539      1.27008     61.00000   2949.00011
       1904.69520   1634.99299     80.36393     20.17857     87.08722      7.69000      0.55988      1.11181      0.94623      0.95835      0.92645      1.27126     61.00000   2951.99949
       1904.84760   1635.09308     83.69931     24.21868     89.55497      7.98000      0.56001      1.08732      0.97795      0.97922      0.96381      1.27079     61.00000   2951.00018
       1905.00000   1635.19316     79.97301     23.14697     88.90035      8.04333      0.55877      1.11695      0.97407      0.98092      0.99489      1.27070     61.00000   2951.00018
       1905.15240   1635.29324     77.26973     17.43374     85.41064      7.39500      0.55835      1.07888      0.95682      1.02208      0.97776      1.27103     61.00000   2951.99949
       1905.30480   1635.39332     70.86810     15.83774     84.43579      7.39333      0.55898      1.02036      0.91698      0.96800      0.97476      1.27114     61.00000   2952.36208
       1905.45720   1635.49339     75.38849     21.51241     87.90195      7.70000      0.56140      1.06626      0.89485      0.93246      1.01472      1.27133     61.00000   2953.00025
       1905.60960   1635.59345     69.60094     27.90414     91.80609      8.31500      0.56501      1.10096      0.92891      0.90171      0.99036      1.27126     61.00000   2953.00025
       1905.76200   1635.69350     66.97684     30.33284     93.28957      8.16000      0.56682      1.14115      0.94944      0.97822      0.99090      1.27073     61.00000   2951.99949
       1905.91440   1635.79355     63.83637     32.20640     94.43396      8.38000      0.56703      1.60416      0.91248      0.96811      0.99521      1.27150     61.00000   2953.99956
       1906.06680   1635.89360     62.04635     31.60500     94.06662      8.50000      0.56501      1.29949      0.95751      0.96732      1.00574      1.27228     61.00000   2955.99963
       1906.21920   1635.99363     61.03033     25.70674     90.46389      7.91000      0.56487      1.04765      0.99935      0.98479      1.00713      1.27221     61.00000   2955.99963
       1906.37160   1636.09367     60.74749     20.59490     87.34152      7.69500      0.56640      1.15548      0.97403      0.98474      1.04022      1.27301     61.00000   2957.99970
       1906.52400   1636.19369     58.93164     17.31809     85.34000      7.61000      0.56793      1.08198      0.93901      0.94970      1.01993      1.27249     61.00000   2957.00039
       1906.67640   1636.29371     58.48134     13.97189     83.29610      7.28667      0.56571      1.08794      0.90177      0.90135      1.01133      1.27100     61.00000   2953.67177
       1906.82880   1636.39372     57.57467     11.52777     81.80321      7.29500      0.56561      1.14602      0.86273      0.87241      0.99682      1.26982     61.00000   2951.00018
       1906.98120   1636.49373     53.32363     11.69739     81.90681      7.07333      0.56821      1.17256      0.86582      0.83415      0.99433      1.27311     62.00000   2959.00046
       1907.13360   1636.59373     55.34606     13.53240     83.02766      7.54500      0.57000      1.09321      0.87330      0.91224      0.98557      1.27135     62.00000   2955.00032
       1907.28600   1636.69373     56.03852     11.43524     81.74669      7.22000      0.57057      0.99160      0.90132      0.92125      0.99647      1.27084     62.00000   2953.99956
       1907.43840   1636.79372     54.26778      7.38741     79.27423      6.94500      0.56945      1.11872      0.90333      0.93039      0.97480      1.26992     62.00000   2951.99949
       1907.59080   1636.89370     56.70586      5.12064     77.88966      6.94500      0.57182      1.03683      0.92222      0.92159      0.95783      1.27198     62.00000   2957.00039
       1907.74320   1636.99368     57.08205      3.36271     76.81590      6.73000      0.57140      1.08809      0.87779      0.88903      0.96268      1.27318     62.00000   2959.99977
       1907.89560   1637.09365     54.17862      4.75054     77.66360      6.78000      0.57043      1.03040      0.82805      0.83418      0.97346      1.26794     62.00000   2947.99935
       1908.04800   1637.19361     58.17036      9.37664     80.48927      7.19500      0.57112      1.03551      0.82893      0.83138      0.96477      1.27085     62.00000   2955.00032
       1908.20040   1637.29357     55.71016     11.55089     81.81733      7.31500      0.56903      1.05932      0.83152      0.83434      0.97413      1.27298     62.00000   2959.99977
       1908.35280   1637.39352     56.38635      9.76984     80.72945      7.13000      0.56904      1.00247      0.87639      0.87768      0.95586      1.27161     62.00000   2957.00039
       1908.50520   1637.49347     56.79047      5.28254     77.98855      6.99500      0.56891      1.06784      0.86495      0.87875      0.97078      1.27149     62.00000   2957.00039
       1908.65760   1637.59341     56.20815      0.12444     74.83792      6.48000      0.56974      1.07103      0.86890      0.82191      0.96798      1.26967     62.00000   2953.00025
       1908.81000   1637.69334     56.58471      0.19384     74.88031      6.53000      0.56890      0.86327      0.81030      0.86878      1.00098      1.27219     62.00000   2959.00046
