~VERSION INFORMATION 
VERS  .    2.0                                     :CWLS Log ASCII Standard - VERSION 2.0
WRAP  .    NO                                      :One Line per Depth step
PROD  .    Schlumberger Technology Corp.           :LAS Producer
PROG  .    Horizon LASWriter 7.0.78557.3100        :LAS Program name and version
SOURCE.    17.5in Run-Drilling                     :Run&Pass Information
CREA  .    10/06/2017                              :LAS Creation date {MM/DD/YYYY}
#--------------------------------------------------
~WELL INFORMATION 
#MNEM           .UNIT                      DATA            :DESCRIPTION
#----            ------          --------------            -----------------------------
STRT            .m                    309.98160            :START DEPTH
STOP            .m                   2714.09160            :STOP DEPTH
STEP            .m                       0.1524            :STEP
NULL            .                       -999.25            :NULL VALUE
COMP            .                Woodside Energy Ltd       :COMPANY
WELL            .                         SRA01            :WELL NAME
FLD             .                      Sculptor            :FIELD NAME
RIGN            .                    Ocean Apex            :Rig Name
RIGTYP          .                Semi-Submersible          :Rig Type
SON             .                     17AWA0007            :Service Order Number
SRVC            .                  Schlumberger            :SERVICE COMPANY
DATE            .                    01/13/2017            :LOG DATE(Composite Date for Composite LAP) (MM/DD/YYYY)
CLAB            .                       County:            :County Label
CNTY            .                                          :COUNTY
SLAB            .                        State:            :State/Province Label
STAT            .                Western Australia         :STATE or PROVINCE
PROV            .                Western Australia         :STATE or PROVINCE
CTRY            .                     Australia            :COUNTRY
CONT_REGION     .                   Australasia            :Continent Region
SECT            .                                          :Section
TOWN            .                                          :Township
RANG            .                                          :Range
API             .                                          :API NUMBER
UWI             .                     17AWA0007            :UNIQUE WELL ID
LUL             .                Forward Port Deck         :Logging Unit Location
LUN             .                   OLU-MA-5088            :Logging Unit Number
LOC             .                         GWF-2            :FIELD LOCATION
FL1             .                N 7,810,790.200 m         :Field Location Line 1
FL2             .                E 366,341.060 m           :Field Location Line 2
LATI            .deg             19° 47' 39.055" S         :LATITUDE
LONG            .deg             115° 43' 26.349" E        :LONGITUDE
PDAT            .                         OTHER            :Local Permanent Datum
LMF             .                            DF            :Logging Measured From
APD             .m                     23.85000            :Elevation of Depth Reference (LMF) Above Permanent Datum
EPD             .m                     -1.60000            :Elevation of Permanent Datum (PDAT) above Mean Sea Level
EKB             .m                      -999.25            :Elevation of Kelly Bushing Above Permanent Datum
EDF             .m                     23.85000            :Elevation of Drill Floor Above Permanent Datum
EGL             .m                    -93.16000            :Elevation of Ground Level Above Permanent Datum
ECF             .m                      -999.25            :Elevation of Casing Flange above Permanent Datum
#--------------------------------------------------
~CURVE INFORMATION
#MNEM           .UNIT                  API CODE            :DESCRIPTION
#----            ------          --------------            -----------------------------
DEPT            .m                                         :                                                        Depth Index
TVD             .m                                         :(RT)    (DnMWorkflow)           (6in)                   True Vertical Depth
ROP5            .m/h                                       :(RT)    (DRILLING_SURFACE)      (6in)                   Rate of penetration averaged over the last 5 ft (1.5 m)
GR              .gAPI                                      :(RM)    (ARC9)                  (6in)                   Gamma Ray
GR_CAL          .gAPI                                      :(RM)    (ARC9)                  (6in)                   Calibrated Gamma Ray
GRR             .1/s                                       :(RM)    (ARC9)                  (6in)                   Raw Gamma Ray
TAB_RES         .h                                         :        (ARC9)                  (6in)                   Resistivity Time After Bit
P16H            .ohm.m                                     :(RM)    (ARC9)                  (6in)                   Phase Shift Resistivity 16 inch Spacing at 2 MHz, Environmentally Corrected.
P28H            .ohm.m                                     :(RM)    (ARC9)                  (6in)                   Phase Shift Resistivity 28 inch Spacing at 2 MHz, Environmentally Corrected.
P40H            .ohm.m                                     :(RM)    (ARC9)                  (6in)                   Phase Shift Resistivity 40 inch Spacing at 2 MHz, Environmentally Corrected.
A40H            .ohm.m                                     :(RM)    (ARC9)                  (6in)                   Attenuation Resistivity 40 inch Spacing at 2 MHz, Environmentally Corrected.
ECD             .g/cm3                                     :(RM)    (ARC9)                  (6in)                   Equivalent Circulating Density
DHAT            .degC                                      :(RM)    (ARC9)                  (6in)                   Downhole Annulus Temperature
DHAP            .psi                                       :(RM)    (ARC9)                  (6in)                   Downhole Annulus Pressure
#-------------------------------------------------------------
#            DEPT          TVD         ROP5           GR       GR_CAL          GRR      TAB_RES         P16H         P28H         P40H         A40H          ECD         DHAT         DHAP 
#                  (DnMWorkfl)  (DRILLING_)       (ARC9)       (ARC9)       (ARC9)       (ARC9)       (ARC9)       (ARC9)       (ARC9)       (ARC9)       (ARC9)       (ARC9)       (ARC9) 
#                         (RT)         (RT)         (RM)         (RM)         (RM)                      (RM)         (RM)         (RM)         (RM)         (RM)         (RM)         (RM) 
#                        (6in)        (6in)        (6in)        (6in)        (6in)        (6in)        (6in)        (6in)        (6in)        (6in)        (6in)        (6in)        (6in) 
~ASCII
# ...
       1266.74880   1203.58959    160.56550     35.13589    116.64370     10.26000      0.35570      0.37115      0.30275      0.28395      0.32504      1.19603     46.00000   2043.33951
       1266.90120   1203.71113    164.73720     32.54581    115.03310     10.26000      0.35589      0.33267      0.32828      0.35348      0.31150      1.19630     46.00000   2043.99943
       1267.05360   1203.83266    165.50100     29.54677    113.16820      9.93000      0.35592      0.33267      0.32828      0.35348      0.31150      1.19767     46.00000   2046.55065
       1267.20600   1203.95417    159.67020     28.95605    112.80080      9.93000      0.35549      0.38289      0.33824      0.34198      0.30462      1.19891     46.00000   2048.89156
       1267.35840   1204.07568    162.76180     29.41045    113.08340     10.13000      0.35550      0.36531      0.32934      0.30509      0.35622      1.20004     46.00000   2051.00040
       1267.51080   1204.19716    159.10500     27.59284    111.95310      9.83000      0.35543      0.36531      0.32934      0.30509      0.35622      1.19951     46.00000   2050.33033
       1267.66320   1204.31864    159.42920     26.22963    111.10540      9.83000      0.35509      0.32300      0.29775      0.28491      0.34912      1.19904     46.00000   2049.72117
       1267.81560   1204.44010    158.22230     26.22963    111.10540      9.83000      0.35474      0.32300      0.29775      0.28491      0.34912      1.19847     46.00000   2049.00033
       1267.96800   1204.56154    162.12490     27.27474    111.75530      9.83000      0.35469      0.32384      0.28892      0.31275      0.29054      1.19837     46.00000   2049.00033
       1268.12040   1204.68297    163.90640     29.36501    113.05510     10.06000      0.35501      0.33875      0.28253      0.26558      0.34398      1.19825     46.00000   2049.00033
       1268.27280   1204.80439    162.82910     32.22773    114.83530     10.06000      0.35487      0.33875      0.28253      0.26558      0.34398      1.19809     46.00000   2049.00033
       1268.42520   1204.92579    161.55390     34.63605    116.33290     10.46000      0.35446      0.28846      0.27047      0.28553      0.32535      1.19850     46.00000   2049.83575
       1268.57760   1205.04718    163.89500     33.99989    115.93730     10.19000      0.35467      0.28846      0.27047      0.28553      0.32535      1.19907     46.00000   2051.02216
       1268.73000   1205.16856    173.90620     32.50037    115.00490     10.19000      0.35487      0.28268      0.27132      0.26364      0.29851      1.19964     46.00000   2052.21002
       1268.88240   1205.28992    178.84230     31.95508    114.66580     10.13000      0.35515      0.31075      0.26577      0.25855      0.26560      1.20002     46.00000   2053.00048
       1269.03480   1205.41127    178.40750     33.63637    115.71130     10.13000      0.35460      0.31075      0.26577      0.25855      0.26560      1.19899     46.00000   2051.50369
       1269.18720   1205.53260    182.37320     36.77174    117.66100     10.56000      0.35459      0.39585      0.29286      0.28337      0.29543      1.19821     46.00000   2050.38399
       1269.33960   1205.65392    193.13110     37.18070    117.91530     10.39000      0.35515      0.35143      0.30588      0.31341      0.31623      1.19726     46.00000   2049.00033
       1269.49200   1205.77522    193.47700     37.18070    117.91530     10.39000      0.35530      0.35143      0.30588      0.31341      0.31623      1.19784     46.00000   2050.15483
       1269.64440   1205.89651    181.75460     38.45303    118.70650     10.56000      0.35488      0.32537      0.28183      0.27205      0.32355      1.19860     46.00000   2051.66323
       1269.79680   1206.01779    178.56250     38.68022    118.84780     10.50000      0.35459      0.31076      0.29186      0.27755      0.28305      1.19936     46.00000   2053.17307
       1269.94920   1206.13905    179.54500     40.04343    119.69550     10.50000      0.35479      0.31076      0.29186      0.27755      0.28305      1.19978     46.00000   2053.99979
       1270.10160   1206.26030    178.19550     43.31510    121.72990     10.86000      0.35488      0.31308      0.26109      0.23678      0.28565      1.19960     46.00000   2053.99979
       1270.25400   1206.38154    174.95520     44.95095    122.74720     10.86000      0.35516      0.25575      0.22921      0.22021      0.27028      1.19948     46.00000   2053.99979
       1270.40640   1206.50276    167.77310     45.72344    123.22760     10.86000      0.35500      0.25575      0.22921      0.22021      0.27028      1.19939     46.00000   2053.99979
       1270.55880   1206.62397    170.81160     47.26839    124.18830     11.03000      0.35488      0.26692      0.24917      0.26802      0.27034      1.20150     46.00000   2057.87954
       1270.71120   1206.74516    175.71780     50.76728    126.36410     11.03000      0.35501      0.26692      0.24917      0.26802      0.27034      1.20315     46.00000   2060.90068
       1270.86360   1206.86634    168.36530     56.35641    129.83960     11.63000      0.35486      0.24431      0.25437      0.25072      0.27608      1.20429     46.00000   2062.99938
       1271.01600   1206.98750    165.58410     58.76473    131.33720     11.66000      0.35473      0.23498      0.24072      0.24952      0.26926      1.20221     46.00000   2059.70412
       1271.16840   1207.10866    173.82840     55.12954    129.07670     11.53000      0.35584      0.25441      0.24541      0.21726      0.23901      1.20061     46.00000   2057.17901
       1271.32080   1207.22979    182.09860     51.00358    126.51100     10.96000      0.35577      0.23548      0.25331      0.28855      0.24520      1.19924     46.00000   2055.00055
       1271.47320   1207.35092    176.94840     50.51282    126.20580     11.32200      0.35585      0.23363      0.24679      0.20836      0.26116      1.20155     46.00000   2059.19504
       1271.62560   1207.47202    172.83690     48.59526    125.01340     11.06000      0.35689      0.28101      0.27560      0.25269      0.27113      1.20358     46.00000   2062.88625
       1271.77800   1207.59312    173.54980     46.54136    123.73620     10.80000      0.46307      0.29276      0.27965      0.32681      0.35422      1.20474     46.00000   2064.99945
       1271.93040   1207.71420    180.87280     50.63096    126.27930     11.13000      0.46542      0.26355      0.27482      0.29314      0.36309      1.20294     46.00000   2062.20602
       1272.08280   1207.83527    174.60000     56.67450    130.03740     11.63000      0.46669      0.30838      0.28756      0.25797      0.26384      1.20152     46.00000   2060.00000
       1272.23520   1207.95632    166.29720     58.35576    131.08290     11.63000      0.46654      0.30838      0.28756      0.25797      0.26384      1.19205     46.00000   2043.99943
       1272.38760   1208.07736    173.16050     53.49369    128.05950     11.50000      0.46668      0.30794      0.28573      0.33450      0.26368      1.19657     46.00000   2051.99971
       1272.54000   1208.19838    170.73430     45.54167    123.11450     10.69000      0.46641      0.30794      0.28573      0.33450      0.26368      1.19675     46.00000   2052.42177
       1272.69240   1208.31939    156.16490     41.72470    120.74100     10.69000      0.46565      0.28912      0.25337      0.22481      0.26828      1.19701     46.00000   2053.00048
       1272.84480   1208.44039    155.39940     39.81622    119.55420     10.66000      0.46617      0.32337      0.25794      0.23362      0.22472      1.19731     46.00000   2053.78658
       1272.99720   1208.56137    162.85630     33.04564    115.34390     10.30000      0.46626      0.32337      0.25794      0.23362      0.22472      1.19754     46.00000   2054.38849
       1273.14960   1208.68234    160.25120     24.68468    110.14470      9.56000      0.46591      0.27522      0.24733      0.22363      0.25518      1.19777     46.00000   2055.00055
