~VERSION INFORMATION 
VERS  .    2.0                                     :CWLS Log ASCII Standard - VERSION 2.0
WRAP  .    NO                                      :One Line per Depth step
PROD  .    Schlumberger Technology Corp.           :LAS Producer
PROG  .    Horizon LASWriter 7.0.78557.3100        :LAS Program name and version
SOURCE.    17.5in Run-Drilling                     :Run&Pass Information
CREA  .    10/06/2017                              :LAS Creation date {MM/DD/YYYY}
#--------------------------------------------------
~WELL INFORMATION 
#MNEM           .UNIT                      DATA            :DESCRIPTION
#----            ------          --------------            -----------------------------
STRT            .m                    309.98160            :START DEPTH
STOP            .m                   2714.09160            :STOP DEPTH
STEP            .m                       0.1524            :STEP
NULL            .                       -999.25            :NULL VALUE
COMP            .                Woodside Energy Ltd       :COMPANY
WELL            .                         SRA01            :WELL NAME
FLD             .                      Sculptor            :FIELD NAME
RIGN            .                    Ocean Apex            :Rig Name
RIGTYP          .                Semi-Submersible          :Rig Type
SON             .                     17AWA0007            :Service Order Number
SRVC            .                  Schlumberger            :SERVICE COMPANY
DATE            .                    01/13/2017            :LOG DATE(Composite Date for Composite LAP) (MM/DD/YYYY)
CLAB            .                       County:            :County Label
CNTY            .                                          :COUNTY
SLAB            .                        State:            :State/Province Label
STAT            .                Western Australia         :STATE or PROVINCE
PROV            .                Western Australia         :STATE or PROVINCE
CTRY            .                     Australia            :COUNTRY
CONT_REGION     .                   Australasia            :Continent Region
SECT            .                                          :Section
TOWN            .                                          :Township
RANG            .                                          :Range
API             .                                          :API NUMBER
UWI             .                     17AWA0007            :UNIQUE WELL ID
LUL             .                Forward Port Deck         :Logging Unit Location
LUN             .                   OLU-MA-5088            :Logging Unit Number
LOC             .                         GWF-2            :FIELD LOCATION
FL1             .                N 7,810,790.200 m         :Field Location Line 1
FL2             .                E 366,341.060 m           :Field Location Line 2
LATI            .deg             19° 47' 39.055" S         :LATITUDE
LONG            .deg             115° 43' 26.349" E        :LONGITUDE
PDAT            .                         OTHER            :Local Permanent Datum
LMF             .                            DF            :Logging Measured From
APD             .m                     23.85000            :Elevation of Depth Reference (LMF) Above Permanent Datum
EPD             .m                     -1.60000            :Elevation of Permanent Datum (PDAT) above Mean Sea Level
EKB             .m                      -999.25            :Elevation of Kelly Bushing Above Permanent Datum
EDF             .m                     23.85000            :Elevation of Drill Floor Above Permanent Datum
EGL             .m                    -93.16000            :Elevation of Ground Level Above Permanent Datum
ECF             .m                      -999.25            :Elevation of Casing Flange above Permanent Datum
#--------------------------------------------------
~CURVE INFORMATION
#MNEM           .UNIT                  API CODE            :DESCRIPTION
#----            ------          --------------            -----------------------------
DEPT            .m                                         :                                                        Depth Index
TVD             .m                                         :(RT)    (DnMWorkflow)           (6in)                   True Vertical Depth
ROP5            .m/h                                       :(RT)    (DRILLING_SURFACE)      (6in)                   Rate of penetration averaged over the last 5 ft (1.5 m)
GR              .gAPI                                      :(RM)    (ARC9)                  (6in)                   Gamma Ray
GR_CAL          .gAPI                                      :(RM)    (ARC9)                  (6in)                   Calibrated Gamma Ray
GRR             .1/s                                       :(RM)    (ARC9)                  (6in)                   Raw Gamma Ray
TAB_RES         .h                                         :        (ARC9)                  (6in)                   Resistivity Time After Bit
P16H            .ohm.m                                     :(RM)    (ARC9)                  (6in)                   Phase Shift Resistivity 16 inch Spacing at 2 MHz, Environmentally Corrected.
P28H            .ohm.m                                     :(RM)    (ARC9)                  (6in)                   Phase Shift Resistivity 28 inch Spacing at 2 MHz, Environmentally Corrected.
P40H            .ohm.m                                     :(RM)    (ARC9)                  (6in)                   Phase Shift Resistivity 40 inch Spacing at 2 MHz, Environmentally Corrected.
A40H            .ohm.m                                     :(RM)    (ARC9)                  (6in)                   Attenuation Resistivity 40 inch Spacing at 2 MHz, Environmentally Corrected.
ECD             .g/cm3                                     :(RM)    (ARC9)                  (6in)                   Equivalent Circulating Density
DHAT            .degC                                      :(RM)    (ARC9)                  (6in)                   Downhole Annulus Temperature
DHAP            .psi                                       :(RM)    (ARC9)                  (6in)                   Downhole Annulus Pressure
#-------------------------------------------------------------
#            DEPT          TVD         ROP5           GR       GR_CAL          GRR      TAB_RES         P16H         P28H         P40H         A40H          ECD         DHAT         DHAP 
#                  (DnMWorkfl)  (DRILLING_)       (ARC9)       (ARC9)       (ARC9)       (ARC9)       (ARC9)       (ARC9)       (ARC9)       (ARC9)       (ARC9)       (ARC9)       (ARC9) 
#                         (RT)         (RT)         (RM)         (RM)         (RM)                      (RM)         (RM)         (RM)         (RM)         (RM)         (RM)         (RM) 
#                        (6in)        (6in)        (6in)        (6in)        (6in)        (6in)        (6in)        (6in)        (6in)        (6in)        (6in)        (6in)        (6in) 
~ASCII
# ...
       1738.57920   1526.42658     76.52700     16.50082     84.84081      7.44500      0.55283      0.48114      0.43252      0.46143      0.42337      1.24009     58.00000   2688.00035
       1738.73160   1526.52507     76.95908     25.08993     90.08714      7.96000      0.55307      0.44434      0.42059      0.43186      0.44570      1.24031     58.00000   2688.69218
       1738.88400   1526.62356     75.02622     31.20408     93.82173      8.51667      0.55460      0.44191      0.41408      0.41531      0.47097      1.24041     58.00000   2688.99966
       1739.03640   1526.72204     73.82872     31.35827     93.91592      8.21000      0.55459      0.39892      0.39664      0.39940      0.47316      1.24168     58.00000   2692.00049
       1739.18880   1526.82052     66.19481     29.19945     92.59728      8.30000      0.55349      0.41051      0.39402      0.41418      0.46568      1.24160     58.00000   2692.00049
       1739.34120   1526.91900     71.05204     27.85788     91.77783      7.96000      0.55446      0.39871      0.40212      0.40971      0.47388      1.24199     58.00000   2692.99980
       1739.49360   1527.01748     71.39690     27.44153     91.52352      8.26000      0.55487      0.39871      0.40212      0.40971      0.47388      1.24190     58.00000   2692.99980
       1739.64600   1527.11595     66.75268     24.89718     89.96941      7.91000      0.55265      0.39932      0.44147      0.46215      0.46679      1.24231     58.00000   2694.00056
       1739.79840   1527.21442     63.34807     22.28343     88.37289      7.76000      0.55251      0.45543      0.47878      0.48785      0.46821      1.24218     58.00000   2694.00056
       1739.95080   1527.31289     59.22464     21.84396     88.10446      7.84500      0.54987      0.56777      0.47359      0.51427      0.50780      1.24208     58.00000   2694.00056
       1740.10320   1527.41136     53.79830     20.71057     87.41217      7.73000      0.54669      0.57143      0.47227      0.50497      0.50306      1.24341     58.00000   2696.99994
       1740.25560   1527.50982     51.54082     20.27109     87.14373      7.63000      0.54564      0.57143      0.47227      0.50497      0.50306      1.24251     58.00000   2695.20002
       1740.40800   1527.60828     45.15257     19.43839     86.63511      7.85000      0.54084      0.47774      0.47312      0.52943      0.50204      1.24191     58.00000   2694.00056
       1740.56040   1527.70674     44.07616     17.00968     85.15163      7.33000      0.53959      0.47326      0.48549      0.52233      0.50002      1.24266     58.00000   2695.86864
       1740.71280   1527.80520     40.81686     17.95803     85.73089      7.62500      0.53722      0.48062      0.47532      0.50397      0.52254      1.24311     58.00000   2696.99994
       1740.86520   1527.90365     38.24751     23.50934     89.12170      7.76000      0.53681      0.54052      0.49029      0.51270      0.51418      1.24303     58.00000   2696.99994
       1741.01760   1528.00210     35.57748     30.17092     93.19067      8.39500      0.53661      0.56270      0.49402      0.53271      0.49723      1.24341     58.00000   2697.99925
       1741.17000   1528.10055     35.46053     33.10849     94.98497      8.43000      0.53405      0.56270      0.49402      0.53271      0.49723      1.24191     58.00000   2694.99987
       1741.32240   1528.19899     35.21965     32.34519     94.51874      8.36000      0.53168      0.49004      0.50076      0.49574      0.50718      1.24281     58.00000   2697.07536
       1741.47480   1528.29743     34.13382     31.11926     93.76992      8.30000      0.52974      0.46678      0.45593      0.45900      0.48449      1.24359     58.00000   2699.00001
       1741.62720   1528.39587     33.16084     32.16014     94.40571      8.22500      0.52814      0.46678      0.45593      0.45900      0.48449      1.24447     58.00000   2701.00008
       1741.77960   1528.49431     33.40478     33.01598     94.92846      8.66000      0.52451      0.38531      0.37784      0.43254      0.48988      1.24392     58.00000   2699.99932
       1741.93200   1528.59275     35.14677     29.68519     92.89397      8.05000      0.52389      0.37122      0.34279      0.34552      0.46728      1.24382     58.00000   2699.99932
       1742.08440   1528.69118     35.79845     26.47005     90.93013      8.11500      0.52404      0.37122      0.34279      0.34552      0.46728      1.24376     58.00000   2699.99932
       1742.23680   1528.78961     40.16938     22.19091     88.31638      7.90000      0.52334      0.36627      0.34028      0.35470      0.40841      1.24368     58.00000   2699.99932
       1742.38920   1528.88803     40.91196     16.57021     84.88319      7.34000      0.52321      0.38270      0.34707      0.37787      0.40357      1.24403     58.00000   2701.00008
       1742.54160   1528.98646     44.65840     17.52627     85.46716      7.46000      0.52377      0.40301      0.36077      0.38660      0.42117      1.24487     58.00000   2703.00015
       1742.69400   1529.08488     47.88942     24.38831     89.65858      7.98667      0.52598      0.38644      0.37327      0.38889      0.40498      1.24528     58.00000   2703.99946
       1742.84640   1529.18330     48.51681     31.63585     94.08546      8.29667      0.52821      0.40168      0.39278      0.39439      0.40041      1.24472     58.00000   2703.00015
       1742.99880   1529.28172     50.85600     37.06380     97.40092      8.71667      0.52932      0.41788      0.39783      0.39268      0.41539      1.24443     58.00000   2702.50412
       1743.15120   1529.38013     54.96460     38.48246     98.26746      8.74000      0.53140      0.41399      0.38902      0.38711      0.40398      1.24414     58.00000   2701.99939
       1743.30360   1529.47854     60.18684     36.73998     97.20313      8.58000      0.53071      0.40129      0.37647      0.39285      0.42017      1.24447     58.00000   2703.00015
       1743.45600   1529.57695     61.32920     35.39840     96.38367      8.50000      0.53085      0.38814      0.38406      0.39039      0.43757      1.24443     58.00000   2703.00015
       1743.60840   1529.67536     61.26930     34.71991     95.96925      8.53000      0.53098      0.41216      0.42682      0.44701      0.45296      1.24527     58.00000   2705.00022
       1743.76080   1529.77376     61.56152     32.58420     94.66473      8.40333      0.53293      0.47508      0.46424      0.52808      0.44950      1.24520     58.00000   2705.00022
       1743.91320   1529.87216     62.43008     27.78077     91.73074      8.16500      0.53168      0.51443      0.48240      0.56181      0.45397      1.24552     58.00000   2705.99953
       1744.06560   1529.97056     61.23642     22.56100     88.54243      7.73000      0.53168      0.44201      0.43219      0.45802      0.44806      1.24545     58.00000   2705.99953
       1744.21800   1530.06895     57.08886     20.91873     87.53932      7.71000      0.53237      0.43088      0.41275      0.41999      0.45974      1.24540     58.00000   2705.99953
       1744.37040   1530.16735     56.04374     19.29961     86.55034      7.83000      0.53223      0.38100      0.40138      0.43508      0.47225      1.24534     58.00000   2705.99953
       1744.52280   1530.26574     55.79026     16.10761     84.60063      7.26000      0.53014      0.36790      0.41387      0.44077      0.46881      1.24612     58.00000   2707.99960
       1744.67520   1530.36413     53.70728     16.22326     84.67127      7.59000      0.52835      0.38123      0.39798      0.45939      0.46173      1.24513     58.00000   2705.99953
       1744.82760   1530.46251     49.70990     18.55943     86.09823      7.52500      0.52639      0.39099      0.41991      0.51273      0.43309      1.24528     58.00000   2706.43174
       1744.98000   1530.56089     49.12696     24.24952     89.57381      7.83000      0.52473      0.39857      0.44661      0.48768      0.46660      1.24547     58.00000   2707.00029
