~VERSION INFORMATION 
VERS  .    2.0                                     :CWLS Log ASCII Standard - VERSION 2.0
WRAP  .    NO                                      :One Line per Depth step
PROD  .    Schlumberger Technology Corp.           :LAS Producer
PROG  .    Horizon LASWriter 7.0.78557.3100        :LAS Program name and version
SOURCE.    17.5in Run-Drilling                     :Run&Pass Information
CREA  .    10/06/2017                              :LAS Creation date {MM/DD/YYYY}
#--------------------------------------------------
~WELL INFORMATION 
#MNEM           .UNIT                      DATA            :DESCRIPTION
#----            ------          --------------            -----------------------------
STRT            .m                    309.98160            :START DEPTH
STOP            .m                   2714.09160            :STOP DEPTH
STEP            .m                       0.1524            :STEP
NULL            .                       -999.25            :NULL VALUE
COMP            .                Woodside Energy Ltd       :COMPANY
WELL            .                         SRA01            :WELL NAME
FLD             .                      Sculptor            :FIELD NAME
RIGN            .                    Ocean Apex            :Rig Name
RIGTYP          .                Semi-Submersible          :Rig Type
SON             .                     17AWA0007            :Service Order Number
SRVC            .                  Schlumberger            :SERVICE COMPANY
DATE            .                    01/13/2017            :LOG DATE(Composite Date for Composite LAP) (MM/DD/YYYY)
CLAB            .                       County:            :County Label
CNTY            .                                          :COUNTY
SLAB            .                        State:            :State/Province Label
STAT            .                Western Australia         :STATE or PROVINCE
PROV            .                Western Australia         :STATE or PROVINCE
CTRY            .                     Australia            :COUNTRY
CONT_REGION     .                   Australasia            :Continent Region
SECT            .                                          :Section
TOWN            .                                          :Township
RANG            .                                          :Range
API             .                                          :API NUMBER
UWI             .                     17AWA0007            :UNIQUE WELL ID
LUL             .                Forward Port Deck         :Logging Unit Location
LUN             .                   OLU-MA-5088            :Logging Unit Number
LOC             .                         GWF-2            :FIELD LOCATION
FL1             .                N 7,810,790.200 m         :Field Location Line 1
FL2             .                E 366,341.060 m           :Field Location Line 2
LATI            .deg             19° 47' 39.055" S         :LATITUDE
LONG            .deg             115° 43' 26.349" E        :LONGITUDE
PDAT            .                         OTHER            :Local Permanent Datum
LMF             .                            DF            :Logging Measured From
APD             .m                     23.85000            :Elevation of Depth Reference (LMF) Above Permanent Datum
EPD             .m                     -1.60000            :Elevation of Permanent Datum (PDAT) above Mean Sea Level
EKB             .m                      -999.25            :Elevation of Kelly Bushing Above Permanent Datum
EDF             .m                     23.85000            :Elevation of Drill Floor Above Permanent Datum
EGL             .m                    -93.16000            :Elevation of Ground Level Above Permanent Datum
ECF             .m                      -999.25            :Elevation of Casing Flange above Permanent Datum
#--------------------------------------------------
~CURVE INFORMATION
#MNEM           .UNIT                  API CODE            :DESCRIPTION
#----            ------          --------------            -----------------------------
DEPT            .m                                         :                                                        Depth Index
TVD             .m                                         :(RT)    (DnMWorkflow)           (6in)                   True Vertical Depth
ROP5            .m/h                                       :(RT)    (DRILLING_SURFACE)      (6in)                   Rate of penetration averaged over the last 5 ft (1.5 m)
GR              .gAPI                                      :(RM)    (ARC9)                  (6in)                   Gamma Ray
GR_CAL          .gAPI                                      :(RM)    (ARC9)                  (6in)                   Calibrated Gamma Ray
GRR             .1/s                                       :(RM)    (ARC9)                  (6in)                   Raw Gamma Ray
TAB_RES         .h                                         :        (ARC9)                  (6in)                   Resistivity Time After Bit
P16H            .ohm.m                                     :(RM)    (ARC9)                  (6in)                   Phase Shift Resistivity 16 inch Spacing at 2 MHz, Environmentally Corrected.
P28H            .ohm.m                                     :(RM)    (ARC9)                  (6in)                   Phase Shift Resistivity 28 inch Spacing at 2 MHz, Environmentally Corrected.
P40H            .ohm.m                                     :(RM)    (ARC9)                  (6in)                   Phase Shift Resistivity 40 inch Spacing at 2 MHz, Environmentally Corrected.
A40H            .ohm.m                                     :(RM)    (ARC9)                  (6in)                   Attenuation Resistivity 40 inch Spacing at 2 MHz, Environmentally Corrected.
ECD             .g/cm3                                     :(RM)    (ARC9)                  (6in)                   Equivalent Circulating Density
DHAT            .degC                                      :(RM)    (ARC9)                  (6in)                   Downhole Annulus Temperature
DHAP            .psi                                       :(RM)    (ARC9)                  (6in)                   Downhole Annulus Pressure
#-------------------------------------------------------------
#            DEPT          TVD         ROP5           GR       GR_CAL          GRR      TAB_RES         P16H         P28H         P40H         A40H          ECD         DHAT         DHAP 
#                  (DnMWorkfl)  (DRILLING_)       (ARC9)       (ARC9)       (ARC9)       (ARC9)       (ARC9)       (ARC9)       (ARC9)       (ARC9)       (ARC9)       (ARC9)       (ARC9) 
#                         (RT)         (RT)         (RM)         (RM)         (RM)                      (RM)         (RM)         (RM)         (RM)         (RM)         (RM)         (RM) 
#                        (6in)        (6in)        (6in)        (6in)        (6in)        (6in)        (6in)        (6in)        (6in)        (6in)        (6in)        (6in)        (6in) 
~ASCII
# ...
       1424.02560   1322.48982    165.30670     30.13748    113.53550     10.26000      0.19833      0.41234      0.29790      0.32369      0.30752      1.23189     52.00000   2312.99948
       1424.17800   1322.59877    162.40440     28.31987    112.40520      9.99500      0.20014      0.37856      0.30597      0.30074      0.34145      1.23073     52.00000   2310.99940
       1424.33040   1322.70770    166.36120     23.93491    109.67850      9.53000      0.20042      0.38223      0.33375      0.33972      0.37596      1.23117     52.00000   2312.00017
       1424.48280   1322.81661    170.14230     23.91219    109.66430      9.76000      0.20173      0.38223      0.33375      0.33972      0.37596      1.23113     52.00000   2312.00017
       1424.63520   1322.92549    173.49970     25.86611    110.87940      9.76000      0.20194      0.46276      0.44495      0.45162      0.51271      1.23050     52.00000   2310.99940
       1424.78760   1323.03436    185.01790     31.31892    114.27020      9.96000      0.20237      0.67979      0.55572      0.59062      0.53522      1.23036     52.00000   2310.99940
       1424.94000   1323.14320    172.57880     40.63415    120.06280     10.76000      0.20230      0.76384      0.64021      0.68568      0.55891      1.23074     52.00000   2312.00017
       1425.09240   1323.25202    171.55890     48.26808    124.80990     11.01000      0.20230      0.69037      0.59530      0.70720      0.60519      1.23083     52.00000   2312.28734
       1425.24480   1323.36082    141.95440     54.31162    128.56810     11.39000      0.20057      0.55602      0.58732      0.65320      0.56000      1.23106     52.00000   2312.99948
       1425.39720   1323.46960    127.57790     56.67450    130.03740     11.71000      0.20056      0.62104      0.62857      0.74912      0.61686      1.23124     52.00000   2313.43024
       1425.54960   1323.57835    103.72460     52.90297    127.69210     11.21000      0.19985      0.62536      0.64505      0.82117      0.66563      1.23156     52.00000   2314.23230
       1425.70200   1323.68709     93.66211     48.08633    124.69690     11.06000      0.19918      0.72148      0.68664      0.69601      0.58470      1.23187     52.00000   2314.99955
       1425.85440   1323.79580     86.19607     44.20120    122.28100     10.80000      0.19917      0.98408      0.66300      0.68905      0.62632      1.23172     52.00000   2314.99955
       1426.00680   1323.90449     79.61179     41.54294    120.62790     10.61500      0.19793      0.95701      0.64374      0.65297      0.60930      1.23167     52.00000   2314.99955
       1426.15920   1324.01316     68.64399     39.90709    119.61070     10.66000      0.19723      0.76818      0.59123      0.62518      0.65674      1.23158     52.00000   2314.99955
       1426.31160   1324.12181     62.22751     36.95349    117.77400     10.39500      0.19547      0.76488      0.51273      0.53070      0.59731      1.23197     52.00000   2316.00031
       1426.46400   1324.23044     58.94505     34.85567    116.46950     10.23000      0.19361      0.61549      0.48078      0.50737      0.57004      1.23216     52.00000   2316.50359
       1426.61640   1324.33904     53.46854     35.01471    116.56840     10.36333      0.19270      0.52462      0.38577      0.38695      0.51721      1.23236     52.00000   2316.99962
       1426.76880   1324.44762     51.86879     32.57610    115.05190     10.29667      0.19236      0.52462      0.38577      0.38695      0.51721      1.23277     52.00000   2318.00038
       1426.92120   1324.55618     49.21786     28.48649    112.50880      9.76000      0.18917      0.39562      0.29608      0.30745      0.41815      1.23295     52.00000   2318.55732
       1427.07360   1324.66472     52.15168     29.25141    112.98450     10.00000      0.19208      0.42641      0.29245      0.30851      0.37829      1.23309     51.47663   2318.99969
       1427.22600   1324.77324     52.58201     32.09141    114.75050     10.22500      0.41945      0.41197      0.27032      0.26929      0.39653      1.23368     51.00000   2320.29777
       1427.37840   1324.88174     54.59589     32.77301    115.17440     10.16000      0.42008      0.38923      0.28522      0.28523      0.36268      1.23289     51.00000   2318.99969
       1427.53080   1324.99021     56.54008     33.36373    115.54170     10.21500      0.42238      0.41146      0.29286      0.29102      0.35411      1.23330     51.00000   2320.00045
       1427.68320   1325.09866     62.97086     33.29557    115.49940     10.30000      0.42223      0.41643      0.28501      0.30853      0.32331      1.23321     51.00000   2320.00045
       1427.83560   1325.20709     69.56250     30.72821    113.90280     10.06000      0.42390      0.31841      0.26589      0.26585      0.34577      1.22565     51.00000   2305.99995
       1427.98800   1325.31550     74.33896     26.65375    111.36920      9.89000      0.42321      0.33458      0.27330      0.23729      0.29338      1.22658     51.00000   2308.00002
       1428.14040   1325.42389     82.67694     21.35239    108.07250      9.57333      0.42398      0.33583      0.26669      0.26349      0.29542      1.22670     51.00000   2308.31476
       1428.29280   1325.53226     98.21568     15.92987    104.70060      9.21000      0.42474      0.34579      0.26891      0.25035      0.28416      1.22695     51.00000   2308.99933
       1428.44520   1325.64060    121.69240     14.59697    103.87170      9.06000      0.42682      0.34827      0.27930      0.25770      0.30243      1.22709     51.00000   2309.43445
       1428.59760   1325.74892    124.36600     17.09618    105.42580      9.43000      0.42891      0.33756      0.27254      0.29267      0.27269      1.22728     51.00000   2310.00009
       1428.75000   1325.85722    142.64450     18.41394    106.24530      9.39000      0.42904      0.32023      0.26111      0.25626      0.27537      1.22778     51.00000   2311.09658
       1428.90240   1325.96550    149.08800     17.64146    105.76490      9.39000      0.42987      0.32023      0.26111      0.25626      0.27537      1.22758     51.00000   2310.99940
       1429.05480   1326.07376    158.27320     19.82258    107.12120      9.26000      0.43019      0.28645      0.26116      0.29125      0.28032      1.22801     51.00000   2312.00017
       1429.20720   1326.18199    151.94210     25.18451    110.45550     10.00000      0.42974      0.31162      0.28637      0.28958      0.29593      1.22795     51.00000   2312.00017
       1429.35960   1326.29020    151.26890     28.81973    112.71610      9.83000      0.43007      0.27594      0.28551      0.30052      0.29760      1.22783     51.00000   2312.00017
       1429.51200   1326.39840    160.86650     30.45557    113.73330     10.23000      0.43050      0.31590      0.28573      0.27280      0.27867      1.22793     51.00000   2312.33230
       1429.66440   1326.50656    172.87250     30.00116    113.45070      9.96000      0.43112      0.29719      0.27660      0.28227      0.30748      1.22805     51.00000   2312.75146
       1429.81680   1326.61471    171.62030     31.54613    114.41150     10.00000      0.43154      0.27695      0.27748      0.25992      0.27620      1.22813     51.00000   2312.99948
       1429.96920   1326.72284    168.81720     34.72693    116.38940     10.53000      0.43196      0.27695      0.27748      0.25992      0.27620      1.22798     51.00000   2312.99948
       1430.12160   1326.83094    176.28150     34.27253    116.10690     10.13000      0.43238      0.28385      0.27468      0.26253      0.30206      1.22788     51.00000   2312.99948
       1430.27400   1326.93902    173.76610     34.90870    116.50250     10.30000      0.43334      0.28385      0.27468      0.26253      0.30206      1.22826     51.00000   2313.90596
       1430.42640   1327.04709    172.55920     37.33973    118.01420     10.50000      0.43340      0.27463      0.26914      0.28817      0.28541      1.22873     51.00000   2314.99955
