~VERSION INFORMATION
VERS.    2.0:   CWLS LOG ASCII STANDARD - VERSION 2.0
WRAP.     NO:   ONE LINE PER STEP
~WELL INFORMATION BLOCK
#MNEM.UNIT      DATA                  DESCRIPTION OF MNEMONIC
#----   --------             ---------------
STRT.m  259.50                   :START DEPTH
STOP.m  5463.00                   :STOP DEPTH
STEP.m  0.50                   :STEP VALUE
NULL.   0                   :NULL VALUE
COMP.   SHELL                   :COMPANY NAME
WELL.   PRELUDE P4                   :WELL NAME
FLD .   PRELUDE                   :FIELD NAME
LOC .                      :LOCATION
PROV.                      :PROVINCE
SRVC.   Geoservices                   :SERVICE COMPANY NAME
DATE.   10-14-2015 04:29:56                   :DATE
UWI .                      :UNIQUE WELL IDENTIFIER
~CURVE INFORMATION
#MNEM.UNIT       API CODE        CURVE DESCRIPTION
#----   -------- ------------------
Tot Depth .m        :Tot Depth
ROP m/hr .m/h        :ROP m/hr
WOH .klbs        :WOH
WOB .klbs        :WOB
RPM .rpm        :RPM
SPP .psi        :SPP
TORQUE .lb*ft        :TORQUE
FLWpmps .gpm        :FLWpmps
D Exp .....        :D Exp
TVD Depth .m        :TVD Depth
#
#-----------------------------------------------------------
# Tot Depth (m)   ROP m/hr (m/h)   WOH (klbs)   WOB (klbs)   RPM (rpm)   SPP (psi)   TORQUE (lb*ft)   FLWpmps (gpm)   D Exp (....)   TVD Depth (m)
#-----------------------------------------------------------
~A
    259.50      35.23      215.0        0.1          1          0          0          0      -0.15     259.50 
    260.00      34.30      215.2        0.2          1          0          0          0      -0.16     260.00 
    260.50      89.28      214.9        0.1          1          0          0          0      -0.17     260.50 
    261.00     105.22      214.9        0.2          1          0          0          0      -0.18     261.00 
    261.50     115.50      214.6        0.1          1          0          0          0      -0.15     261.50 
    262.00     114.64      214.9        0.1          1          0          0          0      -0.16     262.00 
    262.50     103.51      215.0        0.1          1          0          0          0      -0.16     262.50 
    263.00     115.12      215.2        0.2          1          0          0          0      -0.16     263.00 
    263.50     103.88      215.2        0.2          1          0          0          0      -0.17     263.50 
    264.00     116.24      214.9        0.1          1          0          0          0      -0.17     264.00 
    264.50     106.69      214.9        0.1          1          0          0          0      -0.17     264.50 
    265.00     119.53      214.9        0.2          1          0          0          0      -0.19     265.00 
    265.50      89.50      215.0        0.1          6          7     199.38     126.84       0.02     265.50 
    266.00      90.99      215.2        0.2         35         67    2300.70     477.87       0.18     266.00 
    266.50     109.28      214.9        0.1         34         68    3318.82     477.48       0.14     266.50 
    267.00     109.22      214.9        0.2         35         68    2911.78     476.50       0.16     267.00 
    267.50      86.05      214.6        0.2         35         67    2638.83     476.36       0.18     267.50 
    268.00     100.64      214.9        0.1         35         67    2563.20     476.78       0.15     268.00 
    268.50      98.32      215.0        0.1         35         77    2457.05     498.26       0.15     268.50 
    269.00      95.04      214.6        0.3         35         96    2348.05     542.74       0.17     269.00 
    269.50      81.10      214.9        0.1         35         94    2932.61     544.56       0.17     269.50 
    270.00      99.66      214.3        0.6         35         94    2869.09     543.56       0.18     270.00 
    270.50      98.26      214.8        0.1         36         96    2688.40     544.16       0.15     270.50 
    271.00      95.10      214.6        0.3         36         97    2694.31     544.13       0.17     271.00 
    271.50      85.58      214.7        0.2         39         97    2825.06     544.05       0.18     271.50 
    272.00      99.08      214.6        0.3         39         97    2742.80     544.06       0.18     272.00 
    272.50      91.89      214.0        0.9         59         98    2757.19     544.78       0.25     272.50 
    273.00      95.03      214.5        0.4         60        161    2873.40     574.87       0.23     273.00 
    273.50     100.14      214.7        0.3         59        205    2684.87     659.23       0.21     273.50 
    274.00      95.06      214.4        0.5         59        215    2365.82     672.77       0.23     274.00 
    274.50      91.99      213.3        1.6         60        223    3122.90     690.94       0.27     274.50 
    275.00      72.80      214.3        0.7         60        223    2191.33     690.99       0.27     275.00 
    275.50     111.49      214.8        0.4         61        225    2168.53     691.38       0.21     275.50 
    276.00      91.04      214.2        0.9         60        221    2096.25     692.08       0.25     276.00 
    276.50     101.16      214.2        0.8         60        219    2133.39     692.28       0.24     276.50 
    277.00      93.87      214.7        0.4         60        222    2220.04     692.23       0.22     277.00 
    277.50     113.76      214.5        0.4         60        223    2115.44     692.29       0.21     277.50 
    278.00      89.02      213.8        1.1         60        217    2680.56     692.18       0.26     278.00 
    278.50      61.90      213.6        1.3         60        223    2439.53     692.40       0.31     278.50 
    279.00      59.01      213.4        2.0         60        243    1634.35     715.65       0.33     279.00 
    279.50     137.25      216.8        0.4         58        312    2604.53     800.80       0.18     279.50 
    280.00     152.91      216.8        0.5         58        312    2869.39     800.66       0.17     280.00 
    280.50      59.96      215.5        1.7         58        313    2753.35     800.68       0.31     280.50 
    281.00     111.58      216.8        0.4         58        317    2128.37     800.58       0.20     281.00 
    281.50     136.45      216.8        0.5         59        303    2069.33     800.46       0.18     281.50 
    282.00     149.42      216.2        1.1         59        312    2060.02     800.52       0.19     282.00 
    282.50     135.72      216.5        1.4         59        320    1999.00     800.52       0.19     282.50 
    283.00     117.06      215.2        2.0         58        328    1907.69     800.21       0.23     283.00 
    283.50      65.24      215.8        1.5         60        325    1904.82     800.00       0.30     283.50 
    284.00     109.19      215.7        1.6         59        311    2065.23     799.85       0.23     284.00 
    284.50     158.66      215.1        2.1         59        309    1636.74     799.70       0.19     284.50 
    285.00     138.34      215.1        2.1         60        324    2557.82     799.26       0.21     285.00 
    285.50     128.74      215.3        2.0         58        312    1827.84     799.49       0.21     285.50 
    286.00     138.80      216.0        1.3         59        310    2233.05     799.26       0.19     286.00 
    286.50     127.40      216.1        1.2         58        341    1921.70     809.78       0.20     286.50 
    287.00     124.84      215.9        1.3         59        376    2219.43     850.55       0.21     287.00 
    287.50     127.49      216.4        0.8         58        379    2279.55     859.72       0.19     287.50 
    288.00     171.06      215.6        1.6         57        388    2747.78     864.99       0.17     288.00 
    288.50     145.68      216.2        1.2         58        367    3121.97     864.80       0.18     288.50 
    289.00     143.06      219.1        0.3         72        360    3122.55     864.74       0.18     289.00 
    289.50     204.81      219.6        0.2         76        397    3280.95     864.91       0.14     289.50 
    290.00     163.78      219.0        0.3         76        358    2883.93     864.81       0.17     290.00 
    290.50     148.71      219.6        0.4         77        382    2909.12     864.69       0.18     290.50 
    291.00     135.26      219.0        0.4         75        393    4804.33     864.52       0.19     291.00 
    291.50     124.35      218.9        0.5         75        356    3800.47     864.75       0.21     291.50 
    292.00     156.06      219.3        0.6         77        386    2959.50     864.55       0.19     292.00 
    292.50     123.26      219.6        0.3         76        372    3014.96     864.54       0.20     292.50 
    293.00     209.36      219.2        0.4         77        400    3340.95     864.18       0.15     293.00 
    293.50     154.77      222.0        0.3         77        388    2666.36     864.28       0.17     293.50 
    294.00     124.84      224.8        0.4         77        363    2222.91     864.42       0.20     294.00 
    294.50     203.87      224.9        0.2         77        388    2153.09     864.43       0.14     294.50 
    295.00     154.78      225.2        0.4         77        366    2450.34     864.34       0.18     295.00 
    295.50     132.65      225.0        0.3         78        382    2117.65     864.58       0.19     295.50 
