~VERSION INFORMATION
VERS.    2.0:   CWLS LOG ASCII STANDARD - VERSION 2.0
WRAP.     NO:   ONE LINE PER STEP
~WELL INFORMATION BLOCK
#MNEM.UNIT      DATA                  DESCRIPTION OF MNEMONIC
#----   --------             ---------------
STRT.m  259.50                   :START DEPTH
STOP.m  5463.00                   :STOP DEPTH
STEP.m  0.50                   :STEP VALUE
NULL.   0                   :NULL VALUE
COMP.   SHELL                   :COMPANY NAME
WELL.   PRELUDE P4                   :WELL NAME
FLD .   PRELUDE                   :FIELD NAME
LOC .                      :LOCATION
PROV.                      :PROVINCE
SRVC.   Geoservices                   :SERVICE COMPANY NAME
DATE.   10-14-2015 04:29:56                   :DATE
UWI .                      :UNIQUE WELL IDENTIFIER
~CURVE INFORMATION
#MNEM.UNIT       API CODE        CURVE DESCRIPTION
#----   -------- ------------------
Tot Depth .m        :Tot Depth
ROP m/hr .m/h        :ROP m/hr
WOH .klbs        :WOH
WOB .klbs        :WOB
RPM .rpm        :RPM
SPP .psi        :SPP
TORQUE .lb*ft        :TORQUE
FLWpmps .gpm        :FLWpmps
D Exp .....        :D Exp
TVD Depth .m        :TVD Depth
#
#-----------------------------------------------------------
# Tot Depth (m)   ROP m/hr (m/h)   WOH (klbs)   WOB (klbs)   RPM (rpm)   SPP (psi)   TORQUE (lb*ft)   FLWpmps (gpm)   D Exp (....)   TVD Depth (m)
#-----------------------------------------------------------
~A
# ...
   5114.00       9.35      490.3       14.5        136       2127   18646.10     436.64       1.10    4074.12 
   5114.50       8.76      490.1       14.6        136       2127   18645.80     436.63       1.12    4074.16 
   5115.00      10.46      489.9       15.6        136       2126   18626.08     436.61       1.09    4074.20 
   5115.50       7.11      489.5       14.5        136       2128   18678.00     436.64       1.18    4074.24 
   5116.00       8.89      490.2       16.4        136       2128   18647.95     436.58       1.11    4074.28 
   5116.50       9.47      490.4       16.4        136       2127   18669.74     436.61       1.09    4074.32 
   5117.00       8.80      490.4       14.5        136       2133   18223.62     436.46       1.11    4074.36 
   5117.50       8.85      490.4       15.2        136       2129   18479.55     436.58       1.11    4074.40 
   5118.00       9.25      490.8       15.6        136       2125   18338.61     436.59       1.09    4074.44 
   5118.50       6.32      486.4       14.1        136       2114   18191.24     434.84       1.29    4075.00 
   5119.00          0          0       14.1          0          0          0          0       1.25          0 
   5119.50       9.82      475.2       15.6        135       2094   18471.64     431.02       1.42    4075.10 
   5120.00       6.25      473.9       15.7        135       2093   18414.80     431.03       1.46    4075.15 
   5120.50       9.95      474.5       14.7        135       2092   18436.63     431.03       1.20    4075.20 
   5121.00       9.98      472.2       15.6        135       2093   18810.12     431.05       1.40    4075.25 
   5121.50       8.82      473.4       16.4        135       2095   18839.16     430.99       1.46    4075.30 
   5122.00       9.29      473.7       18.5        135       2096   18740.73     431.00       1.40    4075.35 
   5122.50       7.54      476.5       16.5        129       1998   16598.64     420.99       1.15    4075.40 
   5123.00       7.32      474.1       16.8        128       1965   16854.62     418.77       1.15    4075.45 
   5123.50       7.95      470.1       16.9        128       1955   18409.19     419.03       1.23    4075.50 
   5124.00       8.39      469.6       16.4        128       1950   18501.36     419.07       1.23    4075.55 
   5124.50       8.45      468.5       15.9        128       1946   18341.41     419.09       1.25    4075.60 
   5125.00       6.70      470.1       14.3        128       1943   18088.45     419.13       1.27    4075.65 
   5125.50       7.72      467.6       16.9        128       1943   18430.89     419.21       1.29    4075.71 
   5126.00       7.94      466.9       17.6        128       1948   18231.95     419.15       1.30    4075.76 
   5126.50       8.02      466.1       18.4        128       1945   17915.21     419.18       1.31    4075.81 
   5127.00       8.68      473.0       16.5        128       1940   17828.86     419.27       1.15    4075.86 
   5127.50       8.64      470.7       16.8        128       1940   18077.14     419.26       1.20    4075.91 
   5128.00       8.44      469.5       17.5        128       1939   18139.32     419.28       1.23    4075.96 
   5128.50       9.95      469.6       17.6        128       1940   18295.00     419.27       1.19    4076.02 
   5129.00       8.57      461.7       18.2        128       1942   18105.14     419.28       1.38    4076.07 
   5129.50      10.27      471.4       18.6        128       1941   18164.73     419.22       1.15    4076.12 
   5130.00       9.08      464.8       17.2        128       1940   13881.25     419.20       1.20    4076.17 
   5130.50       8.43      460.6       16.8        128       1942   18330.05     419.14       1.18    4076.22 
   5131.00       9.25      462.2       16.9        128       1942   18254.14     419.17       1.06    4076.28 
   5131.50       8.33      458.4       16.8        128       1943   18363.06     419.19       1.18    4076.33 
   5132.00       9.29      473.7       18.5        135       2096   18740.73     431.00       1.40    4075.35 
   5132.50       9.25      490.7       16.4        136       2124   18278.02     436.70       1.10    4074.08 
   5133.00       8.76      490.1       16.9        136       2127   18645.80     436.63       1.12    4074.16 
   5133.50       9.10      456.0       15.0        130       1943   18096.28     419.18       1.22    4076.54 
   5134.00       4.36      458.9       16.8        132       1942   13809.27     419.19       1.12    4076.60 
   5134.50       4.38      458.8       16.9        127       1943   17272.28     419.20       1.14    4076.65 
   5135.00       6.79      456.6       16.0        127       1945   17979.06     419.24       1.13    4076.70 
   5135.50       8.29      454.2       16.8        127       1946   18285.01     419.25       1.15    4076.75 
   5136.00       9.06      454.6       16.5        126       1945   18439.73     419.28       1.12    4076.81 
   5136.50       7.55      453.0       16.4        126       1946   18398.89     419.22       1.20    4076.86 
   5137.00       8.64      451.9       16.5        126       1950   18495.40     419.18       1.20    4076.91 
   5137.50       8.61      451.6       16.9        126       1951   18427.07     419.13       1.20    4076.97 
   5138.00       8.25      451.2       16.5        126       1951   18386.96     419.17       1.22    4077.02 
   5138.50       8.55      450.1       16.4        126       1952   18544.52     419.09       1.24    4077.08 
   5139.00       8.52      449.2       16.5        126       1956   18174.05     419.00       1.26    4077.13 
   5139.50       6.77      450.4       16.8        126       1956   18246.06     419.10       1.28    4077.18 
   5140.00       3.88      451.9       16.4        127       1951   17518.64     419.05       1.37    4077.24 
   5140.50       5.46      451.0       16.8        127       1954   17808.43     419.08       1.32    4077.29 
   5141.00       4.01      451.1       15.8        117       1956   15845.08     418.90       1.40    4077.35 
   5141.50          0          0       15.8          0          0          0          0       1.40          0 
   5142.00       3.20      451.4       15.8        128       1951   16789.46     418.96       1.47    4077.46 
   5142.50       4.09      451.0       16.2        128       1949   17219.56     418.94       1.42    4077.51 
   5143.00       4.54      450.8       16.4        128       1948   17093.54     419.02       1.40    4077.57 
   5143.50       4.86      451.8       15.4        127       1946   17650.12     419.06       1.36    4077.62 
   5144.00       5.31      452.5       16.5        127       1944   17939.32     419.10       1.33    4077.68 
   5144.50       3.49      453.5       16.0        124       1937   16960.36     419.18       1.39    4077.73 
   5145.00       4.31      450.3       16.9        128       1934   16993.46     419.25       1.43    4077.79 
   5145.50       5.72      447.7       19.5        128       1932   17849.07     419.25       1.41    4077.84 
   5146.00       4.96      466.4       20.0        134       1967   16530.23     422.99       1.18    4077.90 
   5146.50       5.42      464.9       18.5        139       1965   17972.76     423.57       1.25    4077.95 
   5147.00       5.88      462.6       18.4        138       1962   18456.48     423.67       1.29    4078.01 
   5147.50       8.15      460.7       18.6        137       1958   18707.63     423.76       1.26    4078.08 
   5148.00       3.64      462.0       16.5        130       1962   18285.76     425.73       1.44    4078.12 
   5148.50       4.33      464.2       16.0        134       1977   17976.17     426.08       1.36    4078.18 
   5149.00       4.65      462.8       15.1        145       1986   18251.96     426.04       1.39    4078.23 
   5149.50       4.87      464.2       14.8        147       1990   18545.02     426.03       1.35    4078.29 
   5150.00       5.37      469.4       15.3        147       1992   18644.69     426.01       1.37    4078.34 
