~VERSION INFORMATION
VERS.    2.0:   CWLS LOG ASCII STANDARD - VERSION 2.0
WRAP.     NO:   ONE LINE PER STEP
~WELL INFORMATION BLOCK
#MNEM.UNIT      DATA                  DESCRIPTION OF MNEMONIC
#----   --------             ---------------
STRT.m  259.50                   :START DEPTH
STOP.m  5463.00                   :STOP DEPTH
STEP.m  0.50                   :STEP VALUE
NULL.   0                   :NULL VALUE
COMP.   SHELL                   :COMPANY NAME
WELL.   PRELUDE P4                   :WELL NAME
FLD .   PRELUDE                   :FIELD NAME
LOC .                      :LOCATION
PROV.                      :PROVINCE
SRVC.   Geoservices                   :SERVICE COMPANY NAME
DATE.   10-14-2015 04:29:56                   :DATE
UWI .                      :UNIQUE WELL IDENTIFIER
~CURVE INFORMATION
#MNEM.UNIT       API CODE        CURVE DESCRIPTION
#----   -------- ------------------
Tot Depth .m        :Tot Depth
ROP m/hr .m/h        :ROP m/hr
WOH .klbs        :WOH
WOB .klbs        :WOB
RPM .rpm        :RPM
SPP .psi        :SPP
TORQUE .lb*ft        :TORQUE
FLWpmps .gpm        :FLWpmps
D Exp .....        :D Exp
TVD Depth .m        :TVD Depth
#
#-----------------------------------------------------------
# Tot Depth (m)   ROP m/hr (m/h)   WOH (klbs)   WOB (klbs)   RPM (rpm)   SPP (psi)   TORQUE (lb*ft)   FLWpmps (gpm)   D Exp (....)   TVD Depth (m)
#-----------------------------------------------------------
~A
# ...
   5442.50       4.63      479.7       16.8        119       1761   18422.15     394.71       1.46    4101.75 
   5443.00       3.81      478.3       18.2        119       1766   18458.03     394.63       1.53    4101.78 
   5443.50       4.32      477.5       19.0        118       1771   18937.93     394.53       1.52    4101.81 
   5444.00       3.81      477.0       19.5        119       1775   18707.15     394.28       1.56    4101.85 
   5444.50       4.22      478.3       18.6        119       1772   18417.05     394.32       1.52    4101.88 
   5445.00       3.98      477.0       19.7        119       1773   18522.79     394.29       1.56    4101.91 
   5445.50       3.82      476.7       19.8        118       1771   18936.94     394.26       1.57    4101.94 
   5446.00       3.73      475.8       20.7        118       1770   19081.88     394.30       1.59    4101.97 
   5446.50       3.48      475.0       21.4        118       1769   18999.27     394.31       1.63    4102.00 
   5447.00       2.86      472.3       24.1        119       1767   18595.40     394.35       1.74    4102.04 
   5447.50       3.61      476.0       20.5        120       1765   18250.32     394.40       1.60    4102.07 
   5448.00       3.70      477.5       19.0        121       1761   17774.22     394.45       1.56    4102.10 
   5448.50       4.29      476.0       20.5        120       1758   18325.03     394.49       1.55    4102.13 
   5449.00       4.12      476.1       20.3        119       1752   18504.19     394.58       1.56    4102.16 
   5449.50       3.36      489.8        6.7        116       1744   16754.26     395.09       1.22    4102.19 
   5450.00       4.43      491.3        8.9        117       1737   16855.79     395.18       1.25    4102.22 
   5450.50       5.70      490.6       17.6        116       1734   17256.04     395.27       1.42    4102.25 
   5451.00       3.59      486.3       21.9        115       1735   17774.02     395.25       1.62    4102.28 
   5451.50       3.07      483.4       24.8        115       1731   17992.00     395.34       1.72    4102.31 
   5452.00       3.15      483.4       24.9        121       1735   17881.75     395.28       1.73    4102.34 
   5452.50       3.13      483.7       24.6        121       1738   17934.87     395.18       1.73    4102.38 
   5453.00       4.60      485.4       22.8        119       1741   17560.63     395.13       1.58    4102.40 
   5453.50       3.21      485.1       23.1        120       1737   17351.76     395.16       1.69    4102.44 
   5454.00       4.75      485.5       22.7        120       1735   17270.22     395.25       1.58    4102.46 
   5454.50       5.44      485.1       23.2        118       1735   17867.95     395.28       1.55    4102.50 
   5455.00       4.80      481.3       26.9        116       1733   19062.47     395.32       1.64    4102.52 
   5455.50       5.74      480.4       27.8        116       1733   19109.21     395.31       1.61    4102.55 
   5456.00       3.01      484.2       24.1        117       1735   17663.30     395.10       1.71    4102.89 
   5456.50       6.04      486.8       21.4        119       1740   17657.04     394.85       1.48    4102.93 
   5457.00       5.83      489.4       18.8        118       1739   18403.98     394.80       1.44    4102.97 
   5457.50       5.33      487.3       21.0        117       1739   18700.88     394.82       1.50    4103.01 
   5458.00       3.02      483.0       25.2        117       1739   18690.13     394.81       1.74    4103.04 
   5458.50       4.45      486.7       21.6        119       1741   18004.12     394.79       1.56    4103.08 
   5459.00       4.91      483.4       24.9        115       1738   18090.58     394.88       1.59    4103.12 
   5459.50       4.11      482.0       26.2        114       1735   18631.17     394.89       1.67    4103.16 
   5460.00       4.46      482.4       25.8        116       1737   18660.83     394.88       1.64    4103.20 
   5460.50       3.79      482.6       26.2        118       1734   17747.83     394.88       1.70    4103.23 
   5461.00       3.57      480.7       29.2        119       1733   17457.28     394.88       1.77    4103.27 
   5461.50       3.21      482.8       27.1        119       1730   17261.20     394.91       1.76    4103.31 
   5462.00       3.28      483.7       26.2        119       1727   17166.53     394.95       1.74    4103.35 
   5462.50       3.56      483.6       26.3        118       1725   17602.75     394.93       1.72    4103.38 
   5463.00       3.11      483.1       26.8        117       1723   18214.95     394.96       1.76    4103.42 
