~VERSION INFORMATION
VERS.    2.0:   CWLS LOG ASCII STANDARD - VERSION 2.0
WRAP.     NO:   ONE LINE PER STEP
~WELL INFORMATION BLOCK
#MNEM.UNIT      DATA                  DESCRIPTION OF MNEMONIC
#----   --------             ---------------
STRT.m  259.50                   :START DEPTH
STOP.m  5463.00                   :STOP DEPTH
STEP.m  0.50                   :STEP VALUE
NULL.   0                   :NULL VALUE
COMP.   SHELL                   :COMPANY NAME
WELL.   PRELUDE P4                   :WELL NAME
FLD .   PRELUDE                   :FIELD NAME
LOC .                      :LOCATION
PROV.                      :PROVINCE
SRVC.   Geoservices                   :SERVICE COMPANY NAME
DATE.   10-14-2015 04:29:56                   :DATE
UWI .                      :UNIQUE WELL IDENTIFIER
~CURVE INFORMATION
#MNEM.UNIT       API CODE        CURVE DESCRIPTION
#----   -------- ------------------
Tot Depth .m        :Tot Depth
ROP m/hr .m/h        :ROP m/hr
WOH .klbs        :WOH
WOB .klbs        :WOB
RPM .rpm        :RPM
SPP .psi        :SPP
TORQUE .lb*ft        :TORQUE
FLWpmps .gpm        :FLWpmps
D Exp .....        :D Exp
TVD Depth .m        :TVD Depth
#
#-----------------------------------------------------------
# Tot Depth (m)   ROP m/hr (m/h)   WOH (klbs)   WOB (klbs)   RPM (rpm)   SPP (psi)   TORQUE (lb*ft)   FLWpmps (gpm)   D Exp (....)   TVD Depth (m)
#-----------------------------------------------------------
~A
# ...
   4749.00       5.39      472.8        9.1        106       1584   13587.31     363.92       1.20    4033.71 
   4749.50       4.37      471.3       10.5        106       1584   13462.65     363.88       1.29    4033.81 
   4750.00       4.63      465.2       16.5        106       1588   13037.81     363.80       1.43    4033.91 
   4750.50       1.88      463.3       18.4        107       1596   12659.35     363.63       1.69    4034.01 
   4751.00       1.55      464.3       17.4        104       1604   12366.19     363.23       1.71    4034.11 
   4751.50       1.93      459.9       21.8        105       1610   13052.89     362.97       1.76    4034.20 
   4752.00       4.11      461.1       20.6        122       1620   13830.61     362.62       1.59    4034.30 
   4752.50       4.11      461.1       20.1        122       1620   13856.00     365.00       1.58          0 
   4753.00       4.29      456.7       20.1        123       1615   13304.92     362.71       1.67    4034.49 
   4753.50       3.65      455.5       20.3        123       1610   13661.45     362.88       1.73    4034.59 
   4754.00       3.84      454.6       19.8        123       1605   13651.23     362.98       1.74    4034.69 
   4754.50       5.98      454.3       19.6        123       1614   13604.92     365.47       1.62    4034.78 
   4755.00       2.97      460.2       19.4        123       1575   13299.52     359.44       1.69    4034.88 
   4755.50       3.62      462.4       20.1        123       1620   13372.13     367.64       1.59    4034.97 
   4756.00       5.47      462.0       10.5        123       1604   12727.45     348.42       1.26    4036.93 
   4756.50       8.28      468.8       10.2        125       1626   13796.42     350.78       1.19    4037.06 
   4757.00      11.71      466.5       11.9        126       1604   14107.66     351.21       1.52    4037.16 
   4757.50       3.13      466.4       10.3        126       1568   14652.91     352.18       1.40    4037.28 
   4758.00       5.47      466.7        9.9        125       1539   15580.11     353.09       1.27    4037.39 
   4758.50       4.44      466.4       10.3        125       1524   15601.38     353.60       1.32    4037.51 
   4759.00       3.71      467.1        9.5        126       1503   14732.10     352.50       1.34    4037.62 
   4759.50       3.70      466.6       10.1        125       1523   14634.91     355.32       1.35    4037.74 
   4760.00       5.26      465.2       11.4        127       1524   14388.51     355.42       1.32    4037.85 
   4760.50       4.32      463.6       13.1        126       1525   14865.25     355.41       1.41    4037.97 
   4761.00       4.32      463.6       13.1        126       1525   14865.25     355.41       1.41    4037.97 
   4761.50       1.58      463.2       19.7        126       1525   14562.00     355.00       1.39    4038.20 
   4762.00       7.22      459.9       19.4        125       1534   16425.23     355.11       1.40    4038.32 
   4762.50      15.71      461.1       18.2        125       1541   16408.81     354.92       1.17    4038.42 
   4763.00       6.96      461.6       17.7        125       1545   15602.52     354.79       1.35    4038.54 
   4763.50       6.42      461.1       18.2        125       1547   15345.68     354.71       1.38    4038.64 
   4764.00       7.11      463.2       16.1        125       1552   14959.96     354.62       1.31    4038.76 
   4764.50       6.51      463.3       16.0        125       1557   15134.30     354.41       1.33    4038.87 
   4765.00       8.05      463.9       15.4        125       1562   15212.97     354.32       1.27    4038.98 
   4765.50       7.17      465.3       14.0        125       1568   15070.15     354.19       1.26    4039.10 
   4766.00       7.43      461.4       17.9        125       1515   14657.64     343.14       1.34    4039.20 
   4766.50       7.82      456.9       18.5        125       1468   15058.37     339.81       1.41    4039.32 
   4767.00      10.81      465.0       14.3        125       1589   15153.74     354.05       1.18    4039.42 
   4767.50       7.01      465.1       14.2        125       1596   14646.99     353.81       1.27    4039.55 
   4768.00       8.49      464.8       14.4        124       1601   15110.78     353.58       1.23    4039.64 
   4768.50       9.64      461.2       18.1        125       1547   15759.82     342.64       1.28    4039.75 
   4769.00       7.51      459.7       19.6        126       1522   15416.81     339.94       1.37    4039.87 
   4769.50       7.63      466.3       13.0        126       1606   15408.65     353.06       1.23    4039.98 
   4770.00       5.87      464.0       15.3        125       1604   15495.29     353.07       1.34    4040.08 
   4770.50       6.44      469.2       10.1        122       1583   15036.79     354.80       1.18    4040.19 
   4771.00       6.96      468.1       11.2        122       1575   15248.90     354.95       1.19    4040.30 
   4771.50       6.44      467.1       12.2        122       1571   15278.12     355.06       1.24    4040.41 
   4772.00       8.19      467.0       12.3        122       1567   15426.49     355.16       1.19    4040.52 
   4772.50       7.58      466.6       12.7        122       1558   15581.63     355.39       1.21    4040.63 
   4773.00       7.14      466.7       12.6        122       1554   15855.68     355.50       1.22    4040.73 
   4773.50       8.05      467.0       12.3        121       1551   16039.73     355.61       1.19    4040.84 
   4774.00       9.16      466.7       12.6        122       1548   16228.44     355.67       1.17    4040.95 
   4774.50       9.33      466.9       12.4        123       1548   16246.69     355.63       1.17    4041.06 
   4775.00      11.90      467.7       11.6        124       1552   15966.70     355.56       1.10    4041.16 
   4775.50      10.54      468.8       10.5        124       1548   15614.07     355.53       1.09    4041.27 
   4776.00      10.22      469.0       10.3        123       1551   14967.81     355.50       1.10    4041.37 
   4776.50       9.65      469.4       11.4        124       1550   15265.18     355.48       1.13    4041.48 
   4777.00      11.77      469.6       15.1        124       1549   15392.54     355.52       1.17    4041.59 
   4777.50      11.54      469.7       14.9        124       1550   15447.88     355.54       0.93    4041.70 
   4778.00       7.57      469.9       14.7        123       1545   15029.84     355.58       1.26    4041.80 
   4778.50       6.28      469.9       14.7        122       1543   15158.22     355.65       1.30    4041.90 
   4779.00      11.57      468.4       16.3        122       1541   15413.37     355.70       1.37    4042.00 
   4779.50       7.65      467.9       16.8        123       1543   16117.46     355.64       1.30    4042.11 
   4780.00       7.25      467.9       16.8        122       1545   15700.68     355.70       1.31    4042.21 
   4780.50       6.70      466.7       18.0        121       1544   15789.54     355.66       1.36    4042.32 
   4781.00       6.59      467.2       17.5        121       1548   15345.70     355.59       1.35    4042.42 
   4781.50       5.03      468.4       16.4        123       1551   15088.80     355.38       1.39    4042.52 
   4782.00      10.28      468.6       16.1        123       1555   15417.97     355.30       1.22    4042.63 
   4782.50      11.39      468.9       15.7        124       1561   15004.53     355.12       1.19    4042.73 
   4783.00       4.21      468.3       16.3        124       1565   14223.95     354.90       1.43    4042.84 
   4783.50       5.25      467.2       17.4        123       1568   15142.87     354.78       1.40    4042.94 
   4784.00       7.35      468.4       16.3        123       1575   15826.92     354.61       1.30    4043.03 
   4784.50       8.07      468.6       16.0        124       1580   14507.69     354.45       1.28    4043.14 
   4785.00       5.24      467.5       17.1        125       1585   14129.04     354.30       1.40    4043.24 
