~VERSION INFORMATION
VERS.    2.0:   CWLS LOG ASCII STANDARD - VERSION 2.0
WRAP.     NO:   ONE LINE PER STEP
~WELL INFORMATION BLOCK
#MNEM.UNIT      DATA                  DESCRIPTION OF MNEMONIC
#----   --------             ---------------
STRT.m  259.50                   :START DEPTH
STOP.m  5463.00                   :STOP DEPTH
STEP.m  0.50                   :STEP VALUE
NULL.   0                   :NULL VALUE
COMP.   SHELL                   :COMPANY NAME
WELL.   PRELUDE P4                   :WELL NAME
FLD .   PRELUDE                   :FIELD NAME
LOC .                      :LOCATION
PROV.                      :PROVINCE
SRVC.   Geoservices                   :SERVICE COMPANY NAME
DATE.   10-14-2015 04:29:56                   :DATE
UWI .                      :UNIQUE WELL IDENTIFIER
~CURVE INFORMATION
#MNEM.UNIT       API CODE        CURVE DESCRIPTION
#----   -------- ------------------
Tot Depth .m        :Tot Depth
ROP m/hr .m/h        :ROP m/hr
WOH .klbs        :WOH
WOB .klbs        :WOB
RPM .rpm        :RPM
SPP .psi        :SPP
TORQUE .lb*ft        :TORQUE
FLWpmps .gpm        :FLWpmps
D Exp .....        :D Exp
TVD Depth .m        :TVD Depth
#
#-----------------------------------------------------------
# Tot Depth (m)   ROP m/hr (m/h)   WOH (klbs)   WOB (klbs)   RPM (rpm)   SPP (psi)   TORQUE (lb*ft)   FLWpmps (gpm)   D Exp (....)   TVD Depth (m)
#-----------------------------------------------------------
~A
# ...
   3033.50      33.64      405.9       25.2        149       3682   13757.40    1086.49       0.97    2926.51 
   3034.00      54.16      405.1       26.0        149       3680   13953.69    1086.44       0.87    2926.96 
   3034.50      47.33      405.3       25.7        146       3679   14658.24    1086.38       0.90    2927.36 
   3035.00      33.21      405.3       25.1        148       3683   13987.80    1086.43       0.98    2927.68 
   3035.50      45.57      404.2       24.0        148       3687   14499.96    1086.30       0.89    2928.06 
   3036.00      49.26      404.7       23.5        147       3688   14339.17    1086.59       0.87    2928.45 
   3036.50      47.36      405.6       22.5        147       3684   15066.41    1086.32       0.87    2928.85 
   3037.00      32.99      404.8       23.3        146       3690   15001.92    1086.25       0.95    2929.22 
   3037.50      45.56      403.1       25.1        144       3685   15651.80    1086.28       0.90    2929.61 
   3038.00      41.86      403.2       25.0        147       3684   14575.60    1086.33       0.92    2930.03 
   3038.50      37.28      404.6       23.5        148       3691   14424.46    1086.12       0.93    2930.37 
   3039.00      52.44      405.1       23.0        148       3692   14343.83    1086.06       0.85    2930.83 
   3039.50      39.14      403.7       24.5        147       3695   14512.33    1086.26       0.93    2931.16 
   3040.00      51.40      403.6       24.5        149       3691   14248.93    1086.17       0.87    2931.53 
   3040.50      43.68      403.3       24.9        149       3689   13800.50    1085.94       0.91    2931.95 
   3041.00      40.52      403.6       24.6        150       3680   13566.66    1085.06       0.93    2932.41 
   3041.50      39.03      404.4       23.8        151       3683   12872.26    1085.27       0.93    2932.75 
   3042.00      38.25      402.6       25.6        149       3690   13814.86    1085.26       0.95    2933.08 
   3042.50      42.36      403.5       24.7        150       3683   13531.31    1085.24       0.92    2933.47 
   3043.00      43.39      403.0       25.2        150       3694   13424.86    1085.29       0.92    2933.85 
   3043.50      42.93      402.6       25.6        150       3687   13616.48    1085.50       0.92    2934.26 
   3044.00      39.58      403.9       24.3        150       3688   13249.01    1085.51       0.93    2934.65 
   3044.50      44.18      403.6       24.5        148       3694   14031.03    1085.49       0.90    2935.09 
   3045.00      36.43      403.3       24.9        144       3695   15681.93    1085.49       0.95    2935.42 
   3045.50      24.15      404.0       24.1        150       3696   13587.33    1085.66       1.04    2935.78 
   3046.00      36.45      405.1       23.1        152       3698   12686.39    1085.76       0.94    2936.17 
   3046.50      43.25      405.7       22.5        154       3696   11938.83    1085.99       0.90    2936.62 
   3047.00      34.83      405.6       22.6        151       3695   12659.75    1085.96       0.94    2936.95 
   3047.50      17.56      409.0       19.9        152       3721    8608.21    1087.65       1.06    2937.33 
   3048.00      24.95      417.1       13.0        143       3750    8204.82    1090.46       0.88    2937.72 
   3048.50      35.71      416.3       13.8        147       3751   10093.96    1090.60       0.82    2938.11 
   3049.00      29.52      414.9       15.1        145       3745   11386.45    1090.65       0.88    2938.50 
   3049.50      29.49      414.6       15.4        154       3743   11327.36    1090.66       0.89    2938.90 
   3050.00      32.91      415.3       14.8        154       3745   11056.41    1090.70       0.86    2939.26 
   3050.50      36.40      415.0       15.1        153       3745   11542.45    1090.77       0.84    2939.66 
   3051.00      35.12      414.5       15.6        152       3735   12359.74    1090.91       0.86    2940.07 
   3051.50      32.40      414.8       15.3        153       3738   11904.17    1090.99       0.87    2940.44 
   3052.00      26.19      414.6       15.5        154       3739   11559.88    1090.99       0.92    2940.83 
   3052.50      24.13      415.6       14.5        154       3741   11229.57    1090.99       0.92    2941.20 
   3053.00      25.64      414.3       15.8        151       3736   12591.56    1091.08       0.92    2941.58 
   3053.50      30.57      415.5       14.6        153       3731   11537.41    1091.19       0.87    2942.03 
   3054.00      47.10      414.6       15.4        151       3742   12521.86    1090.97       0.80    2942.44 
   3054.50      24.07      414.7       15.3        155       3739   11310.64    1091.21       0.93    2942.75 
   3055.00      30.07      414.8       15.2        154       3738   11567.56    1091.22       0.89    2943.16 
   3055.50      36.40      415.4       14.6        156       3735   10536.18    1091.36       0.84    2943.57 
   3056.00      27.93      415.0       16.1        154       3734   11442.47    1091.36       0.91    2943.92 
   3056.50      37.93      414.6       20.5        154       3731   11459.26    1091.25       0.90    2944.32 
   3057.00      40.50      415.0       20.2        153       3733   11724.19    1091.22       0.88    2944.70 
   3057.50      49.27      414.2       21.0        150       3736   13034.32    1091.27       0.85    2945.06 
   3058.00      36.43      413.7       21.4        150       3737   12814.70    1091.30       0.92    2945.52 
   3058.50      37.30      413.2       22.0        147       3738   14520.27    1091.24       0.91    2945.85 
   3059.00      51.38      412.9       22.3        147       3736   14382.22    1091.26       0.85    2946.28 
   3059.50      40.09      412.9       22.2        148       3734   15378.18    1091.24       0.90    2946.62 
   3060.00      43.37      413.4       21.7        155       3733   13936.25    1091.33       0.89    2947.00 
   3060.50      50.94      413.1       22.1        154       3733   14274.78    1091.22       0.86    2947.38 
   3061.00      51.61      413.2       21.9        154       3731   14104.19    1091.33       0.85    2947.78 
   3061.50      45.75      412.9       22.2        152       3732   14673.63    1091.29       0.88    2948.20 
   3062.00      38.09      412.5       22.6        152       3732   14770.03    1091.34       0.92    2948.55 
   3062.50      43.56      412.5       22.6        151       3732   15382.96    1091.29       0.89    2948.93 
   3063.00      43.37      412.4       22.7        152       3729   14845.26    1091.32       0.90    2949.32 
   3063.50      46.60      412.7       22.5        153       3731   14196.89    1091.32       0.88    2949.75 
   3064.00      44.60      413.0       22.1        153       3729   14421.03    1091.34       0.89    2950.13 
   3064.50      39.29      413.5       21.6        154       3733   14252.85    1091.31       0.91    2950.55 
   3065.00      45.54      413.2       21.9        152       3728   14720.54    1091.34       0.88    2950.90 
   3065.50      39.65      413.0       22.2        154       3732   14352.93    1091.41       0.91    2951.28 
   3066.00      35.69      413.5       21.7        157       3731   14136.75    1091.46       0.93    2951.64 
   3066.50      44.43      413.8       21.3        157       3726   13634.20    1091.62       0.88    2952.03 
   3067.00      40.37      413.1       22.0        155       3733   14502.95    1091.41       0.91    2952.43 
   3067.50      54.61      413.6       21.6        157       3734   14070.17    1091.44       0.84    2952.82 
   3068.00      36.45      413.5       21.6        155       3732   14485.42    1091.38       0.93    2953.22 
   3068.50      47.36      413.9       21.2        157       3735   14050.76    1091.28       0.87    2953.72 
   3069.00      37.41      413.9       21.2        157       3736   13572.23    1091.34       0.92    2954.02 
   3069.50      42.81      414.0       21.1        158       3735   13907.88    1091.32       0.89    2954.38 
