~VERSION INFORMATION
VERS.    2.0:   CWLS LOG ASCII STANDARD - VERSION 2.0
WRAP.     NO:   ONE LINE PER STEP
~WELL INFORMATION BLOCK
#MNEM.UNIT      DATA                  DESCRIPTION OF MNEMONIC
#----   --------             ---------------
STRT.m  259.50                   :START DEPTH
STOP.m  5463.00                   :STOP DEPTH
STEP.m  0.50                   :STEP VALUE
NULL.   0                   :NULL VALUE
COMP.   SHELL                   :COMPANY NAME
WELL.   PRELUDE P4                   :WELL NAME
FLD .   PRELUDE                   :FIELD NAME
LOC .                      :LOCATION
PROV.                      :PROVINCE
SRVC.   Geoservices                   :SERVICE COMPANY NAME
DATE.   10-14-2015 04:29:56                   :DATE
UWI .                      :UNIQUE WELL IDENTIFIER
~CURVE INFORMATION
#MNEM.UNIT       API CODE        CURVE DESCRIPTION
#----   -------- ------------------
Tot Depth .m        :Tot Depth
ROP m/hr .m/h        :ROP m/hr
WOH .klbs        :WOH
WOB .klbs        :WOB
RPM .rpm        :RPM
SPP .psi        :SPP
TORQUE .lb*ft        :TORQUE
FLWpmps .gpm        :FLWpmps
D Exp .....        :D Exp
TVD Depth .m        :TVD Depth
#
#-----------------------------------------------------------
# Tot Depth (m)   ROP m/hr (m/h)   WOH (klbs)   WOB (klbs)   RPM (rpm)   SPP (psi)   TORQUE (lb*ft)   FLWpmps (gpm)   D Exp (....)   TVD Depth (m)
#-----------------------------------------------------------
~A
# ...
   1281.50      34.35      354.9        9.2        172       2081    3918.33    1126.97       0.36    1281.47 
   1282.00      37.20      355.2        9.1        173       2062    2946.94    1131.57       0.35    1281.97 
   1282.50      36.52      355.4        8.9        172       2041    2579.36    1125.16       0.35    1282.47 
   1283.00      34.35      355.4        8.9        173       2028    2884.64    1125.01       0.36    1282.97 
   1283.50      32.44      355.2        9.1        174       2022    2418.93    1126.20       0.00    1283.47 
   1284.00      20.12      355.3        9.0        173       2024    2358.50    1125.25       0.45    1283.97 
   1284.50      38.77      354.6        9.7        173       2025    2584.85    1125.24       0.34    1284.47 
   1285.00      35.10      354.8        9.6        172       2019    2927.95    1125.09       0.36    1284.97 
   1285.50      40.69      354.7        9.7        171       2022    3864.81    1124.64       0.33    1285.47 
   1286.00      36.45      354.7        9.6        173       2021    2656.77    1125.28       0.35    1285.97 
   1286.50      38.00      354.9        9.4        173       2019    2486.00    1124.65       0.34    1286.47 
   1287.00      37.20      355.3        9.0        174       2020    1995.61    1125.42       0.34    1286.97 
   1287.50      35.10      355.6        8.7        174       2016    1929.77    1125.44       0.35    1287.47 
   1288.00      38.88      355.6        8.8        174       2019    2044.20    1124.88       0.34    1287.97 
   1288.50      37.21      355.9        8.4        174       2012    2037.73    1125.32       0.34    1288.47 
   1289.00      36.45      355.9        8.4        173       2015    2270.82    1125.37       0.34    1288.97 
   1289.50      39.76      356.0        8.4        174       2011    2124.10    1125.41       0.33    1289.47 
   1290.00      36.44      356.1        8.2        173       2018    2279.60    1125.33       0.34    1289.97 
   1290.50      37.97      356.0        8.3        173       2010    2635.36    1124.47       0.33    1290.47 
   1291.00      37.16      356.0        8.3        172       2006    2966.04    1121.73       0.34    1290.97 
   1291.50      35.02      356.2        8.1        174       1998    1669.01    1123.97       0.35    1291.47 
   1292.00      33.86      356.0        8.3        174       2004    1599.88    1124.87       0.09    1291.97 
   1292.50      35.28      356.0        8.6        174       2004    1744.00    1124.87       0.09    1292.47 
   1293.00      39.97      356.0        8.4        174       2011    1895.33    1126.25       0.33    1292.97 
   1293.50      35.07      356.3        8.0        173       2011    2589.30    1127.00       0.35    1293.47 
   1294.00      37.97      356.2        8.1        171       2029    4396.42    1127.21       0.33    1293.97 
   1294.50      33.70      356.0        8.3        174       2020    1854.98    1129.52       0.36    1294.47 
   1295.00      37.19      355.9        8.4        174       2020    1909.35    1128.17       0.34    1294.97 
   1295.50      38.73      355.8        8.5        174       2010    2207.56    1127.60       0.33    1295.47 
   1296.00      35.76      355.9        8.4        173       2014    2412.19    1125.98       0.35    1295.97 
   1296.50      35.05      355.9        8.5        173       2010    2358.17    1125.35       0.35    1296.47 
   1297.00      36.44      356.0        8.3        174       2001    1924.20    1125.59       0.34    1296.97 
   1297.50      36.45      355.9        8.4        174       1996    2084.08    1125.46       0.34    1297.47 
   1298.00      36.45      355.7        8.6        173       2018    2636.71    1123.74       0.34    1297.97 
   1298.50      35.73      355.9        8.5        173       2021    2569.94    1123.36       0.35    1298.47 
   1299.00      35.05      354.6        9.7        172       2026    2977.01    1122.17       0.36    1298.97 
   1299.50      36.45      354.5        9.8        172       2024    2900.55    1123.00       0.35    1299.47 
   1300.00      37.96      354.9        9.4        173       2019    2649.53    1123.75       0.34    1299.97 
   1300.50      34.39      354.8        9.6        172       2024    2965.80    1123.04       0.36    1300.47 
   1301.00      35.07      354.8        9.6        173       2016    2669.55    1123.75       0.36    1300.97 
   1301.50      38.82      356.0        8.4        172       2028    2782.65    1123.01       0.33    1301.47 
   1302.00      35.74      355.5        8.8        173       2029    2955.04    1123.12       0.35    1301.97 
   1302.50      56.92      355.7        8.7        173       2026    2752.55    1123.70       0.27    1302.47 
   1303.00      33.70      355.7        8.6        173       2028    2740.04    1123.64       0.36    1302.97 
   1303.50      37.96      355.9        8.4        172       2020    2610.82    1123.72       0.33    1303.47 
   1304.00      34.39      355.5        8.8        172       2039    3069.66    1122.42       0.35    1303.97 
   1304.50      33.19      355.5        8.8        173       2022    2516.20    1124.22       0.36    1304.47 
   1305.00      35.74      355.2        9.1        172       2032    2830.58    1123.28       0.35    1304.97 
   1305.50      35.02      354.8        9.5        172       2026    2916.40    1123.55       0.35    1305.47 
   1306.00      35.05      354.8        9.5        172       2031    3135.28    1123.02       0.35    1305.97 
   1306.50      34.46      355.2        9.1        173       2032    2591.80    1123.40       0.35    1306.47 
   1307.00      30.79      353.7        5.7        173       2028    2412.07    1124.53       0.34    1306.97 
   1307.50      28.93      353.5        5.9        174       2026    2305.17    1124.58       0.36    1307.47 
   1308.00      24.31      353.2        7.7        171       2016    1819.28    1124.28       0.40    1307.97 
   1308.50      35.01      353.7        8.3        169       2012    1950.58    1123.79       0.34    1308.47 
   1309.00      35.02      353.6        8.5        168       2016    2172.69    1123.71       0.34    1308.97 
   1309.50      36.45      353.8        8.3        168       2028    2322.05    1123.36       0.33    1309.47 
   1310.00      31.97      353.8        8.3        168       2029    2204.99    1123.91       0.36    1309.97 
   1310.50      35.10      353.8        8.3        168       2025    2033.74    1124.86       0.34    1310.47 
   1311.00      35.02      353.8        8.3        168       2033    2388.17    1125.08       0.34    1310.97 
   1311.50      33.80      353.9        8.2        168       2028    2362.85    1125.45       0.35    1311.47 
   1312.00      34.99      353.8        8.3        168       2032    2473.59    1125.26       0.34    1311.97 
   1312.50      33.79      353.8        8.2        168       2026    2240.50    1126.42       0.35    1312.47 
   1313.00      37.18      354.1        8.0        169       2024    1937.75    1126.81       0.33    1312.97 
   1313.50      34.31      353.9        8.1        169       2017    1883.86    1127.57       0.34    1313.47 
   1314.00      35.07      354.2        7.9        169       2025    2022.38    1126.90       0.34    1313.97 
   1314.50      35.71      354.3        7.8        169       2010    1732.13    1127.61       0.34    1314.47 
   1315.00      33.80      354.2        7.8        169       2016    2053.63    1126.74       0.34    1314.97 
   1315.50      34.35      354.1        8.0        169       2024    2086.13    1125.80       0.34    1315.47 
   1316.00      33.70      353.9        8.2        168       2034    2588.84    1124.31       0.34    1315.97 
   1316.50      37.19      354.4        7.7        167       2027    2696.10    1125.30       0.32    1316.47 
   1317.00      35.05      353.7        8.4        168       2025    2594.28    1125.63       0.34    1316.97 
   1317.50      34.39      352.5        9.6        168       2028    2711.14    1125.21       0.35    1317.47 
