~VERSION INFORMATION
VERS.    2.0:   CWLS LOG ASCII STANDARD - VERSION 2.0
WRAP.     NO:   ONE LINE PER STEP
~WELL INFORMATION BLOCK
#MNEM.UNIT      DATA                  DESCRIPTION OF MNEMONIC
#----   --------             ---------------
STRT.m  259.50                   :START DEPTH
STOP.m  5463.00                   :STOP DEPTH
STEP.m  0.50                   :STEP VALUE
NULL.   0                   :NULL VALUE
COMP.   SHELL                   :COMPANY NAME
WELL.   PRELUDE P4                   :WELL NAME
FLD .   PRELUDE                   :FIELD NAME
LOC .                      :LOCATION
PROV.                      :PROVINCE
SRVC.   Geoservices                   :SERVICE COMPANY NAME
DATE.   10-14-2015 04:29:56                   :DATE
UWI .                      :UNIQUE WELL IDENTIFIER
~CURVE INFORMATION
#MNEM.UNIT       API CODE        CURVE DESCRIPTION
#----   -------- ------------------
Tot Depth .m        :Tot Depth
ROP m/hr .m/h        :ROP m/hr
WOH .klbs        :WOH
WOB .klbs        :WOB
RPM .rpm        :RPM
SPP .psi        :SPP
TORQUE .lb*ft        :TORQUE
FLWpmps .gpm        :FLWpmps
D Exp .....        :D Exp
TVD Depth .m        :TVD Depth
#
#-----------------------------------------------------------
# Tot Depth (m)   ROP m/hr (m/h)   WOH (klbs)   WOB (klbs)   RPM (rpm)   SPP (psi)   TORQUE (lb*ft)   FLWpmps (gpm)   D Exp (....)   TVD Depth (m)
#-----------------------------------------------------------
~A
# ...
    953.00      48.54      315.8        6.3        175       2118    5252.42    1158.38       0.33     952.98 
    953.50      52.47      316.0        6.1        176       2123    5280.64    1157.43       0.31     953.48 
    954.00      41.62      316.5        5.6        176       2116    4964.98    1157.39       0.34     953.98 
    954.50      34.35      315.8        6.3        174       2134    5681.57    1154.82       0.38     954.48 
    955.00      60.29      316.0        6.1        174       2137    5962.38    1152.51       0.29     954.98 
    955.50      66.09      316.8        5.3        177       2083    4393.10    1157.52       0.27     955.48 
    956.00      71.52      316.5        5.6        177       2071    3847.27    1160.29       0.26     955.98 
    956.50      65.81      316.1        6.0        176       2084    4593.68    1158.94       0.28     956.48 
    957.00      50.97      315.9        6.2        179       2057    3544.51    1160.72       0.32     956.98 
    957.50      65.02      315.8        6.4        177       2065    3767.42    1156.86       0.28     957.48 
    958.00      46.95      315.8        6.4        178       2016    3227.39    1150.82       0.33     957.98 
    958.50      41.49      315.4        6.7        176       2035    3713.97    1147.98       0.35     958.48 
    959.00      29.84      314.1        8.1        174       2091    4971.29    1143.58       0.42     958.98 
    959.50      35.06      312.9        9.3        172       2145    6274.33    1141.11       0.40     959.48 
    960.00      31.47      312.7        9.4        173       2154    6010.23    1142.52       0.42     959.98 
    960.50      46.53      312.7        9.4        173       2149    6090.71    1143.16       0.35     960.48 
    961.00      42.89      312.1       10.0        172       2187    6510.14    1143.32       0.37     960.98 
    961.50      48.55      312.4        9.7        173       2209    6157.40    1150.84       0.35     961.48 
    962.00      55.17      312.2        9.9        172       2207    6433.66    1150.24       0.33     961.98 
    962.50      62.29      313.9        8.2        174       2195    6365.58    1152.32       0.30     962.48 
    963.00      61.24      315.1        7.0        175       2163    5504.50    1155.52       0.29     962.98 
    963.50      46.68      314.8        7.4        175       2166    5475.68    1155.73       0.34     963.48 
    964.00      47.54      314.9        7.2        175       2143    5592.89    1156.02       0.33     963.98 
    964.50      18.58      322.8        3.1        176       2038    2976.22    1151.68       0.42     964.48 
    965.00       8.50      329.3        1.0        175       2020    2014.77    1157.28       0.45     964.98 
    965.50      13.18      333.7        0.9        175       2062    2745.72    1159.10       0.39     965.48 
    966.00      29.27      332.0        0.8        175       2060    2778.33    1159.98       0.30     965.98 
    966.50      35.71      331.5        0.9        174       2076    3033.84    1160.11       0.28     966.48 
    967.00      33.11      331.6        0.8        174       2078    3096.14    1160.64       0.28     966.98 
    967.50      33.82      331.8        0.9        174       2062    3556.69    1156.61       0.28     967.48 
    968.00      34.51      332.1        0.8        177       2032    2777.80    1158.60       0.28     967.98 
    968.50      27.02      332.0        0.8        177       2044    2877.64    1157.38       0.31     968.48 
    969.00      34.29      331.8        0.7        176       2048    3401.88    1157.00       0.27     968.98 
    969.50      32.72      331.6        0.4        177       2049    3062.02    1157.87       0.26     969.48 
    970.00      35.68      331.6        1.3        177       2057    3228.93    1158.59       0.29     969.98 
    970.50      32.58      331.8        0.9        177       2073    3390.63    1163.05       0.29     970.48 
    971.00      33.73      331.6        1.1        177       2094    3544.90    1167.54       0.29     970.98 
    971.50      34.44      330.8        1.9        176       2116    3886.36    1165.78       0.31     971.48 
    972.00      28.06      331.1        1.6        177       2103    3715.71    1167.15       0.33     971.98 
    972.50      30.90      331.2        1.5        176       2088    3547.60    1161.16       0.32     972.48 
    973.00      28.75      330.8        1.9        175       2091    4162.19    1156.82       0.34     972.98 
    973.50      29.26      329.7        3.0        174       2117    4762.39    1155.81       0.35     973.48 
    974.00      31.04      329.1        3.6        176       2103    3843.22    1163.64       0.36     973.98 
    974.50      39.11      328.8        3.9        175       2117    4522.07    1162.86       0.33     974.48 
    975.00      20.51      328.0        4.7        174       2148    5178.57    1160.10       0.43     974.98 
    975.50      56.75      328.9        3.8        175       2133    4530.88    1159.56       0.27     975.48 
    976.00      40.65      329.1        3.6        175       2117    4323.05    1162.18       0.32     975.98 
    976.50      39.45      329.5        3.2        176       2095    3540.65    1164.71       0.32     976.48 
    977.00      34.28      329.4        3.4        177       2105    3700.07    1163.01       0.34     976.98 
    977.50      36.42      329.5        3.2        176       2115    3942.94    1161.58       0.33     977.48 
    978.00      27.09      329.4        3.4        175       2119    3675.66    1163.48       0.37     977.98 
    978.50      37.78      329.4        3.3        175       2148    4513.33    1161.41       0.32     978.48 
    979.00      43.70      328.9        3.8        175       2121    4365.92    1163.88       0.31     978.98 
    979.50      37.20      329.8        3.0        176       2116    4046.08    1164.20       0.32     979.48 
    980.00      33.05      330.2        2.6        176       2105    3489.81    1165.64       0.33     979.98 
    980.50      37.96      329.6        3.1        176       2104    3728.67    1161.39       0.32     980.48 
    981.00      35.10      329.7        3.0        176       2103    3633.36    1160.03       0.33     980.98 
    981.50      35.66      329.6        3.1        175       2110    3784.64    1160.40       0.33     981.48 
    982.00      38.74      329.4        3.3        175       2127    4578.61    1158.75       0.32     981.98 
    982.50      44.34      329.9        2.8        175       2115    3979.12    1160.55       0.29     982.48 
    983.00      29.63      329.7        3.0        175       2123    4175.46    1162.70       0.35     982.98 
    983.50      33.73      329.7        3.0        176       2145    4382.10    1164.19       0.33     983.48 
    984.00      35.67      330.2        2.5        176       2126    3808.00    1165.23       0.32     983.98 
    984.50      31.79      329.7        3.0        176       2132    3801.75    1165.56       0.34     984.48 
    985.00      35.02      329.7        3.0        175       2132    4234.43    1163.22       0.33     984.98 
    985.50      35.72      329.9        2.8        175       2106    3990.65    1158.97       0.32     985.48 
    986.00      29.70      329.5        3.2        174       2125    4511.36    1157.84       0.35     985.98 
    986.50      32.18      329.1        3.6        173       2144    4970.23    1153.09       0.35     986.48 
    987.00      29.40      329.0        3.7        173       2149    4873.98    1152.51       0.36     986.98 
    987.50      31.40      329.0        3.2        173       2155    4654.00    1152.99       0.36     987.48 
    988.00      35.73      329.1        3.6        172       2163    5081.98    1153.94       0.33     987.98 
    988.50      36.42      329.1        3.7        173       2157    4803.40    1156.53       0.33     988.48 
    989.00      53.73      330.1        2.6        176       2148    4357.37    1161.12       0.26     988.98 
