~VERSION INFORMATION
VERS.    2.0:   CWLS LOG ASCII STANDARD - VERSION 2.0
WRAP.     NO:   ONE LINE PER STEP
~WELL INFORMATION BLOCK
#MNEM.UNIT      DATA                  DESCRIPTION OF MNEMONIC
#----   --------             ---------------
STRT.m  259.50                   :START DEPTH
STOP.m  5463.00                   :STOP DEPTH
STEP.m  0.50                   :STEP VALUE
NULL.   0                   :NULL VALUE
COMP.   SHELL                   :COMPANY NAME
WELL.   PRELUDE P4                   :WELL NAME
FLD .   PRELUDE                   :FIELD NAME
LOC .                      :LOCATION
PROV.                      :PROVINCE
SRVC.   Geoservices                   :SERVICE COMPANY NAME
DATE.   10-14-2015 04:29:56                   :DATE
UWI .                      :UNIQUE WELL IDENTIFIER
~CURVE INFORMATION
#MNEM.UNIT       API CODE        CURVE DESCRIPTION
#----   -------- ------------------
Tot Depth .m        :Tot Depth
ROP m/hr .m/h        :ROP m/hr
WOH .klbs        :WOH
WOB .klbs        :WOB
RPM .rpm        :RPM
SPP .psi        :SPP
TORQUE .lb*ft        :TORQUE
FLWpmps .gpm        :FLWpmps
D Exp .....        :D Exp
TVD Depth .m        :TVD Depth
#
#-----------------------------------------------------------
# Tot Depth (m)   ROP m/hr (m/h)   WOH (klbs)   WOB (klbs)   RPM (rpm)   SPP (psi)   TORQUE (lb*ft)   FLWpmps (gpm)   D Exp (....)   TVD Depth (m)
#-----------------------------------------------------------
~A
# ...
   1646.50      48.59      398.2        2.9        157       1766    2059.16    1007.52       0.58    1646.46 
   1647.00      42.83      398.1        2.9        157       1764    2283.36    1007.22       0.60    1646.96 
   1647.50      51.03      398.4        2.7        157       1767    2662.45    1006.86       0.57    1647.46 
   1648.00      48.92      397.9        3.2        156       1778    2804.72    1007.11       0.59    1647.96 
   1648.50      48.26      397.8        3.2        156       1795    3064.69    1006.01       0.59    1648.46 
   1649.00      43.12      398.6        2.5        155       1792    2770.99    1004.77       0.46    1648.96 
   1649.50      46.97      398.5        2.6        157       1765    2388.91    1007.21       0.58    1649.46 
   1650.00      31.86      398.4        2.7        156       1771    2893.93    1006.84       0.64    1649.96 
   1650.50      43.06      398.0        3.0        156       1789    2900.55    1005.50       0.60    1650.46 
   1651.00      29.62      396.6        4.5        152       1866    4781.85    1000.65       0.70    1650.96 
   1651.50      20.93      395.0        6.1        152       1909    5100.11     996.91       0.80    1651.46 
   1652.00      19.67      397.8        3.2        156       1768    2775.67    1005.55       0.73    1651.96 
   1652.50      45.79      397.8        3.2        154       1799    3927.82    1003.97       0.60    1652.46 
   1653.00      50.31      398.3        2.8        156       1790    3095.79    1004.51       0.57    1652.96 
   1653.50      57.04      398.1        2.9        153       1810    4603.80    1002.69       0.56    1653.46 
   1654.00      44.33      398.0        3.1        153       1818    4396.94    1002.17       0.60    1653.96 
   1654.50      48.92      398.2        2.9        153       1825    4631.63    1001.91       0.58    1654.46 
   1655.00      51.00      397.5        3.5        154       1828    3952.60    1001.11       0.59    1654.96 
   1655.50      28.17      397.1        3.9        157       1746    2204.50    1006.98       0.70    1655.46 
   1656.00      32.47      396.3        4.8        157       1745    2175.24    1007.36       0.70    1655.96 
   1656.50      44.56      396.3        4.8        157       1742    1854.52    1007.37       0.65    1656.46 
   1657.00      24.01      393.6        8.7        156       1731    1656.75    1010.26       0.84    1656.96 
   1657.50      26.43      392.3       11.6        154       1749    2037.91    1011.71       0.86    1657.46 
   1658.00      36.44      393.1       10.7        154       1741    2056.31    1011.97       0.79    1657.96 
   1658.50      38.78      393.5       10.4        152       1764    3052.55    1010.88       0.77    1658.46 
   1659.00      41.99      393.9        9.9        152       1769    3204.38    1010.31       0.75    1658.96 
   1659.50      31.81      395.5        8.4        150       1782    3807.31    1008.44       0.77    1659.46 
   1660.00      67.06      395.9        7.9        152       1775    3235.43    1008.92       0.63    1659.96 
   1660.50      30.58      396.3        7.6        150       1795    4263.53    1007.77       0.76    1660.46 
   1661.00      39.74      396.8        7.0        151       1791    3717.67    1007.20       0.71    1660.96 
   1661.50      36.43      396.9        7.0        151       1785    3929.55    1008.37       0.72    1661.46 
   1662.00      37.96      397.4        6.4        152       1755    3061.22    1010.12       0.70    1661.96 
   1662.50      43.57      398.1        5.8        152       1762    3328.53    1009.82       0.67    1662.46 
   1663.00      31.41      396.2        7.6        149       1824    4672.90    1005.85       0.76    1662.96 
   1663.50      28.17      395.6        8.3        151       1780    3465.27    1006.51       0.79    1663.46 
   1664.00      13.15      396.4        7.4        152       1750    3002.21    1008.74       0.91    1663.96 
   1664.50      71.55      396.6        7.3        149       1821    4671.41    1003.63       0.60    1664.46 
   1665.00      25.93      396.6        7.3        149       1841    4937.47    1002.70       0.78    1664.96 
   1665.50      41.95      396.2        7.6        150       1850    5070.44    1001.94       0.71    1665.46 
   1666.00      32.99      395.8        8.1        149       1863    5629.09    1001.06       0.76    1665.96 
   1666.50      57.09      396.3        7.6        151       1799    4280.60    1005.41       0.66    1666.46 
   1667.00      56.21      396.2        7.7        150       1788    3981.98    1005.82       0.66    1666.96 
   1667.50      30.17      395.6        8.3        150       1806    4501.94    1005.28       0.78    1667.46 
   1668.00      48.57      394.9        9.0        149       1848    5413.55    1002.35       0.70    1667.96 
   1668.50      53.55      395.1        8.8        148       1819    5159.73    1003.97       0.68    1668.46 
   1669.00      45.76      395.1        8.8        149       1837    5402.92    1002.87       0.71    1668.96 
   1669.50      74.14      395.6        8.2        150       1808    4190.56    1004.18       0.62    1669.46 
   1670.00      33.14      397.2        6.6        155       1729    1837.90    1009.63       0.74    1669.96 
   1670.50      46.73      397.3        6.6        155       1708    1492.79    1011.51       0.68    1670.46 
   1671.00      46.47      397.5        6.4        154       1705    1998.24    1011.57       0.67    1670.96 
   1671.50      45.78      397.2        6.7        155       1702    1648.13    1011.54       0.68    1671.46 
   1672.00      48.93      396.7        7.2        155       1707    1460.82    1011.53       0.68    1671.96 
   1672.50      44.44      396.9        7.0        155       1706    1333.14    1011.37       0.69    1672.46 
   1673.00      49.88      396.5        7.4        155       1704    1308.86    1011.53       0.68    1672.96 
   1673.50      46.04      396.4        7.5        155       1701    1332.67    1011.54       0.70    1673.46 
   1674.00      51.03      396.4        7.4        155       1708    1346.56    1011.19       0.68    1673.96 
   1674.50      48.92      395.8        8.1        155       1709    1461.70    1011.33       0.70    1674.46 
   1675.00      50.23      395.7        8.1        155       1705    1342.86    1011.50       0.69    1674.96 
   1675.50      53.61      395.7        8.1        155       1703    1343.34    1011.54       0.68    1675.46 
   1676.00      51.61      395.7        8.2        155       1706    1338.80    1011.60       0.69    1675.96 
   1676.50      55.26      396.3        7.6        155       1708    1302.56    1011.61       0.67    1676.46 
   1677.00      56.81      396.4        7.5        155       1705    1365.93    1011.63       0.66    1676.96 
   1677.50      53.02      396.1        7.8        155       1703    1578.98    1011.64       0.68    1677.46 
   1678.00      51.62      395.3        8.6        152       1749    3300.15    1009.29       0.69    1677.96 
   1678.50      11.61      393.2       10.7        150       1822    4170.07    1003.95       1.00    1678.46 
   1679.00      19.76      393.9        9.9        150       1829    4118.74    1002.80       0.89    1678.96 
   1679.50      33.81      393.4       10.4        148       1876    5848.71    1000.30       0.79    1679.46 
   1680.00      24.95      392.7       11.2        148       1912    5568.81     996.89       0.86    1679.96 
   1680.50      15.62      393.2       10.6        150       1865    4456.59    1000.00       0.95    1680.46 
   1681.00      15.31      393.5       10.3        151       1823    3858.87    1003.02       0.95    1680.96 
   1681.50      12.75      393.8       10.0        152       1775    3212.98    1006.17       0.98    1681.46 
   1682.00      24.28      393.9       10.0        151       1812    3699.64    1000.98       0.85    1681.96 
   1682.50      20.89      394.4        9.4        152       1732    2809.83    1006.48       0.87    1682.46 
