~VERSION INFORMATION
VERS.    2.0:   CWLS LOG ASCII STANDARD - VERSION 2.0
WRAP.     NO:   ONE LINE PER STEP
~WELL INFORMATION BLOCK
#MNEM.UNIT      DATA                  DESCRIPTION OF MNEMONIC
#----   --------             ---------------
STRT.m  259.50                   :START DEPTH
STOP.m  5463.00                   :STOP DEPTH
STEP.m  0.50                   :STEP VALUE
NULL.   0                   :NULL VALUE
COMP.   SHELL                   :COMPANY NAME
WELL.   PRELUDE P4                   :WELL NAME
FLD .   PRELUDE                   :FIELD NAME
LOC .                      :LOCATION
PROV.                      :PROVINCE
SRVC.   Geoservices                   :SERVICE COMPANY NAME
DATE.   10-14-2015 04:29:56                   :DATE
UWI .                      :UNIQUE WELL IDENTIFIER
~CURVE INFORMATION
#MNEM.UNIT       API CODE        CURVE DESCRIPTION
#----   -------- ------------------
Tot Depth .m        :Tot Depth
ROP m/hr .m/h        :ROP m/hr
WOH .klbs        :WOH
WOB .klbs        :WOB
RPM .rpm        :RPM
SPP .psi        :SPP
TORQUE .lb*ft        :TORQUE
FLWpmps .gpm        :FLWpmps
D Exp .....        :D Exp
TVD Depth .m        :TVD Depth
#
#-----------------------------------------------------------
# Tot Depth (m)   ROP m/hr (m/h)   WOH (klbs)   WOB (klbs)   RPM (rpm)   SPP (psi)   TORQUE (lb*ft)   FLWpmps (gpm)   D Exp (....)   TVD Depth (m)
#-----------------------------------------------------------
~A
# ...
   4420.50      17.92      513.6       15.1        144       4201   16451.97    1066.49       0.78    3901.73 
   4421.00      15.29      513.8       14.9        148       4202   15595.72    1066.49       0.80    3902.00 
   4421.50      17.25      508.8       16.5        150       4200   14888.87    1066.42       0.84    3902.27 
   4422.00      21.01      472.2       18.5        147       4203   16041.01    1066.23       0.83    3902.52 
   4422.50      13.39      476.5       12.9        150       4146   14579.58    1054.04       0.80    3902.78 
   4423.00      25.89      473.9       14.6        149       3903   14657.97    1022.50       0.72    3903.05 
   4423.50      18.64      473.6       14.9        146       3865   16392.41    1013.28       0.77    3903.32 
   4424.00       7.34      500.3       14.2        149       4128   15008.78    1057.84       0.69    3903.59 
   4424.50      16.61      510.6       12.5        149       4173   15029.07    1052.62       0.64    3903.85 
   4425.00      14.80      510.0       18.7        150       4168   14847.33     868.24       0.86    3904.09 
   4425.50      16.61      510.6       14.5        150       4170   14831.75    1063.94       0.79    3904.36 
   4426.00      19.04      510.4       14.7        150       4171   14556.99    1063.95       0.77    3904.62 
   4426.50      14.05      510.4       14.7        150       4167   14702.73    1063.98       0.82    3904.88 
   4427.00      15.41      510.1       14.9        151       4169   14688.64    1063.93       0.81    3905.14 
   4427.50      17.53      509.1       15.9        150       4166   14782.15    1063.97       0.80    3905.41 
   4428.00      16.78      513.8       13.7        149       4169   15180.47    1063.94       0.77    3905.66 
   4428.50      15.42      522.8       10.3        150       4170   14942.82    1063.94       0.74    3905.93 
   4429.00      13.87      512.1       20.5        150       4170   14978.65    1062.17       0.89    3906.18 
   4429.50      16.30      509.7       15.1        152       4166   14412.65    1062.11       0.80    3906.45 
   4430.00      18.82      510.6       14.2        152       4169   14205.08    1061.85       0.77    3906.73 
   4430.50      13.37      511.2       13.6        151       4168   14550.98    1062.06       0.81    3906.98 
   4431.00      15.59      510.3       14.5        150       4171   14827.27    1062.02       0.80    3907.22 
   4431.50      16.53      510.7       14.1        151       4166   14755.97    1062.14       0.78    3907.50 
   4432.00      11.99      508.5       16.3        151       4167   14656.64    1062.21       0.86    3907.75 
   4432.50      11.70      504.8       20.0        150       4171   14692.22    1062.26       0.91    3908.00 
   4433.00      13.35      510.1       14.7        151       4169   14641.12    1062.16       0.83    3908.27 
   4433.50      17.75      509.7       16.1        151       4168   14416.50    1062.08       0.80    3908.54 
   4434.00      11.69      509.5       19.7        152       4169   14279.10    1062.02       0.91    3908.79 
   4434.50      18.25      506.7       18.5        151       4173   14789.55    1062.10       0.86    3909.07 
   4435.00      13.05      511.0       18.3        152       4164   14385.72    1062.15       0.87    3909.30 
   4435.50      16.27      509.1       20.1        150       4173   15078.36    1062.16       0.86    3909.56 
   4436.00      15.82      507.2       22.0        148       4171   15572.18    1062.17       0.88    3910.89 
   4436.50      18.17      509.9       19.4        155       4166   15688.54    1062.28       0.83    3911.16 
   4437.00      14.44      511.5       17.8        159       4166   14919.75    1062.30       0.86    3911.43 
   4437.50      12.72      510.7       18.5        159       4168   15023.86    1062.27       0.89    3911.69 
   4438.00      20.39      511.0       18.3        158       4164   15210.75    1062.05       0.81    3912.00 
   4438.50      12.72      511.1       18.1        160       4164   14648.09    1062.16       0.89    3912.23 
   4439.00      19.39      512.2       17.0        159       4164   14602.88    1062.29       0.80    3912.50 
   4439.50      13.57      512.1       17.1        160       4163   14458.36    1062.35       0.86    3912.76 
   4440.00       9.81      510.1       19.2        158       4164   14680.32    1062.37       0.94    3913.03 
   4440.50      13.63      503.7       18.4        157       4148   11783.46    1059.41       0.88    3913.29 
   4441.00      11.81      508.1       15.6        161       4055    9268.02    1041.45       0.75    3913.57 
   4441.50       8.48      518.5       16.5        158       4035   10973.15    1041.80       1.00    3913.86 
   4442.00      10.94      511.1       15.2        154       4042   12657.04    1041.91       1.00    3914.11 
   4442.50      12.80      511.9       17.0        152       4038   13338.59    1041.76       0.86    3914.36 
   4443.00      13.31      512.3       14.0        151       4042   13813.82    1041.71       0.82    3914.62 
   4443.50      13.46      511.3       15.0        149       4041   14600.37    1041.52       0.83    3914.89 
   4444.00      14.73      510.1       16.2        149       4042   14779.22    1041.48       0.83    3915.19 
   4444.50      12.25      510.0       16.3        150       4040   14455.34    1041.55       0.86    3915.45 
   4445.00      14.49      506.7       17.4        151       4040   14241.22    1041.71       0.84    3915.71 
   4445.50       7.13      505.3       16.5        154       3802   12643.56    1002.39       0.78    3915.96 
   4446.00       6.95      510.2       14.2        155       3958   11946.96    1034.10       0.93    3916.25 
   4446.50      12.78      517.5       14.5        151       4034   13542.08    1042.11       0.71    3916.49 
   4447.00      12.19      516.9       10.8        152       4033   13586.69    1042.15       0.78    3916.75 
   4447.50      14.34      515.1       16.1        152       4029   13546.28    1042.22       0.83    3917.01 
   4448.00      13.82      514.6       16.5        150       4045   14187.00    1042.23       0.84    3917.27 
   4448.50      13.82      514.0       17.1        149       4049   14594.87    1042.20       0.85    3917.56 
   4449.00      13.38      514.2       17.0        149       4035   15157.42    1042.11       0.85    3917.82 
   4449.50      14.28      513.8       17.4        151       4033   15197.36    1042.17       0.85    3918.07 
   4450.00      13.45      514.3       16.8        150       4053   15312.42    1042.17       0.85    3918.34 
   4450.50      17.20      514.2       16.9        153       4043   14630.96    1042.11       0.81    3918.60 
   4451.00       9.84      515.3       15.9        155       4045   13445.27    1042.01       0.89    3918.87 
   4451.50      14.76      515.2       15.9        155       4067   13705.50    1041.75       0.83    3919.13 
   4452.00       9.15      514.2       16.9        155       4062   13444.89    1041.67       0.92    3919.40 
   4452.50       9.67      510.8       17.5        149       4054   15561.94    1041.47       0.95    3919.69 
   4453.00      14.38      513.7       17.5        151       4054   14943.01    1041.48       0.85    3919.95 
   4453.50      12.63      513.6       17.6        151       4059   14943.98    1041.58       0.87    3920.18 
   4454.00      14.74      514.6       16.6        153       4064   14302.84    1041.71       0.83    3920.46 
   4454.50      15.41      514.2       16.9        153       4067   14025.00    1041.67       0.83    3920.72 
   4455.00      13.70      514.5       16.7        153       4049   14064.61    1041.83       0.85    3920.98 
   4455.50      10.85      514.3       16.9        154       4056   13841.62    1041.87       0.89    3921.23 
   4456.00       8.83      512.5       18.6        149       4051   15565.19    1041.93       0.94    3921.50 
   4456.50       8.54      491.0       18.5        153       4051   14201.92    1042.01       0.95    3921.76 
