~VERSION INFORMATION
VERS.    2.0:   CWLS LOG ASCII STANDARD - VERSION 2.0
WRAP.     NO:   ONE LINE PER STEP
~WELL INFORMATION BLOCK
#MNEM.UNIT      DATA                  DESCRIPTION OF MNEMONIC
#----   --------             ---------------
STRT.m  259.50                   :START DEPTH
STOP.m  5463.00                   :STOP DEPTH
STEP.m  0.50                   :STEP VALUE
NULL.   0                   :NULL VALUE
COMP.   SHELL                   :COMPANY NAME
WELL.   PRELUDE P4                   :WELL NAME
FLD .   PRELUDE                   :FIELD NAME
LOC .                      :LOCATION
PROV.                      :PROVINCE
SRVC.   Geoservices                   :SERVICE COMPANY NAME
DATE.   10-14-2015 04:29:56                   :DATE
UWI .                      :UNIQUE WELL IDENTIFIER
~CURVE INFORMATION
#MNEM.UNIT       API CODE        CURVE DESCRIPTION
#----   -------- ------------------
Tot Depth .m        :Tot Depth
ROP m/hr .m/h        :ROP m/hr
WOH .klbs        :WOH
WOB .klbs        :WOB
RPM .rpm        :RPM
SPP .psi        :SPP
TORQUE .lb*ft        :TORQUE
FLWpmps .gpm        :FLWpmps
D Exp .....        :D Exp
TVD Depth .m        :TVD Depth
#
#-----------------------------------------------------------
# Tot Depth (m)   ROP m/hr (m/h)   WOH (klbs)   WOB (klbs)   RPM (rpm)   SPP (psi)   TORQUE (lb*ft)   FLWpmps (gpm)   D Exp (....)   TVD Depth (m)
#-----------------------------------------------------------
~A
# ...
    588.00      25.25      248.1        0.7         89       1725    3925.12    1251.81       0.30     588.00 
    588.50      31.87      248.4        0.5         88       1718    4261.54    1255.00       0.26     588.50 
    589.00      40.65      247.2        1.6         89       1730    4056.57    1255.16       0.27     589.00 
    589.50      28.91      247.4        1.4         89       1734    4576.76    1253.81       0.31     589.50 
    590.00      27.31      247.5        1.4         88       1735    4796.96    1252.36       0.31     590.00 
    590.50      22.70      247.4        1.4         87       1724    4961.34    1250.29       0.33     590.50 
    591.00      28.02      247.4        1.4         87       1729    5501.52    1250.07       0.31     591.00 
    591.50      30.86      247.5        1.4         87       1725    5994.88    1250.38       0.29     591.50 
    592.00      30.90      248.0        0.9         86       1709    6053.22    1253.13       0.28     592.00 
    592.50      42.34      247.9        0.9         87       1719    5328.73    1253.67       0.24     592.50 
    593.00      47.14      247.8        1.0         88       1726    5036.21    1252.84       0.23     593.00 
    593.50      31.06      249.0        0.1         89       1732    3594.03    1251.84       0.21     593.50 
    594.00      32.45      249.1        0.1         90       1732    3632.39    1251.89       0.22     594.00 
    594.50      36.43      249.2        0.2         89       1734    3274.69    1252.15       0.22     594.50 
    595.00      29.40      249.5        0.2         90       1733    3165.34    1252.38       0.24     595.00 
    595.50      33.91      249.3        0.4         89       1737    3446.84    1252.77       0.24     595.50 
    596.00      27.19      247.8        1.0         89       1730    3844.69    1252.50       0.30     596.00 
    596.50      19.91      247.3        1.5         87       1719    4641.51    1250.32       0.35     596.50 
    597.00      35.73      247.6        1.2         87       1767    5556.88    1245.88       0.27     597.00 
    597.50      47.34      247.9        0.9         88       1768    4906.85    1245.57       0.23     597.50 
    598.00      31.30      248.3        0.5         89       1728    4354.55    1249.99       0.26     598.00 
    598.50      32.52      248.9        0.1         89       1729    3998.28    1252.21       0.22     598.50 
    599.00      30.25      249.3        0.1         88       1727    3833.31    1252.33       0.21     599.00 
    599.50      28.65      249.3        0.1         89       1727    4175.98    1252.25       0.23     599.50 
    600.00      33.72      249.7        0.2         89       1732    4015.23    1253.08       0.23     600.00 
    600.50      42.91      250.1        0.3         89       1729    3198.03    1253.66       0.21     600.50 
    601.00      26.11      250.4        0.2         89       1739    3070.10    1253.19       0.25     601.00 
    601.50      31.40      250.5        0.3         90       1735    3193.59    1252.02       0.24     601.50 
    602.00      34.43      250.1        0.6         89       1729    3774.19    1251.09       0.25     602.00 
    602.50      25.13      248.8        1.2         88       1733    2729.06    1252.77       0.31     602.50 
    603.00      30.12      252.4        0.6         82       1773    1193.32    1261.54       0.26     603.00 
    603.50      25.16      254.2        0.3         81       1778    2268.60    1263.35       0.26     603.50 
    604.00      26.94      254.4        0.2         81       1781    2731.23    1266.29       0.24     604.00 
    604.50      44.70      254.3        0.3         81       1790    2940.61    1268.70       0.20     604.50 
    605.00      26.88      253.8        0.2         79       1788    3736.27    1269.70       0.24     605.00 
    605.50      26.71      253.3        0.3         79       1772    4033.89    1263.02       0.25     605.50 
    606.00      36.43      253.3        0.2         78       1767    4303.10    1264.07       0.20     606.00 
    606.50      25.55      253.5        0.2         80       1771    4104.23    1264.18       0.24     606.50 
    607.00      32.03      253.7        0.2         79       1750    3863.30    1258.30       0.22     607.00 
    607.50      30.64      253.4        0.2         79       1755    3974.24    1255.71       0.22     607.49 
    608.00      32.25      253.6        0.3         78       1752    4521.99    1257.82       0.23     607.99 
    608.50      28.52      253.4        0.3         77       1755    5166.08    1257.47       0.24     608.49 
    609.00      43.89      253.5        0.3         77       1760    5170.85    1257.30       0.19     608.99 
    609.50      37.67      253.7        0.2         79       1756    5197.73    1258.25       0.20     609.49 
    610.00      32.29      254.2        0.2         80       1759    4243.80    1258.30       0.22     609.99 
    610.50      27.14      254.2        0.2         79       1759    4466.98    1262.23       0.24     610.49 
    611.00      33.29      254.4        0.3         78       1774    4902.15    1262.65       0.22     610.99 
    611.50      35.69      255.0        0.3         78       1761    5239.38    1259.96       0.22     611.49 
    612.00      41.38      255.5        0.3         78       1749    4323.58    1258.60       0.20     611.99 
    612.50      40.47      255.3        0.3         79       1751    4606.99    1257.78       0.20     612.49 
    613.00      26.15      255.2        0.2         78       1752    5063.17    1257.94       0.24     612.99 
    613.50      43.73      255.4        0.2         79       1750    4071.82    1258.52       0.19     613.49 
    614.00      37.75      255.5        0.2         80       1753    3614.34    1258.25       0.20     613.99 
    614.50      31.33      256.0        0.3         79       1764    4511.85    1258.58       0.23     614.49 
    615.00      44.05      255.7        0.3         80       1757    3798.09    1259.00       0.20     614.99 
    615.50      29.26      255.7        0.3         79       1764    3587.44    1259.22       0.24     615.49 
    616.00      24.70      256.0        0.4         81       1760    2536.40    1257.59       0.27     615.99 
    616.50      27.95      255.3        0.4         80       1752    3815.34    1256.85       0.25     616.49 
    617.00      24.67      255.0        0.4         79       1759    3595.34    1258.46       0.26     616.99 
    617.50      35.74      254.9        0.4         80       1755    3089.64    1259.40       0.22     617.49 
    618.00      26.64      254.2        0.2         79       1743    4072.22    1255.93       0.23     617.99 
    618.50      24.78      253.8        0.2         80       1737    3682.87    1254.45       0.24     618.49 
    619.00      27.48      254.3        0.2         81       1747    2746.59    1257.09       0.23     618.99 
    619.50      28.46      254.4        0.2         81       1753    3643.60    1259.16       0.23     619.49 
    620.00      29.49      254.0        0.2         80       1758    3280.06    1260.60       0.23     619.99 
    620.50      20.46      279.5        7.4        116        713    2212.32     687.04       0.49     620.49 
    621.00      22.46      279.5        7.5        116        713    2212.32     687.04       0.49     620.99 
    621.50      32.46      279.0        7.9        115        753    2441.88     683.15       0.43     621.49 
    622.00      49.82      279.9        7.0        115        783    3309.51     679.28       0.35     621.99 
    622.50      21.55      282.4        6.6        147       1250    1440.88     955.99       0.53     622.49 
    623.00      37.13      283.4        6.3        157       1431    1916.66    1043.93       0.44     622.99 
    623.50      38.84      283.4        6.4        157       1446    2138.03    1043.61       0.44     623.49 
    624.00      39.59      283.9        5.8        157       1426    1930.00    1043.23       0.43     623.99 
