~VERSION INFORMATION
VERS.    2.0:   CWLS LOG ASCII STANDARD - VERSION 2.0
WRAP.     NO:   ONE LINE PER STEP
~WELL INFORMATION BLOCK
#MNEM.UNIT      DATA                  DESCRIPTION OF MNEMONIC
#----   --------             ---------------
STRT.m  259.50                   :START DEPTH
STOP.m  5463.00                   :STOP DEPTH
STEP.m  0.50                   :STEP VALUE
NULL.   0                   :NULL VALUE
COMP.   SHELL                   :COMPANY NAME
WELL.   PRELUDE P4                   :WELL NAME
FLD .   PRELUDE                   :FIELD NAME
LOC .                      :LOCATION
PROV.                      :PROVINCE
SRVC.   Geoservices                   :SERVICE COMPANY NAME
DATE.   10-14-2015 04:29:56                   :DATE
UWI .                      :UNIQUE WELL IDENTIFIER
~CURVE INFORMATION
#MNEM.UNIT       API CODE        CURVE DESCRIPTION
#----   -------- ------------------
Tot Depth .m        :Tot Depth
ROP m/hr .m/h        :ROP m/hr
WOH .klbs        :WOH
WOB .klbs        :WOB
RPM .rpm        :RPM
SPP .psi        :SPP
TORQUE .lb*ft        :TORQUE
FLWpmps .gpm        :FLWpmps
D Exp .....        :D Exp
TVD Depth .m        :TVD Depth
#
#-----------------------------------------------------------
# Tot Depth (m)   ROP m/hr (m/h)   WOH (klbs)   WOB (klbs)   RPM (rpm)   SPP (psi)   TORQUE (lb*ft)   FLWpmps (gpm)   D Exp (....)   TVD Depth (m)
#-----------------------------------------------------------
~A
# ...
   1975.00      21.69      461.8        2.0         99       1533          0     919.10       0.58    1974.83 
   1975.50      15.99      462.0        1.8         98       1499          0     920.41       0.61    1975.33 
   1976.00      18.41      462.1        1.7         98       1503          0     920.07       0.59    1975.83 
   1976.50      17.05      461.6        2.2         99       1496          0     920.52       0.62    1976.33 
   1977.00      20.94      461.2        2.7         98       1527          0     918.20       0.61    1976.83 
   1977.50      19.63      461.2        2.6         98       1497          0     919.63       0.62    1977.33 
   1978.00      19.60      461.0        2.8         98       1512          0     919.08       0.63    1977.82 
   1978.50      20.38      460.9        3.0         98       1551          0     917.01       0.63    1978.32 
   1979.00      18.41      460.5        3.3         98       1521          0     918.94       0.65    1978.82 
   1979.50      22.49      460.9        3.0         98       1515          0     918.94       0.61    1979.32 
   1980.00      30.27      460.8        3.1         98       1522          0     918.76       0.57    1979.82 
   1980.50      15.10      460.7        3.1         98       1529          0     918.15       0.68    1980.31 
   1981.00      19.99      460.9        2.9         98       1503          0     919.56       0.63    1980.81 
   1981.50      32.85      460.2        3.6         98       1531          0     917.99       0.57    1981.31 
   1982.00      14.65      460.6        3.2         98       1497          0     919.52       0.68    1981.81 
   1982.50      20.02      460.5        3.3         98       1529          0     917.45       0.64    1982.31 
   1983.00      24.96      460.4        3.4         98       1512          0     918.47       0.61    1982.81 
   1983.50      23.66      460.2        3.7         98       1507          0     919.09       0.62    1983.30 
   1984.00      23.66      460.4        3.5         98       1474          0     920.16       0.62    1983.80 
   1984.50      22.40      460.4        3.5         99       1462          0     920.98       0.63    1984.30 
   1985.00      22.05      460.2        3.7         98       1488          0     920.04       0.63    1984.80 
   1985.50      22.95      460.3        3.5         98       1492          0     919.98       0.62    1985.30 
   1986.00      22.05      460.6        3.2         98       1492          0     919.63       0.62    1985.79 
   1986.50      18.39      459.7        4.1         98       1511          0     918.49       0.67    1986.29 
   1987.00      17.33      459.9        4.0         98       1534          0     917.36       0.68    1986.79 
   1987.50      20.47      459.0        4.8         98       1571          0     915.55       0.67    1987.29 
   1988.00      20.95      458.7        5.2         98       1556          0     916.29       0.68    1987.79 
   1988.50       9.40      458.6        5.2         98       1558       0.00     915.93       0.81    1988.29 
   1989.00      21.01      459.3        4.5         98       1540          0     917.08       0.66    1988.78 
   1989.50      31.06      459.2        4.6         98       1577          0     914.88       0.60    1989.28 
   1990.00      12.36      459.9        4.0         98       1552          0     916.72       0.73    1989.78 
   1990.50      21.51      460.3        3.5         98       1540          0     916.81       0.63    1990.28 
   1991.00      19.18      460.9        2.9         98       1575          0     914.73       0.63    1990.78 
   1991.50      33.44      461.0        2.8        132       1563    4150.01     915.27       0.59    1991.27 
   1992.00      44.56      461.3        2.5        152       1593    6624.81     913.36       0.55    1991.77 
   1992.50      57.42      460.7        3.1        150       1651    6927.73     909.25       0.53    1992.27 
   1993.00      48.61      460.8        3.0        150       1645    7167.22     910.03       0.56    1992.77 
   1993.50      55.17      459.9        4.0        150       1646    7280.62     908.97       0.56    1993.27 
   1994.00      65.86      459.4        4.5        150       1660    7372.67     908.83       0.55    1993.77 
   1994.50      41.00      459.5        4.3        152       1608    6167.47     911.67       0.62    1994.26 
   1995.00       4.63      457.8        7.6        150       1500    3320.77     927.19       1.07    1994.76 
   1995.50      19.18      458.1        8.5        144       1504    3642.45     936.37       0.83    1995.26 
   1996.00      38.00      457.3        9.3        143       1568    4852.83     931.87       0.72    1995.75 
   1996.50      37.96      456.8        9.8        140       1625    5835.61     928.95       0.72    1996.25 
   1997.00      37.20      457.3        9.2        140       1612    5918.29     928.13       0.72    1996.74 
   1997.50      45.55      456.9        9.7        141       1630    5908.14     927.79       0.68    1997.24 
   1998.00      38.79      456.9        9.7        140       1616    5573.77     928.60       0.71    1997.74 
   1998.50      42.22      457.0        9.6        141       1625    5788.01     927.99       0.70    1998.23 
   1999.00      42.17      456.8        9.7        140       1616    5829.38     928.19       0.70    1998.73 
   1999.50      39.03      456.6       10.0        140       1642    6272.43     926.78       0.71    1999.23 
   2000.00      51.73      455.9       10.6        139       1678    6391.61     924.96       0.67    1999.72 
   2000.50      51.62      456.1       10.5        139       1643    6326.51     926.89       0.67    2000.22 
   2001.00      51.02      455.9       10.6        140       1650    6415.90     926.66       0.67    2000.71 
   2001.50      53.60      455.9       10.7        139       1642    6257.79     926.88       0.66    2001.21 
   2002.00      50.63      455.9       10.7        140       1641    6354.62     927.13       0.68    2001.71 
   2002.50      56.32      456.1       10.4        141       1612    5547.30     928.25       0.65    2002.20 
   2003.00      52.64      456.5       10.1        142       1579    4654.38     930.24       0.66    2002.70 
   2003.50      74.35      456.5       10.0        142       1557    4959.14     931.58       0.60    2003.20 
   2004.00      57.44      456.8        9.8        142       1546    4595.08     932.04       0.64    2003.69 
   2004.50      62.44      457.0        9.6        142       1539    4874.46     932.48       0.62    2004.19 
   2005.00      49.49      456.6       10.0        141       1576    5029.19     930.98       0.67    2004.68 
   2005.50      58.57      456.6        9.9        142       1562    4636.53     931.54       0.64    2005.18 
   2006.00      56.80      456.8        9.8        144       1544    4202.10     932.49       0.65    2005.68 
   2006.50      53.03      457.0        9.5        144       1530    4022.44     933.37       0.65    2006.17 
   2007.00      29.04      456.8        9.8        126       1532    2750.11     933.33       0.75    2006.67 
   2007.50      11.10      459.6        7.0        100       1462       0.00     937.15       0.83    2007.17 
   2008.00      13.80      461.2        5.3        100       1492          0     935.94       0.75    2007.66 
   2008.50      15.58      461.7        4.9        100       1493          0     935.96       0.72    2008.16 
   2009.00      15.19      462.0        4.6        100       1478          0     936.56       0.72    2008.66 
   2009.50      17.05      462.1        4.4        100       1493          0     936.00       0.69    2009.15 
   2010.00      23.07      462.2        4.4        100       1521          0     934.46       0.64    2009.65 
   2010.50      18.40      463.0        3.6        100       1536          0     933.46       0.65    2010.14 
   2011.00      18.04      462.8        3.8        100       1523          0     934.06       0.66    2010.64 
