~VERSION INFORMATION
VERS.    2.0:   CWLS LOG ASCII STANDARD - VERSION 2.0
WRAP.     NO:   ONE LINE PER STEP
~WELL INFORMATION BLOCK
#MNEM.UNIT      DATA                  DESCRIPTION OF MNEMONIC
#----   --------             ---------------
STRT.m  259.50                   :START DEPTH
STOP.m  5463.00                   :STOP DEPTH
STEP.m  0.50                   :STEP VALUE
NULL.   0                   :NULL VALUE
COMP.   SHELL                   :COMPANY NAME
WELL.   PRELUDE P4                   :WELL NAME
FLD .   PRELUDE                   :FIELD NAME
LOC .                      :LOCATION
PROV.                      :PROVINCE
SRVC.   Geoservices                   :SERVICE COMPANY NAME
DATE.   10-14-2015 04:29:56                   :DATE
UWI .                      :UNIQUE WELL IDENTIFIER
~CURVE INFORMATION
#MNEM.UNIT       API CODE        CURVE DESCRIPTION
#----   -------- ------------------
Tot Depth .m        :Tot Depth
ROP m/hr .m/h        :ROP m/hr
WOH .klbs        :WOH
WOB .klbs        :WOB
RPM .rpm        :RPM
SPP .psi        :SPP
TORQUE .lb*ft        :TORQUE
FLWpmps .gpm        :FLWpmps
D Exp .....        :D Exp
TVD Depth .m        :TVD Depth
#
#-----------------------------------------------------------
# Tot Depth (m)   ROP m/hr (m/h)   WOH (klbs)   WOB (klbs)   RPM (rpm)   SPP (psi)   TORQUE (lb*ft)   FLWpmps (gpm)   D Exp (....)   TVD Depth (m)
#-----------------------------------------------------------
~A
# ...
   2340.00       3.94      484.6       11.8        176       2275    5409.84    1138.69       1.17    2332.69 
   2340.50       6.40      485.9        7.1        175       2304    5748.30    1143.97       0.97    2333.17 
   2341.00       9.90      484.6        6.5        172       2404    7545.37    1139.58       0.88    2333.66 
   2341.50      11.53      483.5        7.6        172       2450    7872.55    1143.15       0.88    2334.14 
   2342.00      12.74      483.3        7.8        171       2455    8245.63    1141.25       0.87    2334.62 
   2342.50      12.86      482.4        8.7        170       2485    8838.09    1134.33       0.88    2335.11 
   2343.00      18.79      482.1        9.0        169       2517    9499.75    1133.00       0.82    2335.59 
   2343.50      13.50      482.0        9.1        169       2523    9307.44    1134.38       0.88    2336.07 
   2344.00      16.87      481.6        9.5        169       2528    9362.39    1135.66       0.85    2336.56 
   2344.50      18.05      481.1       10.0        169       2543    9600.85    1134.65       0.84    2337.04 
   2345.00      18.41      481.4        9.7        170       2509    8862.88    1138.60       0.83    2337.52 
   2345.50      15.58      481.2        9.9        170       2502    8805.49    1139.46       0.87    2338.01 
   2346.00      17.24      480.3       10.3        170       2515    8937.00    1139.22       0.89    2338.49 
   2346.50      14.76      480.3       10.8        170       2521    9156.04    1138.64       0.89    2338.98 
   2347.00      16.16      480.0       11.1        170       2531    9435.30    1138.54       0.88    2339.46 
   2347.50      14.17      479.7       11.4        171       2521    9089.97    1140.32       0.91    2339.94 
   2348.00      13.91      478.9       12.2        170       2531    9209.87    1139.11       0.93    2340.43 
   2348.50      16.80      478.8       12.3        172       2553    9984.06    1137.19       0.90    2340.91 
   2349.00      11.27      478.1       13.0        173       2566    9890.81    1135.38       0.98    2341.39 
   2349.50      27.73      477.9       13.2        171       2581   10624.40    1133.38       0.81    2341.88 
   2350.00      18.41      477.8       13.3        174       2529    9376.92    1138.30       0.90    2342.36 
   2350.50      16.83      478.3       12.9        174       2507    9146.00    1142.86       0.86    2342.84 
   2351.00      13.27      479.0       12.2        176       2518    8559.40    1146.43       0.96    2343.33 
   2351.50      12.87      479.3       11.8        174       2550    9299.26    1145.45       0.93    2343.81 
   2352.00      10.18      478.8       12.3        175       2520    8741.03    1147.72       0.99    2344.29 
   2352.50      26.51      479.1       12.0        173       2588   10330.04    1141.17       0.81    2344.78 
   2353.00      23.85      479.4       11.7        173       2478    9097.18    1133.44       0.82    2345.26 
   2353.50      18.81      480.0       11.1        175       2435    8137.00    1136.34       0.86    2345.75 
   2354.00      16.39      480.3       10.8        177       2380    7193.94    1139.96       0.88    2346.23 
   2354.50      17.70      480.0       11.1        177       2374    7156.82    1140.15       0.87    2346.71 
   2355.00      19.62      479.5       11.6        176       2398    7529.43    1137.67       0.86    2347.20 
   2355.50      18.78      479.6       11.5        177       2377    7198.65    1137.47       0.87    2347.68 
   2356.00      16.54      479.6       11.5        176       2394    7443.97    1138.28       0.89    2348.16 
   2356.50      18.04      479.4       11.7        175       2417    8135.39    1134.36       0.88    2348.65 
   2357.00      18.04      479.3       11.8        175       2416    7845.67    1134.73       0.88    2349.13 
   2357.50      16.42      479.9       11.2        176       2371    7314.05    1130.15       0.89    2349.61 
   2358.00      18.79      479.8       11.3        175       2340    7409.50    1121.78       0.86    2350.10 
   2358.50      18.58      480.4       10.7        175       2320    7106.99    1122.51       0.85    2350.58 
   2359.00      18.81      479.4       11.7        175       2326    7044.35    1122.58       0.87    2351.07 
   2359.50      18.40      478.8       12.3        175       2355    7294.71    1124.80       0.88    2351.55 
   2360.00      18.41      478.5       12.6        176       2348    6864.46    1130.66       0.89    2352.03 
   2360.50      18.79      478.2       12.9        176       2384    7349.72    1130.16       0.89    2352.52 
   2361.00      19.57      479.1       12.0        176       2381    7324.91    1133.24       0.86    2353.00 
   2361.50      19.21      479.6       11.5        177       2421    7343.94    1141.27       0.86    2353.48 
   2362.00      18.79      479.2       11.9        176       2418    7723.73    1138.03       0.87    2353.97 
   2362.50      19.63      479.6       11.5        177       2401    7381.98    1138.12       0.86    2354.45 
   2363.00      18.41      479.6       11.5        177       2395    7219.91    1137.65       0.87    2354.93 
   2363.50      14.71      478.1       13.0        174       2440    8291.91    1130.92       0.93    2355.42 
   2364.00      14.11      477.7       13.4        173       2477    8867.08    1126.01       0.94    2355.90 
   2364.50      25.31      476.4       14.7        168       2594   11625.83    1118.26       0.84    2356.38 
   2365.00      25.66      478.0       13.1        172       2472    9908.20    1129.08       0.82    2356.87 
   2365.50      17.36      478.8       12.3        176       2396    7521.08    1138.03       0.89    2357.35 
   2366.00      15.22      480.5       10.7        178       2370    6775.56    1140.73       0.89    2357.83 
   2366.50      36.43      489.7        4.0        178       2276    4450.42    1150.01       0.61    2358.31 
   2367.00      10.72      489.4        4.2        177       2279    4813.17    1148.55       0.80    2358.80 
   2367.50       9.49      488.6        5.1        174       2358    6547.80    1137.91       0.85    2359.28 
   2368.00      15.06      488.6        5.1        172       2321    6775.08    1125.14       0.77    2359.76 
   2368.50      13.21      488.8        4.9        173       2346    6853.80    1129.53       0.79    2360.24 
   2369.00      11.06      489.7        4.0        173       2342    6628.21    1132.42       0.79    2360.73 
   2369.50      14.35      489.5        4.2        174       2355    6625.32    1135.24       0.75    2361.21 
   2370.00      13.40      489.6        4.1        175       2379    6551.29    1144.69       0.76    2361.69 
   2370.50      15.31      489.6        4.1        174       2401    7021.08    1143.00       0.74    2362.18 
   2371.00      14.70      489.5        4.1        174       2403    7047.62    1144.98       0.75    2362.66 
   2371.50      17.05      489.0        4.7        173       2439    7873.60    1145.54       0.74    2363.14 
   2372.00      16.69      488.1        5.6        172       2491    8259.80    1140.56       0.77    2363.62 
   2372.50      18.05      489.5        4.2        174       2418    7449.38    1145.55       0.72    2364.11 
   2373.00      16.54      488.9        4.8        174       2418    7247.49    1144.08       0.75    2364.59 
   2373.50      19.19      488.9        4.8        173       2402    7482.54    1134.10       0.72    2365.07 
   2374.00      16.42      489.7        4.0        173       2382    7039.71    1132.70       0.72    2365.55 
   2374.50      19.16      489.7        4.0        173       2393    7384.69    1136.01       0.70    2366.04 
   2375.00      17.36      489.8        3.9        173       2399    7449.07    1137.74       0.71    2366.52 
   2375.50      18.50      488.5        5.2        173       2413    7617.42    1137.77       0.74    2367.00 
   2376.00      19.18      489.6        4.1        173       2416    7353.93    1139.04       0.71    2367.48 
