~VERSION INFORMATION
VERS.    2.0:   CWLS LOG ASCII STANDARD - VERSION 2.0
WRAP.     NO:   ONE LINE PER STEP
~WELL INFORMATION BLOCK
#MNEM.UNIT      DATA                  DESCRIPTION OF MNEMONIC
#----   --------             ---------------
STRT.m  259.50                   :START DEPTH
STOP.m  5463.00                   :STOP DEPTH
STEP.m  0.50                   :STEP VALUE
NULL.   0                   :NULL VALUE
COMP.   SHELL                   :COMPANY NAME
WELL.   PRELUDE P4                   :WELL NAME
FLD .   PRELUDE                   :FIELD NAME
LOC .                      :LOCATION
PROV.                      :PROVINCE
SRVC.   Geoservices                   :SERVICE COMPANY NAME
DATE.   10-14-2015 04:29:56                   :DATE
UWI .                      :UNIQUE WELL IDENTIFIER
~CURVE INFORMATION
#MNEM.UNIT       API CODE        CURVE DESCRIPTION
#----   -------- ------------------
Tot Depth .m        :Tot Depth
ROP m/hr .m/h        :ROP m/hr
WOH .klbs        :WOH
WOB .klbs        :WOB
RPM .rpm        :RPM
SPP .psi        :SPP
TORQUE .lb*ft        :TORQUE
FLWpmps .gpm        :FLWpmps
D Exp .....        :D Exp
TVD Depth .m        :TVD Depth
#
#-----------------------------------------------------------
# Tot Depth (m)   ROP m/hr (m/h)   WOH (klbs)   WOB (klbs)   RPM (rpm)   SPP (psi)   TORQUE (lb*ft)   FLWpmps (gpm)   D Exp (....)   TVD Depth (m)
#-----------------------------------------------------------
~A
# ...
   3727.00      25.34      459.9       11.6        145       4154   13942.74    1113.78       0.84    3453.94 
   3727.50      21.67      460.3       11.2        147       4154   13400.00    1113.72       0.87    3454.28 
   3728.00      22.04      460.4       11.1        146       4155   13567.28    1113.80       0.86    3454.63 
   3728.50      29.95      459.8       11.7        146       4155   13776.53    1113.32       0.81    3455.06 
   3729.00      19.77      459.3       12.1        148       4155   13323.32    1113.43       0.90    3455.38 
   3729.50      23.66      439.5       19.3        151       4065   12127.81    1092.98       0.97    3455.74 
   3730.00      18.81      425.5       15.9        151       3879   12130.19    1067.29       0.97    3456.09 
   3730.50      23.47      426.3       15.0        150       3873   12371.29    1068.08       0.91    3456.43 
   3731.00      25.82      427.5       13.8        148       3917   13281.47    1077.07       0.88    3456.79 
   3731.50      21.44      457.5       14.5        151       4120   11968.58    1108.69       0.68    3457.15 
   3732.00      21.29      461.1       14.6        151       4144   11794.84    1112.91       0.93    3457.53 
   3732.50      20.52      461.3       14.4        151       4183   11880.47    1118.17       0.93    3457.88 
   3733.00      21.16      461.3       14.4        151       4187   11659.31    1118.70       0.93    3458.21 
   3733.50      21.29      461.4       14.3        150       4187   12068.25    1118.07       0.92    3458.59 
   3734.00      26.24      461.0       14.6        149       4189   12775.18    1118.72       0.89    3458.98 
   3734.50      26.25      460.6       15.1        148       4187   13365.84    1118.34       0.89    3459.29 
   3735.00      21.96      459.6       16.1        146       4192   13787.58    1118.00       0.94    3459.65 
   3735.50      24.11      460.2       15.5        146       4190   13911.28    1118.07       0.91    3460.03 
   3736.00      30.12      459.9       15.8        146       4189   14163.66    1118.39       0.87    3460.47 
   3736.50      17.45      460.1       15.6        148       4182   13301.29    1118.19       0.98    3460.72 
   3737.00      33.14      459.6       16.0        149       4186   13210.68    1118.19       0.86    3461.08 
   3737.50      26.72      459.7       16.0        147       4191   13469.09    1118.01       0.90    3461.48 
   3738.00      21.08      459.5       16.2        147       4187   13372.43    1118.01       0.95    3461.82 
   3738.50      27.88      459.4       16.3        147       4190   13522.71    1117.73       0.89    3462.17 
   3739.00      22.73      458.5       17.2        145       4184   14531.77    1118.06       0.94    3462.55 
   3739.50      26.60      458.1       17.6        146       4187   14369.45    1118.32       0.92    3462.90 
   3740.00      26.57      458.5       17.1        146       4188   13963.24    1118.18       0.91    3463.23 
   3740.50      26.02      458.4       17.3        145       4191   14246.01    1118.08       0.92    3463.59 
   3741.00      22.15      458.6       17.1        146       4183   13987.80    1117.65       0.95    3463.96 
   3741.50      22.14      459.3       16.4        147       4191   13765.59    1118.28       0.94    3464.30 
   3742.00      16.43      433.7       19.3        151       3973   12110.90    1078.03       1.05    3464.66 
   3742.50      28.58      427.2       11.9        151       3803   12104.61    1056.34       0.83    3465.11 
   3743.00      21.30      425.7       13.4        149       3834   12962.60    1065.28       0.91    3465.38 
   3743.50       8.45      435.3        8.9        152       4106   10539.85    1105.00       1.00    3465.74 
   3744.00      21.44      452.6       19.5        149       4154    9534.17    1101.65       0.99    3466.10 
   3744.50      37.10      429.0       19.4        142       3931   12892.17    1071.56       0.86    3466.48 
   3745.00      25.17      429.5       12.8        142       3908   12873.66    1069.57       0.86    3466.82 
   3745.50      15.67      433.1       11.2        155       3922   13167.03    1075.11       0.94    3467.17 
   3746.00      18.80      459.9       10.8        159       4174   11674.23    1113.01       0.90    3467.52 
   3746.50      23.07      460.2       14.3        157       4176   12246.52    1112.55       0.92    3467.88 
   3747.00      24.75      458.9       15.7        156       4177   12486.29    1112.24       0.92    3468.24 
   3747.50      22.44      458.4       16.2        155       4167   13262.98    1112.54       0.95    3468.61 
   3748.00      23.43      458.3       16.2        153       4169   14379.64    1119.81       0.93    3468.99 
   3748.50      23.19      458.0       16.5        154       4168   13896.27    1113.02       0.94    3469.34 
   3749.00      20.24      461.2       16.8        154       4170   13874.11    1123.01       0.98    3469.67 
   3749.50      24.28      457.3       19.7        154       4167   13762.86    1113.09       0.98    3470.05 
   3750.00      22.71      459.6       14.3        154       4163   13799.59    1112.66       0.92    3470.43 
   3750.50      27.21      457.8       15.4        154       4163   13672.56    1112.98       0.89    3470.81 
   3751.00      20.83      457.6       14.0        153       4164   14141.68    1113.08       0.93    3471.12 
   3751.50      18.42      455.5       17.1        155       4159   13501.10    1112.52       1.00    3471.45 
   3752.00      24.29      437.7       13.9        158       3983   11900.52    1079.95       0.90    3471.81 
   3752.50      20.47      433.3       26.1        157       3899   12573.29    1075.18       1.09    3472.16 
   3753.00      32.65      428.9       14.6        158       3840   12531.07    1057.57       0.85    3472.53 
   3753.50      22.82      431.7       13.3        154       4000   13747.17    1088.04       0.90    3472.90 
   3754.00      22.06      461.3       10.7        154       4152   13661.11    1112.84       0.86    3473.25 
   3754.50      25.44      459.5       14.3        156       4156   13188.15    1112.96       0.90    3473.62 
   3755.00      17.31      459.0       14.8        155       4158   13381.79    1113.63       0.98    3473.95 
   3755.50      23.81      458.1       15.7        155       4158   13351.71    1112.90       0.93    3474.30 
   3756.00      23.06      460.9       12.9        154       4155   13571.74    1113.04       0.89    3474.66 
   3756.50      23.05      458.6       15.2        155       4156   13442.53    1112.95       0.93    3475.01 
   3757.00      24.62      458.3       15.6        154       4159   13906.29    1113.10       0.92    3475.39 
   3757.50      29.14      458.1       15.7        155       4155   13445.18    1112.86       0.89    3475.73 
   3758.00      23.54      459.6       14.2        155       4155   13303.39    1113.34       0.91    3476.09 
   3758.50      27.21      459.0       14.8        155       4155   13354.35    1112.43       0.89    3476.49 
   3759.00      26.09      460.1       13.7        154       4153   13517.26    1112.69       0.88    3476.83 
   3759.50      19.79      458.8       15.0        155       4153   13593.98    1113.40       0.95    3477.14 
   3760.00      29.50      459.7       14.2        154       4153   14094.51    1113.10       0.86    3477.51 
   3760.50      28.79      459.7       14.1        152       4151   14742.50    1114.31       0.86    3477.85 
   3761.00      24.89      457.2       16.6        153       4155   14346.76    1113.05       0.93    3478.24 
   3761.50      22.35      457.3       16.5        152       4151   14903.79    1112.94       0.95    3478.57 
   3762.00      22.09      456.6       17.2        154       4155   14068.10    1113.36       0.96    3478.95 
   3762.50      25.75      456.7       17.1        151       4155   15114.70    1112.82       0.93    3479.33 
   3763.00      26.91      457.1       16.7        152       4157   14694.37    1112.77       0.91    3479.69 
