~VERSION INFORMATION
VERS.    2.0:   CWLS LOG ASCII STANDARD - VERSION 2.0
WRAP.     NO:   ONE LINE PER STEP
~WELL INFORMATION BLOCK
#MNEM.UNIT      DATA                  DESCRIPTION OF MNEMONIC
#----   --------             ---------------
STRT.m  259.50                   :START DEPTH
STOP.m  5463.00                   :STOP DEPTH
STEP.m  0.50                   :STEP VALUE
NULL.   0                   :NULL VALUE
COMP.   SHELL                   :COMPANY NAME
WELL.   PRELUDE P4                   :WELL NAME
FLD .   PRELUDE                   :FIELD NAME
LOC .                      :LOCATION
PROV.                      :PROVINCE
SRVC.   Geoservices                   :SERVICE COMPANY NAME
DATE.   10-14-2015 04:29:56                   :DATE
UWI .                      :UNIQUE WELL IDENTIFIER
~CURVE INFORMATION
#MNEM.UNIT       API CODE        CURVE DESCRIPTION
#----   -------- ------------------
Tot Depth .m        :Tot Depth
ROP m/hr .m/h        :ROP m/hr
WOH .klbs        :WOH
WOB .klbs        :WOB
RPM .rpm        :RPM
SPP .psi        :SPP
TORQUE .lb*ft        :TORQUE
FLWpmps .gpm        :FLWpmps
D Exp .....        :D Exp
TVD Depth .m        :TVD Depth
#
#-----------------------------------------------------------
# Tot Depth (m)   ROP m/hr (m/h)   WOH (klbs)   WOB (klbs)   RPM (rpm)   SPP (psi)   TORQUE (lb*ft)   FLWpmps (gpm)   D Exp (....)   TVD Depth (m)
#-----------------------------------------------------------
~A
# ...
   2668.50      38.82      405.3       13.6        148       3724    9355.82    1091.23       0.81    2638.78 
   2669.00      51.20      405.5       13.4        150       3730    8761.29    1091.22       0.76    2639.24 
   2669.50      44.75      405.4       13.5        150       3730    8719.36    1091.12       0.79    2639.75 
   2670.00      39.25      404.6       14.3        147       3731    9591.87    1091.19       0.82    2640.12 
   2670.50      15.31      396.8       20.9        150       3744    5684.48    1090.53       1.11    2640.52 
   2671.00      38.49      406.5        9.1        135       3773    4355.93    1090.30       0.73    2641.01 
   2671.50      30.84      408.1        9.0        131       3752    6617.24    1091.06       0.76    2641.39 
   2672.00      33.22      406.8       10.3        128       3757    7633.51    1091.13       0.77    2641.84 
   2672.50      39.67      406.0       11.1        126       3750    8382.72    1091.16       0.74    2642.27 
   2673.00      45.55      405.9       11.3        125       3756    8559.84    1091.02       0.72    2642.79 
   2673.50      31.55      405.3       11.9        126       3756    8964.72    1091.13       0.80    2643.13 
   2674.00      30.95      405.7       11.4        129       3755    7481.67    1091.02       0.80    2643.57 
   2674.50      40.44      405.9       11.2        126       3755    8238.70    1090.93       0.74    2644.00 
   2675.00      40.59      405.4       11.7        126       3750    8630.01    1091.00       0.75    2644.43 
   2675.50      32.25      405.3       11.9        134       3751    8439.09    1091.12       0.81    2644.90 
   2676.00      36.41      405.8       11.3        146       3741    8708.71    1091.19       0.79    2645.32 
   2676.50      58.08      405.9       11.2        147       3740    9327.95    1091.30       0.70    2645.76 
   2677.00      30.27      405.8       11.4        148       3740    8746.83    1091.46       0.83    2646.19 
   2677.50      58.09      405.8       11.3        149       3746    8356.06    1091.38       0.71    2646.63 
   2678.00      32.87      405.5       11.6        148       3736    8630.34    1091.50       0.82    2647.02 
   2678.50      23.69      405.5       11.6        148       3743    8768.84    1091.23       0.88    2647.50 
   2679.00      48.24      404.9       12.2        147       3745    8989.78    1091.23       0.75    2647.96 
   2679.50      31.96      404.7       12.5        148       3748    8708.02    1091.33       0.84    2648.33 
   2680.00      43.58      405.1       12.0        147       3740    9500.75    1091.46       0.77    2648.81 
   2680.50      52.22      404.9       12.3        148       3743    8882.36    1091.48       0.74    2649.18 
   2681.00      51.52      404.8       12.3        147       3745    9393.77    1091.43       0.74    2649.68 
   2681.50      47.81      405.0       12.2        147       3750    9729.20    1091.40       0.75    2650.04 
   2682.00      48.84      404.8       12.3        146       3743    9537.86    1091.32       0.75    2650.59 
   2682.50      54.67      404.7       12.4        147       3748    9343.69    1091.40       0.73    2650.97 
   2683.00      44.76      404.6       12.5        147       3738    9587.92    1091.48       0.77    2651.34 
   2683.50      45.55      404.6       12.5        148       3738    9184.98    1091.58       0.77    2651.78 
   2684.00      48.61      404.6       12.5        147       3741    9212.00    1091.53       0.69    2652.20 
   2684.50      49.81      404.8       12.3        147       3736    9296.51    1091.38       0.75    2652.68 
   2685.00      41.37      404.5       12.6        147       3743    9397.20    1091.49       0.79    2653.11 
   2685.50      55.21      404.6       12.5        146       3743    9383.65    1091.46       0.73    2653.54 
   2686.00      34.26      404.0       13.2        145       3751   10283.09    1091.49       0.83    2653.95 
   2686.50      56.99      403.0       14.2        143       3745   10928.01    1091.53       0.74    2654.47 
   2687.00      45.50      403.0       14.1        144       3748   10601.43    1091.55       0.79    2654.82 
   2687.50      58.06      403.3       13.9        146       3753   10105.84    1091.46       0.74    2655.25 
   2688.00      60.05      403.8       13.3        147       3752    9622.63    1091.51       0.73    2655.78 
   2688.50      51.80      403.8       13.3        148       3745    9273.07    1091.56       0.75    2656.10 
   2689.00      51.51      403.9       13.3        147       3743    9428.02    1091.57       0.75    2656.59 
   2689.50      47.32      404.0       13.1        146       3745    9708.83    1091.72       0.77    2656.93 
   2690.00      51.56      403.9       13.2        147       3750    9741.25    1091.52       0.75    2657.37 
   2690.50      50.22      404.1       13.0        147       3748    9563.21    1091.33       0.76    2657.80 
   2691.00      54.63      403.8       13.3        146       3743   10031.55    1091.36       0.74    2658.27 
   2691.50      58.49      404.4       12.8        148       3747    9265.10    1091.44       0.72    2658.65 
   2692.00      34.98      404.6       12.6        146       3744    9699.53    1091.19       0.82    2659.07 
   2692.50      52.02      404.3       12.8        146       3743    9858.44    1091.30       0.75    2659.59 
   2693.00      42.34      404.4       12.7        147       3746    9434.77    1091.55       0.78    2659.96 
   2693.50      50.58      404.2       13.0        147       3744    9578.61    1091.40       0.75    2660.38 
   2694.00      46.27      404.2       12.9        149       3739    8843.65    1091.43       0.77    2660.79 
   2694.50      53.74      404.2       12.9        148       3746    9197.68    1091.35       0.74    2661.29 
   2695.00      42.63      404.1       13.0        147       3750    9291.19    1091.28       0.79    2661.73 
   2695.50      61.12      404.2       12.9        147       3748    9574.41    1091.16       0.72    2662.13 
   2696.00      41.49      404.4       12.7        147       3749    9252.10    1091.38       0.79    2662.55 
   2696.50      46.95      404.5       12.6        147       3748    9559.77    1091.25       0.76    2662.97 
   2697.00      48.57      404.8       12.3        147       3754    9394.96    1091.22       0.75    2663.35 
   2697.50      37.91      404.3       12.9        143       3756   10984.82    1091.23       0.80    2663.79 
   2698.00      50.00      404.2       12.9        145       3757    9874.40    1091.03       0.75    2664.30 
   2698.50      16.95      402.0       15.2        148       3752    8125.11    1091.24       1.00    2664.67 
   2699.00      20.25      404.9       14.2        145       3754    4210.16    1084.82       0.95    2665.06 
   2699.50      23.35      403.3       15.7        140       3727    5790.92    1085.74       0.93    2665.49 
   2700.00      37.15      402.2       16.9        135       3721    8150.18    1085.95       0.85    2665.93 
   2700.50      41.64      401.0       18.0        134       3723    8625.62    1086.04       0.84    2666.34 
   2701.00      37.90      400.6       18.4        135       3717    8235.54    1085.99       0.86    2666.77 
   2701.50      47.00      400.2       18.8        134       3716    8439.82    1085.99       0.82    2667.27 
   2702.00      51.00      400.3       18.7        133       3717    9156.53    1085.84       0.80    2667.63 
   2702.50      46.45      400.4       18.6        133       3716    9272.65    1085.86       0.82    2668.06 
   2703.00      30.69      400.2       18.9        132       3713    9179.60    1085.96       0.91    2668.47 
   2703.50      33.12      399.9       19.2        133       3713    9520.53    1086.05       0.89    2668.90 
   2704.00      47.66      400.8       18.3        134       3714    8802.07    1086.15       0.81    2669.36 
   2704.50      41.84      401.0       18.1        134       3715    9217.88    1086.15       0.84    2669.82 
