~VERSION INFORMATION
VERS.    2.0:   CWLS LOG ASCII STANDARD - VERSION 2.0
WRAP.     NO:   ONE LINE PER STEP
~WELL INFORMATION BLOCK
#MNEM.UNIT      DATA                  DESCRIPTION OF MNEMONIC
#----   --------             ---------------
STRT.m  259.50                   :START DEPTH
STOP.m  5463.00                   :STOP DEPTH
STEP.m  0.50                   :STEP VALUE
NULL.   0                   :NULL VALUE
COMP.   SHELL                   :COMPANY NAME
WELL.   PRELUDE P4                   :WELL NAME
FLD .   PRELUDE                   :FIELD NAME
LOC .                      :LOCATION
PROV.                      :PROVINCE
SRVC.   Geoservices                   :SERVICE COMPANY NAME
DATE.   10-14-2015 04:29:56                   :DATE
UWI .                      :UNIQUE WELL IDENTIFIER
~CURVE INFORMATION
#MNEM.UNIT       API CODE        CURVE DESCRIPTION
#----   -------- ------------------
Tot Depth .m        :Tot Depth
ROP m/hr .m/h        :ROP m/hr
WOH .klbs        :WOH
WOB .klbs        :WOB
RPM .rpm        :RPM
SPP .psi        :SPP
TORQUE .lb*ft        :TORQUE
FLWpmps .gpm        :FLWpmps
D Exp .....        :D Exp
TVD Depth .m        :TVD Depth
#
#-----------------------------------------------------------
# Tot Depth (m)   ROP m/hr (m/h)   WOH (klbs)   WOB (klbs)   RPM (rpm)   SPP (psi)   TORQUE (lb*ft)   FLWpmps (gpm)   D Exp (....)   TVD Depth (m)
#-----------------------------------------------------------
~A
# ...
   4055.50      24.30      460.6       17.5        160       4307   13578.90    1112.55       0.77    3678.90 
   4056.00      32.05      459.2       20.1        160       4309   13428.36    1110.30       0.75    3679.19 
   4056.50      21.01      461.4       17.9        160       4305   13788.21     873.54       0.80    3679.47 
   4057.00      33.70      460.8       18.5        159       4304   13742.95     743.27       0.73    3679.75 
   4057.50      23.07      459.7       19.5        160       4307   13755.73     757.43       0.80    3680.04 
   4058.00      17.37      460.4       18.9        160       4310   13664.07     899.26       0.85    3680.33 
   4058.50      26.90      460.5       18.8        159       4310   14335.68    1117.26       0.77    3680.61 
   4059.00      23.95      461.9       17.3        158       4308   14449.09    1112.11       0.77    3680.89 
   4059.50      22.95      461.7       17.5        157       4314   14888.33    1110.24       0.78    3681.18 
   4060.00      29.28      460.5       18.8        157       4313   15078.79     986.97       0.75    3681.46 
   4060.50      24.79      460.4       18.8        158       4309   14443.68    1092.92       0.78    3681.75 
   4061.00      25.83      459.3       20.0        160       4311   13646.09    1114.06       0.79    3682.03 
   4061.50      26.53      457.6       21.7        158       4310   14227.31    1113.90       0.80    3682.35 
   4062.00      23.79      458.8       20.5        160       4307   13723.77    1113.05       0.81    3682.61 
   4062.50      22.84      459.9       19.4        159       4308   13731.65    1113.29       0.80    3682.88 
   4063.00      26.41      461.2       18.1        159       4308   13665.55    1113.96       0.76    3683.16 
   4063.50      24.97      460.6       18.7        158       4310   13916.70    1113.91       0.78    3683.45 
   4064.00      24.96      458.4       20.9        158       4307   13888.94    1113.57       0.80    3683.73 
   4064.50      17.30      458.9       20.4        161       4303   12565.42    1102.08       0.86    3684.08 
   4065.00      24.73      451.8       21.0        134       4335    7673.50     742.59       0.85    3684.30 
   4065.50      18.58      465.2       18.5        140       4381    7753.81     744.54       0.71    3684.59 
   4066.00      14.95      464.4       16.5        135       4354    9795.47     745.27       0.75    3684.86 
   4066.50      18.75      463.2       12.6        153       4344   12022.48    1030.53       0.75    3685.16 
   4067.00      16.63      464.1       13.2        161       4337   11946.43    1118.37       0.78    3685.43 
   4067.50      26.40      464.0       16.1        162       4335   12487.00    1118.59       0.75    3685.71 
   4068.00      22.47      464.0       16.1        161       4331   13458.77    1118.71       0.77    3685.99 
   4068.50      18.40      463.8       16.2        160       4334   13572.66    1118.88       0.81    3686.29 
   4069.00      21.32      462.9       17.1        160       4335   13823.91    1119.13       0.79    3686.55 
   4069.50      28.99      462.7       17.4        162       4333   13206.10    1119.12       0.74    3686.83 
   4070.00      24.42      463.0       17.1        160       4333   13717.83    1119.40       0.77    3687.13 
   4070.50      25.00      462.6       17.5        161       4333   13522.16    1119.28       0.77    3687.39 
   4071.00      31.80      463.6       16.5        161       4332   13197.33    1119.44       0.72    3687.69 
   4071.50      25.22      463.0       17.0        160       4325   13812.06    1119.11       0.76    3687.95 
   4072.00      22.19      463.2       16.9        161       4330   13599.98    1119.33       0.78    3688.24 
   4072.50      27.62      463.0       17.1        159       4330   13934.36    1118.99       0.75    3688.51 
   4073.00      28.57      463.2       16.9        160       4327   13974.47    1119.11       0.74    3688.79 
   4073.50      23.19      463.6       16.4        159       4332   14348.88    1119.22       0.77    3689.06 
   4074.00      25.98      463.6       16.5        158       4338   14843.34    1119.13       0.75    3689.35 
   4074.50      25.87      463.4       16.6        158       4336   14623.00    1118.82       0.75    3689.63 
   4075.00      29.03      463.5       16.5        158       4339   14556.78    1119.16       0.73    3689.91 
   4075.50      20.83      463.2       16.8        162       4350   13078.02    1118.74       0.79    3690.24 
   4076.00      19.99      462.8       17.3        161       4411   13472.99    1117.03       0.80    3690.46 
   4076.50      27.22      462.4       17.6        156       4359   15573.73    1118.67       0.75    3690.77 
   4077.00      31.96      462.3       17.8        160       4345   14818.03    1119.03       0.70    3691.04 
   4077.50      23.42      462.7       17.3        164       4343   14373.92    1118.68       0.78    3691.29 
   4078.00      25.84      462.5       17.5        163       4337   14672.60    1118.87       0.77    3691.57 
   4078.50      24.15      462.5       17.6        163       4338   14554.35    1118.92       0.78    3691.85 
   4079.00      24.96      462.7       17.4        163       4332   14605.47    1119.19       0.77    3692.13 
   4079.50      29.68      462.6       17.5        163       4328   14723.87    1119.01       0.74    3692.42 
   4080.00      23.28      462.6       17.4        164       4328   14338.94    1118.82       0.78    3692.67 
   4080.50      28.91      462.5       17.5        161       4329   15337.67    1119.37       0.75    3692.95 
   4081.00      25.44      462.6       17.5        159       4334   15985.22    1119.30       0.76    3693.23 
   4081.50      29.57      462.4       17.6        159       4325   15959.47    1119.34       0.74    3693.54 
   4082.00      21.48      462.9       17.2        161       4325   15476.81    1119.48       0.79    3693.78 
   4082.50      28.93      463.0       17.1        160       4329   16082.47    1119.26       0.74    3694.07 
   4083.00      24.29      463.0       17.0        161       4323   15603.99    1119.68       0.77    3694.33 
   4083.50      25.76      463.1       17.0        162       4322   15055.76    1119.07       0.76    3694.62 
   4084.00      19.25      449.5       19.5        167       4347   13496.21    1125.04       0.84    3694.88 
   4084.50      19.57      436.3       15.4        166       4351   13452.49    1123.47       0.79    3695.16 
   4085.00      15.91      437.0       14.8        169       4324   12438.86    1119.96       0.82    3695.44 
   4085.50      20.53      435.1       16.7        171       4206   11470.86    1095.05       0.80    3695.71 
   4086.00      26.63      432.7       19.1        163       4074   14399.79    1068.42       0.78    3695.98 
   4086.50      37.14      433.1       18.7        160       4102   16461.63    1089.24       0.71    3696.26 
   4087.00      22.83      431.8       19.9        161       4076   15836.57    1078.05       0.81    3696.55 
   4087.50      13.33      460.8       13.3        165       4296   14176.38    1118.04       0.82    3696.79 
   4088.00      23.07      463.2       15.3        166       4282   13326.50    1113.24       0.76    3697.07 
   4088.50      37.79      462.9       15.6        166       4283   13698.27    1114.43       0.69    3697.37 
   4089.00      19.12      463.0       15.5        167       4282   13269.16    1114.07       0.80    3697.65 
   4089.50      20.87      462.9       15.6        166       4280   13604.24    1114.20       0.78    3697.89 
   4090.00      20.58      463.1       15.4        166       4284   13561.67    1113.98       0.78    3698.15 
   4090.50      27.57      463.2       15.3        165       4283   13932.16    1114.25       0.73    3698.45 
   4091.00      24.14      463.1       15.4        165       4283   14151.77    1114.47       0.76    3698.73 
   4091.50      20.81      463.2       15.3        163       4283   14578.56    1113.11       0.78    3698.97 
