~VERSION INFORMATION
VERS.    2.0:   CWLS LOG ASCII STANDARD - VERSION 2.0
WRAP.     NO:   ONE LINE PER STEP
~WELL INFORMATION BLOCK
#MNEM.UNIT      DATA                  DESCRIPTION OF MNEMONIC
#----   --------             ---------------
STRT.m  259.50                   :START DEPTH
STOP.m  5463.00                   :STOP DEPTH
STEP.m  0.50                   :STEP VALUE
NULL.   0                   :NULL VALUE
COMP.   SHELL                   :COMPANY NAME
WELL.   PRELUDE P4                   :WELL NAME
FLD .   PRELUDE                   :FIELD NAME
LOC .                      :LOCATION
PROV.                      :PROVINCE
SRVC.   Geoservices                   :SERVICE COMPANY NAME
DATE.   10-14-2015 04:29:56                   :DATE
UWI .                      :UNIQUE WELL IDENTIFIER
~CURVE INFORMATION
#MNEM.UNIT       API CODE        CURVE DESCRIPTION
#----   -------- ------------------
Tot Depth .m        :Tot Depth
ROP m/hr .m/h        :ROP m/hr
WOH .klbs        :WOH
WOB .klbs        :WOB
RPM .rpm        :RPM
SPP .psi        :SPP
TORQUE .lb*ft        :TORQUE
FLWpmps .gpm        :FLWpmps
D Exp .....        :D Exp
TVD Depth .m        :TVD Depth
#
#-----------------------------------------------------------
# Tot Depth (m)   ROP m/hr (m/h)   WOH (klbs)   WOB (klbs)   RPM (rpm)   SPP (psi)   TORQUE (lb*ft)   FLWpmps (gpm)   D Exp (....)   TVD Depth (m)
#-----------------------------------------------------------
~A
# ...
   3362.00      30.67      424.2       11.5        165       3915   14609.31    1103.12       0.65    3178.30 
   3362.50      22.84      424.3       12.5        164       3913   14764.07    1103.12       0.69    3178.66 
   3363.00      28.53      423.9       11.9        162       3912   15539.62    1102.92       0.67    3179.08 
   3363.50      29.98      423.8       13.5        162       3906   15585.43    1103.03       0.67    3179.47 
   3364.00      23.98      423.7       11.5        163       3916   15397.48    1102.89       0.70    3179.87 
   3364.50      26.29      423.8       12.5        161       3913   15843.54    1103.04       0.69    3180.20 
   3365.00      30.89      423.5       14.5        162       3912   15707.02    1102.98       0.67    3180.59 
   3365.50      34.31      423.6       14.5        163       3912   15422.07    1103.12       0.66    3180.96 
   3366.00      10.21      424.9       14.9        167       3904   12175.04    1103.38       0.92    3181.36 
   3366.50      10.39      420.8       14.5         50       3958    2407.89    1102.11       0.86    3181.73 
   3367.00      20.95      418.7       17.4        168       3955    7484.59    1102.21       1.00    3182.11 
   3367.50      16.45      428.3        8.8        162       3938   10143.04    1102.72       0.89    3182.51 
   3368.00      20.21      427.1       10.8        157       3940   12213.67    1102.62       0.89    3182.94 
   3368.50      26.11      426.4       11.4        153       3944   14213.50    1102.34       0.85    3183.31 
   3369.00      26.62      426.3       14.5        154       3950   14061.36    1102.45       0.89    3183.66 
   3369.50      27.47      426.0       15.4        153       3950   14491.85    1102.25       0.90    3184.17 
   3370.00      21.38      426.1       18.9        152       3949   14696.84    1102.33       1.00    3184.56 
   3370.50      23.67      426.1       18.9        152       3953   14493.73    1102.28       0.98    3184.94 
   3371.00      31.33      425.9       19.1        151       3945   14863.35    1102.64       0.92    3185.37 
   3371.50      30.96      425.6       18.1        152       3949   14836.58    1102.45       0.91    3185.71 
   3372.00      27.48      425.7       16.3        152       3950   14799.66    1102.37       0.91    3186.09 
   3372.50      34.35      425.5       16.5        154       3947   14123.02    1102.41       0.87    3186.47 
   3373.00      28.29      418.6       23.5        154       3942   13818.78    1102.61       0.99    3186.87 
   3373.50      47.00      412.3       22.0        153       3773   14193.46    1059.62       0.94    3187.24 
   3374.00          0          0          0          0          0          0          0          0          0 
   3374.50      36.45      412.0       21.0        137       3663   16741.24    1054.58       0.98    3188.03 
   3375.00      25.65      412.2       22.0        150       3666   15687.55    1054.25       1.02    3188.41 
   3375.50      22.66      420.3       21.0        155       3859   13636.21    1092.15       0.81    3188.80 
   3376.00      23.20      428.7       20.0        158       3941   12515.16    1102.34       0.81    3189.18 
   3376.50      17.30      422.3       20.4        159       3865   12033.34    1086.66       1.07    3189.54 
   3377.00          0          0          0          0          0          0          0          0          0 
   3377.50      20.06      413.1       29.2        157       3661   12890.00    1055.00       1.14    3190.31 
   3378.00      29.16      413.2       19.1        154       3669   14032.52    1062.90       0.94    3190.72 
   3378.50      18.79      422.6       18.5        158       3960   12099.14    1108.16       0.81    3191.10 
   3379.00      24.56      427.0       15.2        157       3973   12584.78    1107.55       0.62    3191.56 
   3379.50      26.86      426.9       12.4        155       3975   13348.43    1107.57       0.61    3191.91 
   3380.00      22.28      426.3       14.2        149       3977   15040.42    1107.80       0.66    3192.25 
   3380.50      27.47      426.4       14.5        153       3975   14420.50    1107.57       0.78    3192.64 
   3381.00      32.30      426.5       15.6        152       3971   14999.93    1107.62       0.87    3193.01 
   3381.50      31.07      426.2       15.9        153       3973   14472.94    1107.75       0.88    3193.41 
   3382.00      26.51      425.9       16.1        151       3974   15093.72    1107.59       0.91    3193.78 
   3382.50      30.87      426.2       15.8        152       3972   14652.73    1107.23       0.88    3194.16 
   3383.00      25.56      425.7       16.4        152       3970   15158.49    1107.48       0.92    3194.58 
   3383.50      25.01      425.3       16.7        150       3969   15699.55    1107.66       0.93    3194.93 
   3384.00      30.37      425.4       16.7        150       3969   15715.20    1107.66       0.89    3195.32 
   3384.50      30.08      425.4       16.7        148       3969   16420.79    1107.81       0.89    3195.72 
   3385.00      27.76      425.0       17.0        148       3972   16402.95    1107.53       0.91    3196.09 
   3385.50      26.24      424.5       17.5        149       3965   16236.44    1107.65       0.93    3196.50 
   3386.00      31.01      424.1       17.9        139       3962   17156.31    1107.69       0.89    3196.86 
   3386.50      14.00      424.1       17.9        143       3965   16272.67    1108.01       1.06    3197.24 
   3387.00      18.06      425.6       16.4        157       3960   13164.44    1108.15       1.00    3197.62 
   3387.50      16.42      426.2       15.9        157       3962   12587.93    1107.81       1.01    3198.00 
   3388.00      22.19      425.6       17.9        155       3964   13533.69    1107.91       0.98    3198.41 
   3388.50      20.16      425.5       18.1        154       3963   14060.30    1107.65       1.00    3198.77 
   3389.00      31.40      425.3       18.2        153       3963   14508.91    1107.79       0.91    3199.20 
   3389.50      20.69      424.7       18.8        151       3965   14962.11    1107.52       1.00    3199.56 
   3390.00      22.60      424.4       19.2        151       3964   15630.56    1107.46       0.99    3199.93 
   3390.50      27.32      424.5       19.1        149       3966   15903.08    1107.71       0.94    3200.33 
   3391.00      24.59      424.1       19.4        145       3963   16410.70    1107.85       0.96    3200.70 
   3391.50      28.23      424.4       19.1        149       3966   16230.18    1107.88       0.94    3201.12 
   3392.00      20.09      424.4       19.1        147       3964   15980.80    1108.13       1.01    3201.49 
   3392.50      22.29      424.2       19.3        151       3962   15423.02    1108.03       0.99    3201.89 
   3393.00      24.28      423.9       19.6        148       3965   16571.26    1107.51       0.97    3202.24 
   3393.50      25.54      423.9       19.6        147       3957   16646.29    1107.79       0.96    3202.66 
   3394.00      22.66      424.3       19.2        142       3963   17260.17    1107.91       0.97    3203.01 
   3394.50      24.95      424.7       18.9        149       3964   16248.04    1107.93       0.96    3203.40 
   3395.00      18.04      417.5       16.0        157       3955   13378.36    1107.91       1.13    3203.77 
   3395.50      24.95      412.8       17.4        158       3953   12334.55    1107.82       0.95    3204.16 
   3396.00      24.58      419.0       13.5        162       3822   10380.05    1085.30       1.07    3204.57 
   3396.50      10.03      427.5       10.3        148       3949    8408.74    1101.26       1.00    3204.95 
   3397.00      15.76      427.5       16.7        142       3946   11202.53    1101.62       1.01    3205.32 
   3397.50      20.52      427.3       17.0        139       3947   12979.53    1101.81       0.96    3205.70 
   3398.00      28.74      426.4       17.8        138       3953   13132.32    1101.85       0.90    3206.13 
